{"geonames": [{"adminCode1": "21", "adminName1": "Ivanovo", "countryCode": "RU", "countryId": "2017370", "countryName": "Russia", "fcl": "P", "fclName": "city, village,...", "fcode": "PPL", "fcodeName": "populated place", "geonameId": 471162, "lat": "56.59206", "lng": "41.02175", "name": "Voznesen'ye", "population": 0, "toponymName": "Voznesen\u2019ye"}, {"adminCode1": "47", "adminName1": "Moskovskaya", "countryCode": "RU", "countryId": "2017370", "countryName": "Russia", "fcl": "P", "fclName": "city, village,...", "fcode": "PPL", "fcodeName": "populated place", "geonameId": 471656, "lat": "55.31733", "lng": "38.65264", "name": "Voskresensk", "population": 77086, "toponymName": "Voskresensk"}, {"adminCode1": "83", "adminName1": "Vladimir", "countryCode": "RU", "countryId": "2017370", "countryName": "Russia", "fcl": "P", "fclName": "city, village,...", "fcode": "PPL", "fcodeName": "populated place", "geonameId": 7077621, "lat": "56.44626", "lng": "39.86181", "name": "Voskresenskoye", "population": 0, "toponymName": "Voskresenskoye"}, {"adminCode1": "21", "adminName1": "Ivanovo", "countryCode": "RU", "countryId": "2017370", "countryName": "Russia", "fcl": "P", "fclName": "city, village,...", "fcode": "PPL", "fcodeName": "populated place", "geonameId": 471609, "lat": "56.70194", "lng": "40.96161", "name": "Voskresenskoye", "population": 0, "toponymName": "Voskresenskoye"}, {"adminCode1": "21", "adminName1": "Ivanovo", "countryCode": "RU", "countryId": "2017370", "countryName": "Russia", "fcl": "P", "fclName": "city, village,...", "fcode": "PPL", "fcodeName": "populated place", "geonameId": 471611, "lat": "56.62593", "lng": "41.41698", "name": "Voskresenskoye", "population": 0, "toponymName": "Voskresenskoye"}, {"adminCode1": "83", "adminName1": "Vladimir", "countryCode": "RU", "countryId": "2017370", "countryName": "Russia", "fcl": "P", "fclName": "city, village,...", "fcode": "PPL", "fcodeName": "populated place", "geonameId": 471652, "lat": "56.1745", "lng": "39.2248", "name": "Voskresenskoye", "population": 0, "toponymName": "Voskresenskoye"}, {"adminCode1": "83", "adminName1": "Vladimir", "countryCode": "RU", "countryId": "2017370", "countryName": "Russia", "fcl": "P", "fclName": "city, village,...", "fcode": "PPL", "fcodeName": "populated place", "geonameId": 6609972, "lat": "56.13119", "lng": "42.45036", "name": "Voznesen\u2019ye", "population": 0, "toponymName": "Voznesen\u2019ye"}, {"adminCode1": "21", "adminName1": "Ivanovo", "countryCode": "RU", "countryId": "2017370", "countryName": "Russia", "fcl": "P", "fclName": "city, village,...", "fcode": "PPL", "fcodeName": "populated place", "geonameId": 7077866, "lat": "56.92411", "lng": "39.88482", "name": "Voskresenskoye", "population": 0, "toponymName": "Voskresenskoye"}, {"adminCode1": "88", "adminName1": "Jaroslavl", "countryCode": "RU", "countryId": "2017370", "countryName": "Russia", "fcl": "P", "fclName": "city, village,...", "fcode": "PPLQ", "fcodeName": "abandoned populated place", "geonameId": 7078546, "lat": "57.16606", "lng": "39.6559", "name": "Voskresenskoye", "population": 0, "toponymName": "Voskresenskoye"}, {"adminCode1": "21", "adminName1": "Ivanovo", "countryCode": "RU", "countryId": "2017370", "countryName": "Russia", "fcl": "P", "fclName": "city, village,...", "fcode": "PPL", "fcodeName": "populated place", "geonameId": 471605, "lat": "57.11928", "lng": "41.4208", "name": "Voskresenskoye", "population": 0, "toponymName": "Voskresenskoye"}, {"adminCode1": "21", "adminName1": "Ivanovo", "countryCode": "RU", "countryId": "2017370", "countryName": "Russia", "fcl": "P", "fclName": "city, village,...", "fcode": "PPL", "fcodeName": "populated place", "geonameId": 471608, "lat": "56.81667", "lng": "42", "name": "Voskresenskoye", "population": 0, "toponymName": "Voskresenskoye"}, {"adminCode1": "83", "adminName1": "Vladimir", "countryCode": "RU", "countryId": "2017370", "countryName": "Russia", "fcl": "P", "fclName": "city, village,...", "fcode": "PPL", "fcodeName": "populated place", "geonameId": 471613, "lat": "56.33333", "lng": "38.48333", "name": "Voskresenskoye", "population": 0, "toponymName": "Voskresenskoye"}, {"adminCode1": "83", "adminName1": "Vladimir", "countryCode": "RU", "countryId": "2017370", "countryName": "Russia", "fcl": "P", "fclName": "city, village,...", "fcode": "PPL", "fcodeName": "populated place", "geonameId": 471616, "lat": "55.97119", "lng": "39.10587", "name": "Voskresenskoye", "population": 0, "toponymName": "Voskresenskoye"}, {"adminCode1": "47", "adminName1": "Moskovskaya", "countryCode": "RU", "countryId": "2017370", "countryName": "Russia", "fcl": "P", "fclName": "city, village,...", "fcode": "PPL", "fcodeName": "populated place", "geonameId": 471617, "lat": "55.92725", "lng": "38.29984", "name": "Voskresenskoye", "population": 0, "toponymName": "Voskresenskoye"}, {"adminCode1": "47", "adminName1": "Moskovskaya", "countryCode": "RU", "countryId": "2017370", "countryName": "Russia", "fcl": "P", "fclName": "city, village,...", "fcode": "PPL", "fcodeName": "populated place", "geonameId": 471620, "lat": "55.42413", "lng": "38.06", "name": "Voskresenskoye", "population": 0, "toponymName": "Voskresenskoye"}, {"adminCode1": "83", "adminName1": "Vladimir", "countryCode": "RU", "countryId": "2017370", "countryName": "Russia", "fcl": "P", "fclName": "city, village,...", "fcode": "PPL", "fcodeName": "populated place", "geonameId": 6422233, "lat": "56.22124", "lng": "41.03834", "name": "Voskresenskoye", "population": 0, "toponymName": "Voskresenskoye"}, {"adminCode1": "21", "adminName1": "Ivanovo", "countryCode": "RU", "countryId": "2017370", "countryName": "Russia", "fcl": "P", "fclName": "city, village,...", "fcode": "PPL", "fcodeName": "populated place", "geonameId": 471604, "lat": "57.18137", "lng": "42.42784", "name": "Voskresenskoye", "population": 0, "toponymName": "Voskresenskoye"}, {"adminCode1": "88", "adminName1": "Jaroslavl", "countryCode": "RU", "countryId": "2017370", "countryName": "Russia", "fcl": "P", "fclName": "city, village,...", "fcode": "PPL", "fcodeName": "populated place", "geonameId": 7588362, "lat": "57.0698", "lng": "38.4017", "name": "Voskresenka", "population": 0, "toponymName": "Voskresenka"}, {"adminCode1": "83", "adminName1": "Vladimir", "countryCode": "RU", "countryId": "2017370", "countryName": "Russia", "fcl": "P", "fclName": "city, village,...", "fcode": "PPL", "fcodeName": "populated place", "geonameId": 517709, "lat": "56.28333", "lng": "38.46667", "name": "Novovoskresenskoye", "population": 0, "toponymName": "Novovoskresenskoye"}], "searchinfo": {"east": 43.3445, "featureClass": "P", "fuzzy": 0.5, "hgr_id": 114, "name": "\u0412\u043e\u0437\u043d\u0435\u0441\u0435\u043d\u0441\u043a\u043e\u0439", "north": 57.246, "south": 54.9145, "type": "json", "url": "http://api.geonames.org/search?type=json&west=37.8508&featureClass=P&east=43.3445&north=57.246&name=%D0%92%D0%BE%D0%B7%D0%BD%D0%B5%D1%81%D0%B5%D0%BD%D1%81%D0%BA%D0%BE%D0%B9&fuzzy=0.5&username=jaguillette&south=54.9145", "username": "jaguillette", "west": 37.8508}, "totalResultsCount": 19}