{"geonames": [{"adminCode1": "21", "adminName1": "Ivanovo", "countryCode": "RU", "countryId": "2017370", "countryName": "Russia", "fcl": "P", "fclName": "city, village,...", "fcode": "PPLA", "fcodeName": "seat of a first-order administrative division", "geonameId": 555312, "lat": "56.99719", "lng": "40.97139", "name": "Ivanovo", "population": 420839, "toponymName": "Ivanovo"}, {"adminCode1": "83", "adminName1": "Vladimir", "countryCode": "RU", "countryId": "2017370", "countryName": "Russia", "fcl": "P", "fclName": "city, village,...", "fcode": "PPL", "fcodeName": "populated place", "geonameId": 555313, "lat": "56.18329", "lng": "41.47882", "name": "Ivanovo", "population": 0, "toponymName": "Ivanovo"}, {"adminCode1": "85", "adminName1": "Vologda", "countryCode": "RU", "countryId": "2017370", "countryName": "Russia", "fcl": "P", "fclName": "city, village,...", "fcode": "PPL", "fcodeName": "populated place", "geonameId": 555302, "lat": "59.50998", "lng": "37.43085", "name": "Ivanovo", "population": 0, "toponymName": "Ivanovo"}, {"adminCode1": "21", "adminName1": "Ivanovo", "countryCode": "RU", "countryId": "2017370", "countryName": "Russia", "fcl": "P", "fclName": "city, village,...", "fcode": "PPL", "fcodeName": "populated place", "geonameId": 555311, "lat": "57.20951", "lng": "41.68383", "name": "Ivanovo", "population": 0, "toponymName": "Ivanovo"}, {"adminCode1": "88", "adminName1": "Jaroslavl", "countryCode": "RU", "countryId": "2017370", "countryName": "Russia", "fcl": "P", "fclName": "city, village,...", "fcode": "PPL", "fcodeName": "populated place", "geonameId": 7587569, "lat": "57.7455", "lng": "38.1876", "name": "Ivanovo", "population": 0, "toponymName": "Ivanovo"}, {"adminCode1": "77", "adminName1": "Tverskaya", "countryCode": "RU", "countryId": "2017370", "countryName": "Russia", "fcl": "P", "fclName": "city, village,...", "fcode": "PPL", "fcodeName": "populated place", "geonameId": 555306, "lat": "58.5482", "lng": "37.0884", "name": "Ivanovo", "population": 0, "toponymName": "Ivanovo"}, {"adminCode1": "85", "adminName1": "Vologda", "countryCode": "RU", "countryId": "2017370", "countryName": "Russia", "fcl": "P", "fclName": "city, village,...", "fcode": "PPL", "fcodeName": "populated place", "geonameId": 555301, "lat": "59.61012", "lng": "41.297", "name": "Ivanovo", "population": 0, "toponymName": "Ivanovo"}, {"adminCode1": "37", "adminName1": "Kostroma", "countryCode": "RU", "countryId": "2017370", "countryName": "Russia", "fcl": "P", "fclName": "city, village,...", "fcode": "PPL", "fcodeName": "populated place", "geonameId": 555305, "lat": "58.66667", "lng": "43.85", "name": "Ivanovo", "population": 0, "toponymName": "Ivanovo"}, {"adminCode1": "88", "adminName1": "Jaroslavl", "countryCode": "RU", "countryId": "2017370", "countryName": "Russia", "fcl": "P", "fclName": "city, village,...", "fcode": "PPL", "fcodeName": "populated place", "geonameId": 555310, "lat": "57.23389", "lng": "38.32472", "name": "Ivanovo", "population": 0, "toponymName": "Ivanovo"}, {"adminCode1": "83", "adminName1": "Vladimir", "countryCode": "RU", "countryId": "2017370", "countryName": "Russia", "fcl": "P", "fclName": "city, village,...", "fcode": "PPL", "fcodeName": "populated place", "geonameId": 555315, "lat": "55.94852", "lng": "39.21129", "name": "Ivanovo", "population": 0, "toponymName": "Ivanovo"}, {"adminCode1": "88", "adminName1": "Jaroslavl", "countryCode": "RU", "countryId": "2017370", "countryName": "Russia", "fcl": "P", "fclName": "city, village,...", "fcode": "PPL", "fcodeName": "populated place", "geonameId": 7077897, "lat": "56.98992", "lng": "39.02329", "name": "Ivanovo", "population": 0, "toponymName": "Ivanovo"}, {"adminCode1": "51", "adminName1": "Nizjnij Novgorod", "countryCode": "RU", "countryId": "2017370", "countryName": "Russia", "fcl": "P", "fclName": "city, village,...", "fcode": "PPL", "fcodeName": "populated place", "geonameId": 6608392, "lat": "56.69119", "lng": "43.41589", "name": "Ivanovo", "population": 0, "toponymName": "Ivanovo"}, {"adminCode1": "21", "adminName1": "Ivanovo", "countryCode": "RU", "countryId": "2017370", "countryName": "Russia", "fcl": "P", "fclName": "city, village,...", "fcode": "PPL", "fcodeName": "populated place", "geonameId": 6610257, "lat": "56.57914", "lng": "42.72996", "name": "Ivanovo", "population": 0, "toponymName": "Ivanovo"}, {"adminCode1": "62", "adminName1": "Rjazan", "countryCode": "RU", "countryId": "2017370", "countryName": "Russia", "fcl": "P", "fclName": "city, village,...", "fcode": "PPL", "fcodeName": "populated place", "geonameId": 555190, "lat": "54.2389", "lng": "39.8516", "name": "Ivanovskoye", "population": 0, "toponymName": "Ivanovskoye"}, {"adminCode1": "21", "adminName1": "Ivanovo", "countryCode": "RU", "countryId": "2017370", "countryName": "Russia", "fcl": "P", "fclName": "city, village,...", "fcode": "PPL", "fcodeName": "populated place", "geonameId": 6423169, "lat": "56.75188", "lng": "41.65695", "name": "Ivanovo-Il\u2019ino", "population": 0, "toponymName": "Ivanovo-Il\u2019ino"}, {"adminCode1": "37", "adminName1": "Kostroma", "countryCode": "RU", "countryId": "2017370", "countryName": "Russia", "fcl": "P", "fclName": "city, village,...", "fcode": "PPLQ", "fcodeName": "abandoned populated place", "geonameId": 6423300, "lat": "57.98166", "lng": "42.16811", "name": "Ivanovo", "population": 0, "toponymName": "Ivanovo"}, {"adminCode1": "43", "adminName1": "Lipetsk", "countryCode": "RU", "countryId": "2017370", "countryName": "Russia", "fcl": "P", "fclName": "city, village,...", "fcode": "PPL", "fcodeName": "populated place", "geonameId": 489714, "lat": "53.2609", "lng": "38.99281", "name": "Speshn\u00ebvo-Ivanovskoye", "population": 0, "toponymName": "Speshn\u00ebvo-Ivanovskoye"}, {"adminCode1": "83", "adminName1": "Vladimir", "countryCode": "RU", "countryId": "2017370", "countryName": "Russia", "fcl": "P", "fclName": "city, village,...", "fcode": "PPL", "fcodeName": "populated place", "geonameId": 555166, "lat": "56.44", "lng": "40.25363", "name": "Ivanovskoye-Shuyskoye", "population": 0, "toponymName": "Ivanovskoye-Shuyskoye"}], "searchinfo": {"east": 44.416667, "featureClass": "P", "fuzzy": 1, "hgr_id": 246, "name": "\u0418\u0432\u0430\u043d\u043e\u0432\u043e", "north": 60.133333, "south": 52.133333, "type": "json", "url": "http://api.geonames.org/search?name=%D0%98%D0%B2%D0%B0%D0%BD%D0%BE%D0%B2%D0%BE&type=json&north=60.133333&featureClass=P&east=44.416667&west=36.416667&south=52.133333&username=jaguillette&fuzzy=1", "username": "jaguillette", "west": 36.416667}, "totalResultsCount": 18}