{"geonames": [{"adminCode1": "21", "adminName1": "Sumy", "countryCode": "UA", "countryId": "690791", "countryName": "Ukraine", "fcl": "P", "fclName": "city, village,...", "fcode": "PPL", "fcodeName": "populated place", "geonameId": 8408340, "lat": "51.10906", "lng": "33.62789", "name": "Korenivka", "population": 0, "toponymName": "Korenivka"}, {"adminCode1": "69", "adminName1": "Smolensk", "countryCode": "RU", "countryId": "2017370", "countryName": "Russia", "fcl": "P", "fclName": "city, village,...", "fcode": "PPL", "fcodeName": "populated place", "geonameId": 812859, "lat": "55.54667", "lng": "35.25611", "name": "Korennoye", "population": 0, "toponymName": "Korennoye"}, {"adminCode1": "69", "adminName1": "Smolensk", "countryCode": "RU", "countryId": "2017370", "countryName": "Russia", "fcl": "P", "fclName": "city, village,...", "fcode": "PPL", "fcodeName": "populated place", "geonameId": 812929, "lat": "54.09289", "lng": "33.13198", "name": "Korenevka", "population": 0, "toponymName": "Korenevka"}, {"adminCode1": "56", "adminName1": "Orjol", "countryCode": "RU", "countryId": "2017370", "countryName": "Russia", "fcl": "P", "fclName": "city, village,...", "fcode": "PPL", "fcodeName": "populated place", "geonameId": 544598, "lat": "52.63209", "lng": "37.73856", "name": "Korotkaya", "population": 0, "toponymName": "Korotkaya"}, {"adminCode1": "10", "adminName1": "Brjansk", "countryCode": "RU", "countryId": "2017370", "countryName": "Russia", "fcl": "P", "fclName": "city, village,...", "fcode": "PPL", "fcodeName": "populated place", "geonameId": 546296, "lat": "52.96214", "lng": "34.0135", "name": "Kolodnaya", "population": 0, "toponymName": "Kolodnaya"}, {"adminCode1": "41", "adminName1": "Kursk", "countryCode": "RU", "countryId": "2017370", "countryName": "Russia", "fcl": "P", "fclName": "city, village,...", "fcode": "PPL", "fcodeName": "populated place", "geonameId": 544811, "lat": "51.9164", "lng": "35.7532", "name": "Koren\u00ebvka", "population": 0, "toponymName": "Koren\u00ebvka"}, {"adminCode1": "76", "adminName1": "Tula", "countryCode": "RU", "countryId": "2017370", "countryName": "Russia", "fcl": "P", "fclName": "city, village,...", "fcode": "PPL", "fcodeName": "populated place", "geonameId": 544908, "lat": "53.90732", "lng": "36.95155", "name": "Koren\u00ebvka", "population": 0, "toponymName": "Koren\u00ebvka"}, {"adminCode1": "41", "adminName1": "Kursk", "countryCode": "RU", "countryId": "2017370", "countryName": "Russia", "fcl": "P", "fclName": "city, village,...", "fcode": "PPL", "fcodeName": "populated place", "geonameId": 544909, "lat": "51.3706", "lng": "35.9105", "name": "Koren\u00ebvka", "population": 0, "toponymName": "Koren\u00ebvka"}, {"adminCode1": "09", "adminName1": "Belgorod", "countryCode": "RU", "countryId": "2017370", "countryName": "Russia", "fcl": "P", "fclName": "city, village,...", "fcode": "PPL", "fcodeName": "populated place", "geonameId": 545173, "lat": "50.148", "lng": "39.09183", "name": "Kopanki", "population": 0, "toponymName": "Kopanki"}, {"adminCode1": "69", "adminName1": "Smolensk", "countryCode": "RU", "countryId": "2017370", "countryName": "Russia", "fcl": "P", "fclName": "city, village,...", "fcode": "PPL", "fcodeName": "populated place", "geonameId": 544358, "lat": "55.51861", "lng": "32.92889", "name": "Korytnya", "population": 0, "toponymName": "Korytnya"}, {"adminCode1": "47", "adminName1": "Moskovskaya", "countryCode": "RU", "countryId": "2017370", "countryName": "Russia", "fcl": "P", "fclName": "city, village,...", "fcode": "PPL", "fcodeName": "populated place", "geonameId": 544359, "lat": "54.70556", "lng": "38.26111", "name": "Korytnya", "population": 0, "toponymName": "Korytnya"}, {"adminCode1": "25", "adminName1": "Kaluga", "countryCode": "RU", "countryId": "2017370", "countryName": "Russia", "fcl": "P", "fclName": "city, village,...", "fcode": "PPL", "fcodeName": "populated place", "geonameId": 819281, "lat": "54.80333", "lng": "36.73278", "name": "Korytnya", "population": 0, "toponymName": "Korytnya"}, {"adminCode1": "14", "adminName1": "Luhansk", "countryCode": "UA", "countryId": "690791", "countryName": "Ukraine", "fcl": "P", "fclName": "city, village,...", "fcode": "PPL", "fcodeName": "populated place", "geonameId": 809373, "lat": "48.0762", "lng": "38.82469", "name": "Korinne", "population": 0, "toponymName": "Korinne"}, {"adminCode1": "86", "adminName1": "Voronezj", "countryCode": "RU", "countryId": "2017370", "countryName": "Russia", "fcl": "P", "fclName": "city, village,...", "fcode": "PPL", "fcodeName": "populated place", "geonameId": 544894, "lat": "50.39659", "lng": "39.7422", "name": "Korenshchina", "population": 0, "toponymName": "Korenshchina"}], "searchinfo": {"east": 40.183333, "featureClass": "P", "fuzzy": 0.6000000000000001, "hgr_id": 324, "name": "\u041a\u043e\u0440\u0435\u043d\u043d\u0430\u044f", "north": 55.716667, "south": 47.716667, "type": "json", "url": "http://api.geonames.org/search?name=%D0%9A%D0%BE%D1%80%D0%B5%D0%BD%D0%BD%D0%B0%D1%8F&type=json&north=55.716667&featureClass=P&east=40.183333&west=32.183333&south=47.716667&username=jaguillette&fuzzy=0.6000000000000001", "username": "jaguillette", "west": 32.183333}, "totalResultsCount": 14}