{"geonames": [{"adminCode1": "27", "adminName1": "Zhytomyr", "countryCode": "UA", "countryId": "690791", "countryName": "Ukraine", "fcl": "P", "fclName": "city, village,...", "fcode": "PPL", "fcodeName": "populated place", "geonameId": 712353, "lat": "50.74827", "lng": "29.11219", "name": "Berezyne", "population": 0, "toponymName": "Berezyne"}, {"adminCode1": "69", "adminName1": "Smolensk", "countryCode": "RU", "countryId": "2017370", "countryName": "Russia", "fcl": "P", "fclName": "city, village,...", "fcode": "PPL", "fcodeName": "populated place", "geonameId": 577311, "lat": "54.7117", "lng": "31.32957", "name": "Berezino", "population": 0, "toponymName": "Berezino"}, {"adminCode1": "13", "adminName1": "Kiev", "countryCode": "UA", "countryId": "690791", "countryName": "Ukraine", "fcl": "P", "fclName": "city, village,...", "fcode": "PPL", "fcodeName": "populated place", "geonameId": 712389, "lat": "50.3112", "lng": "31.46712", "name": "Berezan'", "population": 0, "toponymName": "Berezan\u2019"}, {"adminCode1": "10", "adminName1": "Brjansk", "countryCode": "RU", "countryId": "2017370", "countryName": "Russia", "fcl": "P", "fclName": "city, village,...", "fcode": "PPL", "fcodeName": "populated place", "geonameId": 577312, "lat": "53.48654", "lng": "34.44682", "name": "Berezino", "population": 0, "toponymName": "Berezino"}, {"adminCode1": "69", "adminName1": "Smolensk", "countryCode": "RU", "countryId": "2017370", "countryName": "Russia", "fcl": "P", "fclName": "city, village,...", "fcode": "PPL", "fcodeName": "populated place", "geonameId": 577310, "lat": "54.92889", "lng": "31.07", "name": "Berezino", "population": 0, "toponymName": "Berezino"}, {"adminCode1": "05", "adminName1": "Minsk", "countryCode": "BY", "countryId": "630336", "countryName": "Belarus", "fcl": "P", "fclName": "city, village,...", "fcode": "PPL", "fcodeName": "populated place", "geonameId": 630197, "lat": "53.8391", "lng": "28.9879", "name": "Byerazino", "population": 12800, "toponymName": "Byerazino"}, {"adminCode1": "10", "adminName1": "Brjansk", "countryCode": "RU", "countryId": "2017370", "countryName": "Russia", "fcl": "P", "fclName": "city, village,...", "fcode": "PPL", "fcodeName": "populated place", "geonameId": 577317, "lat": "53.0386", "lng": "31.9643", "name": "Berezina", "population": 0, "toponymName": "Berezina"}, {"adminCode1": "10", "adminName1": "Brjansk", "countryCode": "RU", "countryId": "2017370", "countryName": "Russia", "fcl": "P", "fclName": "city, village,...", "fcode": "PPL", "fcodeName": "populated place", "geonameId": 819272, "lat": "52.94911", "lng": "32.38209", "name": "Berezina", "population": 0, "toponymName": "Berezina"}, {"adminCode1": "10", "adminName1": "Brjansk", "countryCode": "RU", "countryId": "2017370", "countryName": "Russia", "fcl": "P", "fclName": "city, village,...", "fcode": "PPL", "fcodeName": "populated place", "geonameId": 816253, "lat": "52.28333", "lng": "32.91583", "name": "Berezina", "population": 0, "toponymName": "Berezina"}, {"adminCode1": "10", "adminName1": "Brjansk", "countryCode": "RU", "countryId": "2017370", "countryName": "Russia", "fcl": "P", "fclName": "city, village,...", "fcode": "PPL", "fcodeName": "populated place", "geonameId": 577318, "lat": "52.78605", "lng": "32.81766", "name": "Berezina", "population": 0, "toponymName": "Berezina"}, {"adminCode1": "07", "adminName1": "Vitebsk", "countryCode": "BY", "countryId": "630336", "countryName": "Belarus", "fcl": "P", "fclName": "city, village,...", "fcode": "PPL", "fcodeName": "populated place", "geonameId": 630196, "lat": "54.9065", "lng": "28.1929", "name": "Berezino", "population": 0, "toponymName": "Berazino"}, {"adminCode1": "02", "adminName1": "Gomel", "countryCode": "BY", "countryId": "630336", "countryName": "Belarus", "fcl": "P", "fclName": "city, village,...", "fcode": "PPL", "fcodeName": "populated place", "geonameId": 8194690, "lat": "52.7518", "lng": "30.3268", "name": "Berezina", "population": 0, "toponymName": "Berezina"}, {"adminCode1": "02", "adminName1": "Gomel", "countryCode": "BY", "countryId": "630336", "countryName": "Belarus", "fcl": "P", "fclName": "city, village,...", "fcode": "PPL", "fcodeName": "populated place", "geonameId": 8194728, "lat": "52.6934", "lng": "30.6179", "name": "Berezina", "population": 0, "toponymName": "Berezina"}, {"adminCode1": "05", "adminName1": "Minsk", "countryCode": "BY", "countryId": "630336", "countryName": "Belarus", "fcl": "P", "fclName": "city, village,...", "fcode": "PPL", "fcodeName": "populated place", "geonameId": 8019882, "lat": "53.7384", "lng": "27.6535", "name": "Berezina", "population": 0, "toponymName": "Berezina"}, {"adminCode1": "27", "adminName1": "Zhytomyr", "countryCode": "UA", "countryId": "690791", "countryName": "Ukraine", "fcl": "P", "fclName": "city, village,...", "fcode": "PPL", "fcodeName": "populated place", "geonameId": 712288, "lat": "50.28333", "lng": "28.85", "name": "Berezyna", "population": 0, "toponymName": "Berezyna"}, {"adminCode1": "02", "adminName1": "Gomel", "countryCode": "BY", "countryId": "630336", "countryName": "Belarus", "fcl": "P", "fclName": "city, village,...", "fcode": "PPL", "fcodeName": "populated place", "geonameId": 8174790, "lat": "52.2168", "lng": "27.7622", "name": "Ber\u00ebzina", "population": 0, "toponymName": "Ber\u00ebzina"}, {"adminCode1": "13", "adminName1": "Kiev", "countryCode": "UA", "countryId": "690791", "countryName": "Ukraine", "fcl": "P", "fclName": "city, village,...", "fcode": "PPL", "fcodeName": "populated place", "geonameId": 712352, "lat": "51.06667", "lng": "29.95", "name": "Berezina", "population": 0, "toponymName": "Berezina"}, {"adminCode1": "06", "adminName1": "Mogilev", "countryCode": "BY", "countryId": "630336", "countryName": "Belarus", "fcl": "P", "fclName": "city, village,...", "fcode": "PPLX", "fcodeName": "section of populated place", "geonameId": 8148796, "lat": "53.2132", "lng": "29.22", "name": "Ber\u00ebzina", "population": 0, "toponymName": "Ber\u00ebzina"}, {"adminCode1": "69", "adminName1": "Smolensk", "countryCode": "RU", "countryId": "2017370", "countryName": "Russia", "fcl": "P", "fclName": "city, village,...", "fcode": "PPL", "fcodeName": "populated place", "geonameId": 575210, "lat": "54.86768", "lng": "30.85447", "name": "Bol\u2019shaya Berezina", "population": 0, "toponymName": "Bol\u2019shaya Berezina"}], "searchinfo": {"east": 35.3, "featureClass": "P", "fuzzy": 0.8, "hgr_id": 38, "name": "\u0411\u0435\u0440\u0435\u0437\u0438\u043d", "north": 55.5, "south": 47.5, "type": "json", "url": "http://api.geonames.org/search?name=%D0%91%D0%B5%D1%80%D0%B5%D0%B7%D0%B8%D0%BD&type=json&north=55.5&featureClass=P&east=35.3&west=27.3&south=47.5&username=jaguillette&fuzzy=0.8", "username": "jaguillette", "west": 27.3}, "totalResultsCount": 19}