{"geonames": [{"adminCode1": "22", "adminName1": "Phnom Penh", "countryCode": "KH", "countryId": "1831722", "countryName": "Cambodia", "fcl": "P", "fclName": "city, village,...", "fcode": "PPLC", "fcodeName": "capital of a political entity", "geonameId": 1821306, "lat": "11.56245", "lng": "104.91601", "name": "Phnom Penh", "population": 1573544, "toponymName": "Phnom Penh"}, {"adminCode1": "03", "adminName1": "Chaco", "countryCode": "AR", "countryId": "3865483", "countryName": "Argentina", "fcl": "P", "fclName": "city, village,...", "fcode": "PPLA2", "fcodeName": "seat of a second-order administrative division", "geonameId": 3840300, "lat": "-26.78522", "lng": "-60.43876", "name": "Presidencia Roque S\u00e1enz Pe\u00f1a", "population": 81879, "toponymName": "Presidencia Roque S\u00e1enz Pe\u00f1a"}, {"adminCode1": "41", "adminName1": "Kursk", "countryCode": "RU", "countryId": "2017370", "countryName": "Russia", "fcl": "P", "fclName": "city, village,...", "fcode": "PPL", "fcodeName": "populated place", "geonameId": 511648, "lat": "51.60722", "lng": "35.48917", "name": "Pena", "population": 0, "toponymName": "Pena"}, {"adminCode1": "15", "adminName1": "Minas Gerais", "countryCode": "BR", "countryId": "3469034", "countryName": "Brazil", "fcl": "P", "fclName": "city, village,...", "fcode": "PPL", "fcodeName": "populated place", "geonameId": 3465639, "lat": "-19.17222", "lng": "-41.47222", "name": "Conselheiro Pena", "population": 12734, "toponymName": "Conselheiro Pena"}, {"adminCode1": "05", "adminName1": "Bicol", "countryCode": "PH", "countryId": "1694008", "countryName": "Philippines", "fcl": "P", "fclName": "city, village,...", "fcode": "PPL", "fcodeName": "populated place", "geonameId": 1694092, "lat": "12.089", "lng": "123.9384", "name": "Pe\u00f1a", "population": 2537, "toponymName": "Pe\u00f1a"}, {"adminCode1": "25", "adminName1": "Santiago", "countryCode": "DO", "countryId": "3508796", "countryName": "Dominican Republic", "fcl": "P", "fclName": "city, village,...", "fcode": "PPL", "fcodeName": "populated place", "geonameId": 3492517, "lat": "19.48538", "lng": "-70.61104", "name": "Tamboril", "population": 23304, "toponymName": "Tamboril"}, {"adminCode1": "35", "adminName1": "Bol\u00edvar", "countryCode": "CO", "countryId": "3686110", "countryName": "Colombia", "fcl": "P", "fclName": "city, village,...", "fcode": "PPL", "fcodeName": "populated place", "geonameId": 3672573, "lat": "9.22614", "lng": "-74.73904", "name": "Pe\u00f1a de Momp\u00f3s", "population": 0, "toponymName": "Pe\u00f1a de Momp\u00f3s"}, {"adminCode1": "06", "adminName1": "Western Visayas", "countryCode": "PH", "countryId": "1694008", "countryName": "Philippines", "fcl": "P", "fclName": "city, village,...", "fcode": "PPL", "fcodeName": "populated place", "geonameId": 1693741, "lat": "11.3562", "lng": "122.7661", "name": "Pe\u00f1a", "population": 0, "toponymName": "Pe\u00f1a"}, {"adminCode1": "00", "adminName1": "", "countryCode": "GH", "countryId": "2300660", "countryName": "Ghana", "fcl": "P", "fclName": "city, village,...", "fcode": "PPL", "fcodeName": "populated place", "geonameId": 2296019, "lat": "6.05", "lng": "0.3", "name": "Pena", "population": 0, "toponymName": "Pena"}, {"adminCode1": "58", "adminName1": "Galicia", "countryCode": "ES", "countryId": "2510769", "countryName": "Spain", "fcl": "P", "fclName": "city, village,...", "fcode": "PPL", "fcodeName": "populated place", "geonameId": 3113991, "lat": "43.12336", "lng": "-8.1161", "name": "Pena", "population": 0, "toponymName": "Pena"}, {"adminCode1": "41", "adminName1": "Sulawesi Barat", "countryCode": "ID", "countryId": "1643084", "countryName": "Indonesia", "fcl": "P", "fclName": "city, village,...", "fcode": "PPL", "fcodeName": "populated place", "geonameId": 7088471, "lat": "-3.0077", "lng": "119.3259", "name": "Pena", "population": 0, "toponymName": "Pena"}, {"adminCode1": "20", "adminName1": "Oaxaca", "countryCode": "MX", "countryId": "3996063", "countryName": "Mexico", "fcl": "P", "fclName": "city, village,...", "fcode": "PPL", "fcodeName": "populated place", "geonameId": 3521671, "lat": "16.16667", "lng": "-95.98333", "name": "Pe\u00f1a Rubia", "population": 0, "toponymName": "Pe\u00f1a Rubia"}, {"adminCode1": "15", "adminName1": "Monte Cristi", "countryCode": "DO", "countryId": "3508796", "countryName": "Dominican Republic", "fcl": "P", "fclName": "city, village,...", "fcode": "PPL", "fcodeName": "populated place", "geonameId": 3495057, "lat": "19.64346", "lng": "-71.34558", "name": "Pe\u00f1a de Ranchadero", "population": 0, "toponymName": "Pe\u00f1a de Ranchadero"}, {"adminCode1": "02", "adminName1": "Cochabamba", "countryCode": "BO", "countryId": "3923057", "countryName": "Bolivia", "fcl": "P", "fclName": "city, village,...", "fcode": "PPL", "fcodeName": "populated place", "geonameId": 3908170, "lat": "-18.17147", "lng": "-64.86929", "name": "Pe\u00f1a Colorada", "population": 0, "toponymName": "Pe\u00f1a Colorada"}, {"adminCode1": "34", "adminName1": "Asturias", "countryCode": "ES", "countryId": "2510769", "countryName": "Spain", "fcl": "P", "fclName": "city, village,...", "fcode": "PPL", "fcodeName": "populated place", "geonameId": 3113902, "lat": "43.32227", "lng": "-5.72205", "name": "Pe\u00f1a Rubia", "population": 0, "toponymName": "Pe\u00f1a Rubia"}, {"adminCode1": "11", "adminName1": "El\u00edas Pi\u00f1a", "countryCode": "DO", "countryId": "3508796", "countryName": "Dominican Republic", "fcl": "P", "fclName": "city, village,...", "fcode": "PPLA", "fcodeName": "seat of a first-order administrative division", "geonameId": 3509386, "lat": "18.8775", "lng": "-71.70278", "name": "Comendador", "population": 12070, "toponymName": "Comendador"}, {"adminCode1": "01", "adminName1": "Buenos Aires", "countryCode": "AR", "countryId": "3865483", "countryName": "Argentina", "fcl": "P", "fclName": "city, village,...", "fcode": "PPL", "fcodeName": "populated place", "geonameId": 3429418, "lat": "-34.60052", "lng": "-58.53008", "name": "S\u00e1enz Pe\u00f1a", "population": 0, "toponymName": "S\u00e1enz Pe\u00f1a"}, {"adminCode1": "13", "adminName1": "Las Tunas", "countryCode": "CU", "countryId": "3562981", "countryName": "Cuba", "fcl": "P", "fclName": "city, village,...", "fcode": "PPL", "fcodeName": "populated place", "geonameId": 3544520, "lat": "21.21333", "lng": "-76.38194", "name": "Pe\u00f1a", "population": 0, "toponymName": "Pe\u00f1a"}, {"adminCode1": "10", "adminName1": "Durango", "countryCode": "MX", "countryId": "3996063", "countryName": "Mexico", "fcl": "P", "fclName": "city, village,...", "fcode": "PPL", "fcodeName": "populated place", "geonameId": 3993069, "lat": "25.98725", "lng": "-105.20705", "name": "Pe\u00f1a", "population": 0, "toponymName": "Pe\u00f1a"}, {"adminCode1": "28", "adminName1": "Tamaulipas", "countryCode": "MX", "countryId": "3996063", "countryName": "Mexico", "fcl": "P", "fclName": "city, village,...", "fcode": "PPL", "fcodeName": "populated place", "geonameId": 3521666, "lat": "23.55725", "lng": "-99.68916", "name": "Pe\u00f1ita", "population": 0, "toponymName": "Pe\u00f1ita"}, {"adminCode1": "58", "adminName1": "Galicia", "countryCode": "ES", "countryId": "2510769", "countryName": "Spain", "fcl": "P", "fclName": "city, village,...", "fcode": "PPL", "fcodeName": "populated place", "geonameId": 3113992, "lat": "43.13454", "lng": "-7.71175", "name": "Pena", "population": 0, "toponymName": "Pena"}, {"adminCode1": "58", "adminName1": "Galicia", "countryCode": "ES", "countryId": "2510769", "countryName": "Spain", "fcl": "P", "fclName": "city, village,...", "fcode": "PPL", "fcodeName": "populated place", "geonameId": 3113993, "lat": "43.11667", "lng": "-7.73333", "name": "Pena", "population": 0, "toponymName": "Pena"}, {"adminCode1": "58", "adminName1": "Galicia", "countryCode": "ES", "countryId": "2510769", "countryName": "Spain", "fcl": "P", "fclName": "city, village,...", "fcode": "PPL", "fcodeName": "populated place", "geonameId": 3113995, "lat": "42.96667", "lng": "-7.5", "name": "Pena", "population": 0, "toponymName": "Pena"}, {"adminCode1": "58", "adminName1": "Galicia", "countryCode": "ES", "countryId": "2510769", "countryName": "Spain", "fcl": "P", "fclName": "city, village,...", "fcode": "PPL", "fcodeName": "populated place", "geonameId": 3113997, "lat": "42.93333", "lng": "-8.81667", "name": "Pena", "population": 0, "toponymName": "Pena"}, {"adminCode1": "58", "adminName1": "Galicia", "countryCode": "ES", "countryId": "2510769", "countryName": "Spain", "fcl": "P", "fclName": "city, village,...", "fcode": "PPL", "fcodeName": "populated place", "geonameId": 3113999, "lat": "42.73333", "lng": "-7.4", "name": "Pena", "population": 0, "toponymName": "Pena"}, {"adminCode1": "58", "adminName1": "Galicia", "countryCode": "ES", "countryId": "2510769", "countryName": "Spain", "fcl": "P", "fclName": "city, village,...", "fcode": "PPL", "fcodeName": "populated place", "geonameId": 3114003, "lat": "42.35", "lng": "-8.1", "name": "Pena", "population": 0, "toponymName": "Pena"}, {"adminCode1": "12", "adminName1": "Ng\u00f6be-Bugl\u00e9", "countryCode": "PA", "countryId": "3703430", "countryName": "Panama", "fcl": "P", "fclName": "city, village,...", "fcode": "PPL", "fcodeName": "populated place", "geonameId": 3703134, "lat": "8.4", "lng": "-81.88333", "name": "Pe\u00f1a", "population": 0, "toponymName": "Pe\u00f1a"}, {"adminCode1": "41", "adminName1": "Mimaropa", "countryCode": "PH", "countryId": "1694008", "countryName": "Philippines", "fcl": "P", "fclName": "city, village,...", "fcode": "PPL", "fcodeName": "populated place", "geonameId": 1694093, "lat": "12.09487", "lng": "119.96471", "name": "Pe\u00f1a", "population": 0, "toponymName": "Pe\u00f1a"}, {"adminCode1": "08", "adminName1": "Eastern Visayas", "countryCode": "PH", "countryId": "1694008", "countryName": "Philippines", "fcl": "P", "fclName": "city, village,...", "fcode": "PPL", "fcodeName": "populated place", "geonameId": 1694094, "lat": "11.2134", "lng": "124.4548", "name": "Pe\u00f1a", "population": 0, "toponymName": "Pe\u00f1a"}, {"adminCode1": "10", "adminName1": "Durango", "countryCode": "MX", "countryId": "3996063", "countryName": "Mexico", "fcl": "P", "fclName": "city, village,...", "fcode": "PPL", "fcodeName": "populated place", "geonameId": 3993071, "lat": "25.57029", "lng": "-105.44665", "name": "Pe\u00f1a", "population": 0, "toponymName": "Pe\u00f1a"}, {"adminCode1": "28", "adminName1": "El Se\u00edbo", "countryCode": "DO", "countryId": "3508796", "countryName": "Dominican Republic", "fcl": "P", "fclName": "city, village,...", "fcode": "PPL", "fcodeName": "populated place", "geonameId": 3495059, "lat": "18.81926", "lng": "-69.14525", "name": "Pe\u00f1a Blanca Adentro", "population": 0, "toponymName": "Pe\u00f1a Blanca Adentro"}, {"adminCode1": "51", "adminName1": "Andalusia", "countryCode": "ES", "countryId": "2510769", "countryName": "Spain", "fcl": "P", "fclName": "city, village,...", "fcode": "PPL", "fcodeName": "populated place", "geonameId": 2512724, "lat": "38.24847", "lng": "-2.59832", "name": "Pe\u00f1a Rubia", "population": 0, "toponymName": "Pe\u00f1a Rubia"}, {"adminCode1": "31", "adminName1": "Murcia", "countryCode": "ES", "countryId": "2510769", "countryName": "Spain", "fcl": "P", "fclName": "city, village,...", "fcode": "PPL", "fcodeName": "populated place", "geonameId": 2512736, "lat": "37.89158", "lng": "-1.94075", "name": "Pe\u00f1a Mar\u00eda", "population": 0, "toponymName": "Pe\u00f1a Mar\u00eda"}, {"adminCode1": "31", "adminName1": "Murcia", "countryCode": "ES", "countryId": "2510769", "countryName": "Spain", "fcl": "P", "fclName": "city, village,...", "fcode": "PPL", "fcodeName": "populated place", "geonameId": 2514897, "lat": "37.83333", "lng": "-0.83333", "name": "Lo Pe\u00f1a", "population": 0, "toponymName": "Lo Pe\u00f1a"}, {"adminCode1": "03", "adminName1": "Chimaltenango", "countryCode": "GT", "countryId": "3595528", "countryName": "Guatemala", "fcl": "P", "fclName": "city, village,...", "fcode": "PPL", "fcodeName": "populated place", "geonameId": 3591443, "lat": "14.45", "lng": "-91.08333", "name": "Pe\u00f1a de Plata", "population": 0, "toponymName": "Pe\u00f1a de Plata"}, {"adminCode1": "07", "adminName1": "Potos\u00ed", "countryCode": "BO", "countryId": "3923057", "countryName": "Bolivia", "fcl": "P", "fclName": "city, village,...", "fcode": "PPL", "fcodeName": "populated place", "geonameId": 3914047, "lat": "-21.63333", "lng": "-66.76667", "name": "Irupampa", "population": 0, "toponymName": "Irupampa"}, {"adminCode1": "16", "adminName1": "Michoac\u00e1n", "countryCode": "MX", "countryId": "3996063", "countryName": "Mexico", "fcl": "P", "fclName": "city, village,...", "fcode": "PPL", "fcodeName": "populated place", "geonameId": 4000855, "lat": "19.04545", "lng": "-102.64217", "name": "Pe\u00f1a Colorada", "population": 437, "toponymName": "Pe\u00f1a Colorada"}, {"adminCode1": "07", "adminName1": "Coahuila", "countryCode": "MX", "countryId": "3996063", "countryName": "Mexico", "fcl": "P", "fclName": "city, village,...", "fcode": "PPL", "fcodeName": "populated place", "geonameId": 4000868, "lat": "25.45", "lng": "-102.56667", "name": "La Pe\u00f1a", "population": 0, "toponymName": "La Pe\u00f1a"}, {"adminCode1": "11", "adminName1": "Ica", "countryCode": "PE", "countryId": "3932488", "countryName": "Peru", "fcl": "P", "fclName": "city, village,...", "fcode": "PPL", "fcodeName": "populated place", "geonameId": 3936922, "lat": "-14.53694", "lng": "-75.16391", "name": "Hacienda La Pe\u00f1a", "population": 0, "toponymName": "Hacienda La Pe\u00f1a"}, {"adminCode1": "18", "adminName1": "Santar\u00e9m", "countryCode": "PT", "countryId": "2264397", "countryName": "Portugal", "fcl": "P", "fclName": "city, village,...", "fcode": "PPL", "fcodeName": "populated place", "geonameId": 2264959, "lat": "39.58824", "lng": "-8.53308", "name": "Pena", "population": 0, "toponymName": "Pena"}, {"adminCode1": "16", "adminName1": "Par\u00e1", "countryCode": "BR", "countryId": "3469034", "countryName": "Brazil", "fcl": "P", "fclName": "city, village,...", "fcode": "PPL", "fcodeName": "populated place", "geonameId": 3392372, "lat": "-2.01667", "lng": "-49.25", "name": "Pena", "population": 0, "toponymName": "Pena"}, {"adminCode1": "17", "adminName1": "Porto", "countryCode": "PT", "countryId": "2264397", "countryName": "Portugal", "fcl": "P", "fclName": "city, village,...", "fcode": "PPL", "fcodeName": "populated place", "geonameId": 2736485, "lat": "41.37329", "lng": "-8.70932", "name": "Pena", "population": 0, "toponymName": "Pena"}, {"adminCode1": "21", "adminName1": "Vila Real", "countryCode": "PT", "countryId": "2264397", "countryName": "Portugal", "fcl": "P", "fclName": "city, village,...", "fcode": "PPL", "fcodeName": "populated place", "geonameId": 2736486, "lat": "41.29096", "lng": "-7.81556", "name": "Pena", "population": 0, "toponymName": "Pena"}, {"adminCode1": "07", "adminName1": "Coimbra", "countryCode": "PT", "countryId": "2264397", "countryName": "Portugal", "fcl": "P", "fclName": "city, village,...", "fcode": "PPL", "fcodeName": "populated place", "geonameId": 2736487, "lat": "40.31015", "lng": "-8.5531", "name": "Pena", "population": 0, "toponymName": "Pena"}, {"adminCode1": "07", "adminName1": "Coimbra", "countryCode": "PT", "countryId": "2264397", "countryName": "Portugal", "fcl": "P", "fclName": "city, village,...", "fcode": "PPL", "fcodeName": "populated place", "geonameId": 2736488, "lat": "40.11077", "lng": "-8.13506", "name": "Pena", "population": 0, "toponymName": "Pena"}, {"adminCode1": "28", "adminName1": "Tamaulipas", "countryCode": "MX", "countryId": "3996063", "countryName": "Mexico", "fcl": "P", "fclName": "city, village,...", "fcode": "PPL", "fcodeName": "populated place", "geonameId": 3521690, "lat": "25.03333", "lng": "-98.8", "name": "Pe\u00f1a", "population": 0, "toponymName": "Pe\u00f1a"}, {"adminCode1": "58", "adminName1": "Galicia", "countryCode": "ES", "countryId": "2510769", "countryName": "Spain", "fcl": "P", "fclName": "city, village,...", "fcode": "PPL", "fcodeName": "populated place", "geonameId": 3113988, "lat": "43.55373", "lng": "-7.21499", "name": "Pena", "population": 0, "toponymName": "Pena"}, {"adminCode1": "34", "adminName1": "Asturias", "countryCode": "ES", "countryId": "2510769", "countryName": "Spain", "fcl": "P", "fclName": "city, village,...", "fcode": "PPL", "fcodeName": "populated place", "geonameId": 3113989, "lat": "43.44835", "lng": "-6.44986", "name": "Pena", "population": 0, "toponymName": "Pena"}, {"adminCode1": "58", "adminName1": "Galicia", "countryCode": "ES", "countryId": "2510769", "countryName": "Spain", "fcl": "P", "fclName": "city, village,...", "fcode": "PPL", "fcodeName": "populated place", "geonameId": 3113990, "lat": "43.21777", "lng": "-7.29244", "name": "Pena", "population": 0, "toponymName": "Pena"}, {"adminCode1": "58", "adminName1": "Galicia", "countryCode": "ES", "countryId": "2510769", "countryName": "Spain", "fcl": "P", "fclName": "city, village,...", "fcode": "PPL", "fcodeName": "populated place", "geonameId": 3113994, "lat": "43.06415", "lng": "-7.33767", "name": "Pena", "population": 0, "toponymName": "Pena"}, {"adminCode1": "58", "adminName1": "Galicia", "countryCode": "ES", "countryId": "2510769", "countryName": "Spain", "fcl": "P", "fclName": "city, village,...", "fcode": "PPL", "fcodeName": "populated place", "geonameId": 3113996, "lat": "42.95", "lng": "-7.21667", "name": "Pena", "population": 0, "toponymName": "Pena"}, {"adminCode1": "58", "adminName1": "Galicia", "countryCode": "ES", "countryId": "2510769", "countryName": "Spain", "fcl": "P", "fclName": "city, village,...", "fcode": "PPL", "fcodeName": "populated place", "geonameId": 3113998, "lat": "42.93374", "lng": "-8.11357", "name": "Pena", "population": 0, "toponymName": "Pena"}, {"adminCode1": "58", "adminName1": "Galicia", "countryCode": "ES", "countryId": "2510769", "countryName": "Spain", "fcl": "P", "fclName": "city, village,...", "fcode": "PPL", "fcodeName": "populated place", "geonameId": 3114000, "lat": "42.73333", "lng": "-7.38333", "name": "Pena", "population": 0, "toponymName": "Pena"}, {"adminCode1": "58", "adminName1": "Galicia", "countryCode": "ES", "countryId": "2510769", "countryName": "Spain", "fcl": "P", "fclName": "city, village,...", "fcode": "PPL", "fcodeName": "populated place", "geonameId": 3114001, "lat": "42.65608", "lng": "-8.15988", "name": "Pena", "population": 0, "toponymName": "Pena"}, {"adminCode1": "32", "adminName1": "Navarre", "countryCode": "ES", "countryId": "2510769", "countryName": "Spain", "fcl": "P", "fclName": "city, village,...", "fcode": "PPL", "fcodeName": "populated place", "geonameId": 3114002, "lat": "42.5", "lng": "-1.28333", "name": "Pe\u00f1a", "population": 0, "toponymName": "Pe\u00f1a"}, {"adminCode1": "02", "adminName1": "Antioquia", "countryCode": "CO", "countryId": "3686110", "countryName": "Colombia", "fcl": "P", "fclName": "city, village,...", "fcode": "PPL", "fcodeName": "populated place", "geonameId": 3731711, "lat": "7.10833", "lng": "-75.84833", "name": "Pen\u00e1", "population": 0, "toponymName": "Pen\u00e1"}, {"adminCode1": "03", "adminName1": "El Beni", "countryCode": "BO", "countryId": "3923057", "countryName": "Bolivia", "fcl": "P", "fclName": "city, village,...", "fcode": "PPL", "fcodeName": "populated place", "geonameId": 3908188, "lat": "-14.63333", "lng": "-67.56667", "name": "Pe\u00f1a", "population": 0, "toponymName": "Pe\u00f1a"}, {"adminCode1": "08", "adminName1": "Cojedes", "countryCode": "VE", "countryId": "3625428", "countryName": "Venezuela", "fcl": "P", "fclName": "city, village,...", "fcode": "PPL", "fcodeName": "populated place", "geonameId": 3630409, "lat": "9.89306", "lng": "-68.56906", "name": "Pe\u00f1a", "population": 0, "toponymName": "Pe\u00f1a"}, {"adminCode1": "08", "adminName1": "Cojedes", "countryCode": "VE", "countryId": "3625428", "countryName": "Venezuela", "fcl": "P", "fclName": "city, village,...", "fcode": "PPL", "fcodeName": "populated place", "geonameId": 3630410, "lat": "9.76667", "lng": "-68.65", "name": "Pe\u00f1a", "population": 0, "toponymName": "Pe\u00f1a"}, {"adminCode1": "26", "adminName1": "Sonora", "countryCode": "MX", "countryId": "3996063", "countryName": "Mexico", "fcl": "P", "fclName": "city, village,...", "fcode": "PPL", "fcodeName": "populated place", "geonameId": 3993067, "lat": "28.28333", "lng": "-109.46667", "name": "Pe\u00f1a", "population": 0, "toponymName": "Pe\u00f1a"}, {"adminCode1": "06", "adminName1": "Chihuahua", "countryCode": "MX", "countryId": "3996063", "countryName": "Mexico", "fcl": "P", "fclName": "city, village,...", "fcode": "PPL", "fcodeName": "populated place", "geonameId": 3993068, "lat": "28.05", "lng": "-106.23333", "name": "Pe\u00f1a", "population": 0, "toponymName": "Pe\u00f1a"}, {"adminCode1": "25", "adminName1": "Sinaloa", "countryCode": "MX", "countryId": "3996063", "countryName": "Mexico", "fcl": "P", "fclName": "city, village,...", "fcode": "PPL", "fcodeName": "populated place", "geonameId": 3993070, "lat": "25.91667", "lng": "-107.56667", "name": "Pe\u00f1a", "population": 0, "toponymName": "Pe\u00f1a"}, {"adminCode1": "24", "adminName1": "San Luis Potos\u00ed", "countryCode": "MX", "countryId": "3996063", "countryName": "Mexico", "fcl": "P", "fclName": "city, village,...", "fcode": "PPL", "fcodeName": "populated place", "geonameId": 3993072, "lat": "23.66334", "lng": "-100.51817", "name": "Pe\u00f1a", "population": 0, "toponymName": "Pe\u00f1a"}, {"adminCode1": "01", "adminName1": "Alajuela", "countryCode": "CR", "countryId": "3624060", "countryName": "Costa Rica", "fcl": "P", "fclName": "city, village,...", "fcode": "PPL", "fcodeName": "populated place", "geonameId": 3622458, "lat": "10.21014", "lng": "-84.43654", "name": "Pe\u00f1a", "population": 0, "toponymName": "Pe\u00f1a"}, {"adminCode1": "02", "adminName1": "Antioquia", "countryCode": "CO", "countryId": "3686110", "countryName": "Colombia", "fcl": "P", "fclName": "city, village,...", "fcode": "PPL", "fcodeName": "populated place", "geonameId": 3787644, "lat": "6.50944", "lng": "-75.97417", "name": "Pe\u00f1a", "population": 0, "toponymName": "Pe\u00f1a"}, {"adminCode1": "13", "adminName1": "Lara", "countryCode": "VE", "countryId": "3625428", "countryName": "Venezuela", "fcl": "P", "fclName": "city, village,...", "fcode": "PPL", "fcodeName": "populated place", "geonameId": 3768123, "lat": "10.04956", "lng": "-70.51217", "name": "Pe\u00f1a", "population": 0, "toponymName": "Pe\u00f1a"}, {"adminCode1": "06", "adminName1": "Cuanza Sul", "countryCode": "AO", "countryId": "3351879", "countryName": "Angola", "fcl": "P", "fclName": "city, village,...", "fcode": "PPL", "fcodeName": "populated place", "geonameId": 7860639, "lat": "-11.33884", "lng": "15.14097", "name": "Pena", "population": 0, "toponymName": "Pena"}, {"adminCode1": "097", "adminName1": "Mayaguez", "countryCode": "PR", "countryId": "4566966", "countryName": "Puerto Rico", "fcl": "P", "fclName": "city, village,...", "fcode": "PPL", "fcodeName": "populated place", "geonameId": 4566669, "lat": "18.18634", "lng": "-67.1474", "name": "Pena", "population": 0, "toponymName": "Pena"}, {"adminCode1": "NM", "adminName1": "New Mexico", "countryCode": "US", "countryId": "6252001", "countryName": "United States", "fcl": "P", "fclName": "city, village,...", "fcode": "PPL", "fcodeName": "populated place", "geonameId": 5483779, "lat": "35.57087", "lng": "-106.33808", "name": "Pe\u00f1a Blanca", "population": 709, "toponymName": "Pe\u00f1a Blanca"}, {"adminCode1": "10", "adminName1": "Maniema", "countryCode": "CD", "countryId": "203312", "countryName": "Democratic Republic of the Congo", "fcl": "P", "fclName": "city, village,...", "fcode": "PPL", "fcodeName": "populated place", "geonameId": 206341, "lat": "-4.26316", "lng": "28.17106", "name": "Pena-Lunanga", "population": 0, "toponymName": "Pena-Lunanga"}, {"adminCode1": "10", "adminName1": "Madeira", "countryCode": "PT", "countryId": "2264397", "countryName": "Portugal", "fcl": "P", "fclName": "city, village,...", "fcode": "PPL", "fcodeName": "populated place", "geonameId": 2272341, "lat": "32.7", "lng": "-16.76667", "name": "\u00c1gua de Pena", "population": 0, "toponymName": "\u00c1gua de Pena"}, {"adminCode1": "06", "adminName1": "Duarte", "countryCode": "DO", "countryId": "3508796", "countryName": "Dominican Republic", "fcl": "P", "fclName": "city, village,...", "fcode": "PPL", "fcodeName": "populated place", "geonameId": 3501329, "lat": "19.27676", "lng": "-70.17173", "name": "La Pe\u00f1a", "population": 976, "toponymName": "La Pe\u00f1a"}, {"adminCode1": "59", "adminName1": "Basque Country", "countryCode": "ES", "countryId": "2510769", "countryName": "Spain", "fcl": "P", "fclName": "city, village,...", "fcode": "PPL", "fcodeName": "populated place", "geonameId": 3119256, "lat": "43.24118", "lng": "-2.91974", "name": "Abusu / La Pe\u00f1a", "population": 0, "toponymName": "Abusu / La Pe\u00f1a"}, {"adminCode1": "07", "adminName1": "Potos\u00ed", "countryCode": "BO", "countryId": "3923057", "countryName": "Bolivia", "fcl": "P", "fclName": "city, village,...", "fcode": "PPL", "fcodeName": "populated place", "geonameId": 3908184, "lat": "-22.29972", "lng": "-67.37542", "name": "Pe\u00f1a Barrosa", "population": 0, "toponymName": "Pe\u00f1a Barrosa"}, {"adminCode1": "18", "adminName1": "Pichincha", "countryCode": "EC", "countryId": "3658394", "countryName": "Ecuador", "fcl": "P", "fclName": "city, village,...", "fcode": "PPL", "fcodeName": "populated place", "geonameId": 3657355, "lat": "-0.43333", "lng": "-78.55", "name": "Hacienda Ayurcu de Pe\u00f1a", "population": 0, "toponymName": "Hacienda Ayurcu de Pe\u00f1a"}, {"adminCode1": "34", "adminName1": "Asturias", "countryCode": "ES", "countryId": "2510769", "countryName": "Spain", "fcl": "P", "fclName": "city, village,...", "fcode": "PPL", "fcodeName": "populated place", "geonameId": 3109628, "lat": "43.10634", "lng": "-6.63594", "name": "Santiago Pe\u00f1a", "population": 0, "toponymName": "Santiago Pe\u00f1a"}, {"adminCode1": "55", "adminName1": "Castille and Le\u00f3n", "countryCode": "ES", "countryId": "2510769", "countryName": "Spain", "fcl": "P", "fclName": "city, village,...", "fcode": "PPL", "fcodeName": "populated place", "geonameId": 3119258, "lat": "41.1748", "lng": "-6.51938", "name": "La Pe\u00f1a", "population": 138, "toponymName": "La Pe\u00f1a"}, {"adminCode1": "20", "adminName1": "Oaxaca", "countryCode": "MX", "countryId": "3996063", "countryName": "Mexico", "fcl": "P", "fclName": "city, village,...", "fcode": "PPL", "fcodeName": "populated place", "geonameId": 8859908, "lat": "17.47778", "lng": "-97.79417", "name": "Pe\u00f1a Colorada", "population": 1012, "toponymName": "Pe\u00f1a Colorada"}, {"adminCode1": "04", "adminName1": "Atl\u00e1ntico", "countryCode": "CO", "countryId": "3686110", "countryName": "Colombia", "fcl": "P", "fclName": "city, village,...", "fcode": "PPL", "fcodeName": "populated place", "geonameId": 3678158, "lat": "10.58366", "lng": "-75.02625", "name": "La Pe\u00f1a", "population": 0, "toponymName": "La Pe\u00f1a"}, {"adminCode1": "06", "adminName1": "Chihuahua", "countryCode": "MX", "countryId": "3996063", "countryName": "Mexico", "fcl": "P", "fclName": "city, village,...", "fcode": "PPL", "fcodeName": "populated place", "geonameId": 3974740, "lat": "28.33333", "lng": "-106.23333", "name": "Rancho de Pe\u00f1a", "population": 0, "toponymName": "Rancho de Pe\u00f1a"}, {"adminCode1": "10", "adminName1": "Veraguas", "countryCode": "PA", "countryId": "3703430", "countryName": "Panama", "fcl": "P", "fclName": "city, village,...", "fcode": "PPL", "fcodeName": "populated place", "geonameId": 3706974, "lat": "8.13333", "lng": "-81.03333", "name": "La Pe\u00f1a", "population": 2274, "toponymName": "La Pe\u00f1a"}, {"adminCode1": "06", "adminName1": "Cort\u00e9s", "countryCode": "HN", "countryId": "3608932", "countryName": "Honduras", "fcl": "P", "fclName": "city, village,...", "fcode": "PPL", "fcodeName": "populated place", "geonameId": 3603856, "lat": "15.53333", "lng": "-88.05", "name": "Pe\u00f1a Blanca", "population": 3552, "toponymName": "Pe\u00f1a Blanca"}, {"adminCode1": "33", "adminName1": "Cundinamarca", "countryCode": "CO", "countryId": "3686110", "countryName": "Colombia", "fcl": "P", "fclName": "city, village,...", "fcode": "PPL", "fcodeName": "populated place", "geonameId": 3678167, "lat": "5.19847", "lng": "-74.39368", "name": "La Pe\u00f1a", "population": 1667, "toponymName": "La Pe\u00f1a"}, {"adminCode1": "103", "adminName1": "Naguabo", "countryCode": "PR", "countryId": "4566966", "countryName": "Puerto Rico", "fcl": "P", "fclName": "city, village,...", "fcode": "PPL", "fcodeName": "populated place", "geonameId": 4566674, "lat": "18.21551", "lng": "-65.82211", "name": "Pe\u00f1a Pobre", "population": 1024, "toponymName": "Pe\u00f1a Pobre"}, {"adminCode1": "28", "adminName1": "El Se\u00edbo", "countryCode": "DO", "countryId": "3508796", "countryName": "Dominican Republic", "fcl": "P", "fclName": "city, village,...", "fcode": "PPL", "fcodeName": "populated place", "geonameId": 3495064, "lat": "18.84607", "lng": "-69.14512", "name": "Pe\u00f1a Blanca", "population": 0, "toponymName": "Pe\u00f1a Blanca"}, {"adminCode1": "30", "adminName1": "Veracruz", "countryCode": "MX", "countryId": "3996063", "countryName": "Mexico", "fcl": "P", "fclName": "city, village,...", "fcode": "PPL", "fcodeName": "populated place", "geonameId": 3525224, "lat": "20.80305", "lng": "-97.46351", "name": "Pe\u00f1a Alta", "population": 0, "toponymName": "Pe\u00f1a Alta"}, {"adminCode1": "30", "adminName1": "Veracruz", "countryCode": "MX", "countryId": "3996063", "countryName": "Mexico", "fcl": "P", "fclName": "city, village,...", "fcode": "PPL", "fcodeName": "populated place", "geonameId": 3525227, "lat": "17.92947", "lng": "-95.71525", "name": "La Pe\u00f1a", "population": 0, "toponymName": "La Pe\u00f1a"}, {"adminCode1": "07", "adminName1": "Los Santos", "countryCode": "PA", "countryId": "3703430", "countryName": "Panama", "fcl": "P", "fclName": "city, village,...", "fcode": "PPL", "fcodeName": "populated place", "geonameId": 3706977, "lat": "7.76667", "lng": "-80.41667", "name": "La Pe\u00f1a", "population": 0, "toponymName": "La Pe\u00f1a"}, {"adminCode1": "17", "adminName1": "Valle", "countryCode": "HN", "countryId": "3608932", "countryName": "Honduras", "fcl": "P", "fclName": "city, village,...", "fcode": "PPL", "fcodeName": "populated place", "geonameId": 3607242, "lat": "13.71722", "lng": "-87.71972", "name": "La Pe\u00f1a", "population": 0, "toponymName": "La Pe\u00f1a"}, {"adminCode1": "05", "adminName1": "Oruro", "countryCode": "BO", "countryId": "3923057", "countryName": "Bolivia", "fcl": "P", "fclName": "city, village,...", "fcode": "PPL", "fcodeName": "populated place", "geonameId": 3908157, "lat": "-18.92929", "lng": "-67.9396", "name": "Pe\u00f1a Pe\u00f1ani", "population": 0, "toponymName": "Pe\u00f1a Pe\u00f1ani"}, {"adminCode1": "07", "adminName1": "Potos\u00ed", "countryCode": "BO", "countryId": "3923057", "countryName": "Bolivia", "fcl": "P", "fclName": "city, village,...", "fcode": "PPL", "fcodeName": "populated place", "geonameId": 3908182, "lat": "-20.68333", "lng": "-67.6", "name": "Pe\u00f1a Blanca", "population": 0, "toponymName": "Pe\u00f1a Blanca"}, {"adminCode1": "13", "adminName1": "Sonsonate", "countryCode": "SV", "countryId": "3585968", "countryName": "El Salvador", "fcl": "P", "fclName": "city, village,...", "fcode": "PPL", "fcodeName": "populated place", "geonameId": 3584123, "lat": "13.68611", "lng": "-89.56667", "name": "Pe\u00f1a Blanca", "population": 0, "toponymName": "Pe\u00f1a Blanca"}, {"adminCode1": "17", "adminName1": "La Guajira", "countryCode": "CO", "countryId": "3686110", "countryName": "Colombia", "fcl": "P", "fclName": "city, village,...", "fcode": "PPL", "fcodeName": "populated place", "geonameId": 3678157, "lat": "10.77536", "lng": "-73.12476", "name": "La Pe\u00f1a", "population": 0, "toponymName": "La Pe\u00f1a"}, {"adminCode1": "27", "adminName1": "Sucre", "countryCode": "CO", "countryId": "3686110", "countryName": "Colombia", "fcl": "P", "fclName": "city, village,...", "fcode": "PPL", "fcodeName": "populated place", "geonameId": 3678160, "lat": "9.5208", "lng": "-75.18485", "name": "La Pe\u00f1a", "population": 0, "toponymName": "La Pe\u00f1a"}, {"adminCode1": "26", "adminName1": "Santander", "countryCode": "CO", "countryId": "3686110", "countryName": "Colombia", "fcl": "P", "fclName": "city, village,...", "fcode": "PPL", "fcodeName": "populated place", "geonameId": 3678165, "lat": "6.33333", "lng": "-73.2", "name": "La Pe\u00f1a", "population": 0, "toponymName": "La Pe\u00f1a"}, {"adminCode1": "07", "adminName1": "Coahuila", "countryCode": "MX", "countryId": "3996063", "countryName": "Mexico", "fcl": "P", "fclName": "city, village,...", "fcode": "PPL", "fcodeName": "populated place", "geonameId": 4000857, "lat": "29.55106", "lng": "-102.51951", "name": "La Pe\u00f1a", "population": 0, "toponymName": "La Pe\u00f1a"}, {"adminCode1": "10", "adminName1": "Durango", "countryCode": "MX", "countryId": "3996063", "countryName": "Mexico", "fcl": "P", "fclName": "city, village,...", "fcode": "PPL", "fcodeName": "populated place", "geonameId": 4000861, "lat": "25.87875", "lng": "-105.89949", "name": "La Pe\u00f1a", "population": 0, "toponymName": "La Pe\u00f1a"}, {"adminCode1": "07", "adminName1": "Coahuila", "countryCode": "MX", "countryId": "3996063", "countryName": "Mexico", "fcl": "P", "fclName": "city, village,...", "fcode": "PPL", "fcodeName": "populated place", "geonameId": 4000863, "lat": "28.63564", "lng": "-102.21972", "name": "La Pe\u00f1a", "population": 0, "toponymName": "La Pe\u00f1a"}, {"adminCode1": "10", "adminName1": "Durango", "countryCode": "MX", "countryId": "3996063", "countryName": "Mexico", "fcl": "P", "fclName": "city, village,...", "fcode": "PPL", "fcodeName": "populated place", "geonameId": 4000869, "lat": "23.56983", "lng": "-105.37615", "name": "La Pe\u00f1a", "population": 0, "toponymName": "La Pe\u00f1a"}, {"adminCode1": "24", "adminName1": "San Luis Potos\u00ed", "countryCode": "MX", "countryId": "3996063", "countryName": "Mexico", "fcl": "P", "fclName": "city, village,...", "fcode": "PPL", "fcodeName": "populated place", "geonameId": 4000870, "lat": "23.26348", "lng": "-100.76625", "name": "La Pe\u00f1a", "population": 0, "toponymName": "La Pe\u00f1a"}], "searchinfo": {"east": 180, "featureClass": "P", "fuzzy": 1, "hgr_id": 515, "name": "\u041f\u0435\u043d\u0430", "north": 90, "south": -90, "type": "json", "url": "http://api.geonames.org/search?name=%D0%9F%D0%B5%D0%BD%D0%B0&type=json&north=90&featureClass=P&east=180&west=-180&south=-90&username=jaguillette&fuzzy=1", "username": "jaguillette", "west": -180}, "totalResultsCount": 895}