{"geonames": [{"adminCode1": "00", "adminName1": "", "countryCode": "BY", "countryId": "630336", "countryName": "Belarus", "fcl": "P", "fclName": "city, village,...", "fcode": "PPL", "fcodeName": "populated place", "geonameId": 621685, "lat": "54.43333", "lng": "27.93333", "name": "Sokol\u2019", "population": 0, "toponymName": "Sokol\u2019"}, {"adminCode1": "05", "adminName1": "Minsk", "countryCode": "BY", "countryId": "630336", "countryName": "Belarus", "fcl": "P", "fclName": "city, village,...", "fcode": "PPL", "fcodeName": "populated place", "geonameId": 624300, "lat": "54.1348", "lng": "29.1918", "name": "Novyy Sokol", "population": 0, "toponymName": "Novyy Sokol"}, {"adminCode1": "02", "adminName1": "Gomel", "countryCode": "BY", "countryId": "630336", "countryName": "Belarus", "fcl": "P", "fclName": "city, village,...", "fcode": "PPLQ", "fcodeName": "abandoned populated place", "geonameId": 8181447, "lat": "51.8343", "lng": "30.0804", "name": "Sokol", "population": 0, "toponymName": "Sokol"}, {"adminCode1": "52", "adminName1": "Novgorod", "countryCode": "RU", "countryId": "2017370", "countryName": "Russia", "fcl": "P", "fclName": "city, village,...", "fcode": "PPL", "fcodeName": "populated place", "geonameId": 491131, "lat": "57.44974", "lng": "31.08292", "name": "Sokol'ye", "population": 0, "toponymName": "Sokol\u2019ye"}, {"adminCode1": "02", "adminName1": "Gomel", "countryCode": "BY", "countryId": "630336", "countryName": "Belarus", "fcl": "P", "fclName": "city, village,...", "fcode": "PPL", "fcodeName": "populated place", "geonameId": 8195870, "lat": "52.1857", "lng": "30.3789", "name": "Pos\u00eblok Sokol", "population": 0, "toponymName": "Pos\u00eblok Sokol"}, {"adminCode1": "05", "adminName1": "Minsk", "countryCode": "BY", "countryId": "630336", "countryName": "Belarus", "fcl": "P", "fclName": "city, village,...", "fcode": "PPL", "fcodeName": "populated place", "geonameId": 8330550, "lat": "54.1322", "lng": "29.2131", "name": "Staryy Sokol", "population": 0, "toponymName": "Staryy Sokol"}, {"adminCode1": "52", "adminName1": "Novgorod", "countryCode": "RU", "countryId": "2017370", "countryName": "Russia", "fcl": "P", "fclName": "city, village,...", "fcode": "PPL", "fcodeName": "populated place", "geonameId": 491130, "lat": "58.35", "lng": "31.8", "name": "Sokol\u2019ye", "population": 0, "toponymName": "Sokol\u2019ye"}, {"adminCode1": "60", "adminName1": "Pskov", "countryCode": "RU", "countryId": "2017370", "countryName": "Russia", "fcl": "P", "fclName": "city, village,...", "fcode": "PPL", "fcodeName": "populated place", "geonameId": 491140, "lat": "56.94142", "lng": "30.09271", "name": "Sokol\u2019ye", "population": 0, "toponymName": "Sokol\u2019ye"}, {"adminCode1": "06", "adminName1": "Mogilev", "countryCode": "BY", "countryId": "630336", "countryName": "Belarus", "fcl": "P", "fclName": "city, village,...", "fcode": "PPL", "fcodeName": "populated place", "geonameId": 622107, "lat": "53.4213", "lng": "32.4773", "name": "Shelodonovka", "population": 0, "toponymName": "Shelodonovka"}, {"adminCode1": "02", "adminName1": "Gomel", "countryCode": "BY", "countryId": "630336", "countryName": "Belarus", "fcl": "P", "fclName": "city, village,...", "fcode": "PPL", "fcodeName": "populated place", "geonameId": 621669, "lat": "52.6203", "lng": "30.1292", "name": "Novovinogradov", "population": 0, "toponymName": "Novovinogradov"}, {"adminCode1": "07", "adminName1": "Vitebsk", "countryCode": "BY", "countryId": "630336", "countryName": "Belarus", "fcl": "P", "fclName": "city, village,...", "fcode": "PPL", "fcodeName": "populated place", "geonameId": 621680, "lat": "55.3089", "lng": "30.1919", "name": "Sokol\u2019niki", "population": 0, "toponymName": "Sokol\u2019niki"}, {"adminCode1": "07", "adminName1": "Vitebsk", "countryCode": "BY", "countryId": "630336", "countryName": "Belarus", "fcl": "P", "fclName": "city, village,...", "fcode": "PPL", "fcodeName": "populated place", "geonameId": 8280057, "lat": "55.3204", "lng": "30.6021", "name": "Sokol\u2019niki", "population": 0, "toponymName": "Sokol\u2019niki"}, {"adminCode1": "07", "adminName1": "Vitebsk", "countryCode": "BY", "countryId": "630336", "countryName": "Belarus", "fcl": "P", "fclName": "city, village,...", "fcode": "PPL", "fcodeName": "populated place", "geonameId": 8280148, "lat": "55.1383", "lng": "30.2493", "name": "Sokol\u2019niki", "population": 0, "toponymName": "Sokol\u2019niki"}, {"adminCode1": "05", "adminName1": "Minsk", "countryCode": "BY", "countryId": "630336", "countryName": "Belarus", "fcl": "P", "fclName": "city, village,...", "fcode": "PPL", "fcodeName": "populated place", "geonameId": 8282529, "lat": "54.2291", "lng": "26.5298", "name": "Sokol\u2019niki", "population": 0, "toponymName": "Sokol\u2019niki"}, {"adminCode1": "69", "adminName1": "Smolensk", "countryCode": "RU", "countryId": "2017370", "countryName": "Russia", "fcl": "P", "fclName": "city, village,...", "fcode": "PPL", "fcodeName": "populated place", "geonameId": 7092382, "lat": "54.82066", "lng": "32.28526", "name": "Sokol\u2019niki", "population": 0, "toponymName": "Sokol\u2019niki"}, {"adminCode1": "42", "adminName1": "Leningrad", "countryCode": "RU", "countryId": "2017370", "countryName": "Russia", "fcl": "P", "fclName": "city, village,...", "fcode": "PPL", "fcodeName": "populated place", "geonameId": 530012, "lat": "58.79816", "lng": "30.27156", "name": "Malyye Sokol\u2019niki", "population": 0, "toponymName": "Malyye Sokol\u2019niki"}, {"adminCode1": "05", "adminName1": "Minsk", "countryCode": "BY", "countryId": "630336", "countryName": "Belarus", "fcl": "P", "fclName": "city, village,...", "fcode": "PPL", "fcodeName": "populated place", "geonameId": 8019939, "lat": "53.6746", "lng": "27.3685", "name": "Sokol\u2019shchina", "population": 0, "toponymName": "Sokol\u2019shchina"}, {"adminCode1": "05", "adminName1": "Minsk", "countryCode": "BY", "countryId": "630336", "countryName": "Belarus", "fcl": "P", "fclName": "city, village,...", "fcode": "PPL", "fcodeName": "populated place", "geonameId": 8020100, "lat": "53.4923", "lng": "27.1191", "name": "Sokol\u2019shchina", "population": 0, "toponymName": "Sokol\u2019shchina"}, {"adminCode1": "42", "adminName1": "Leningrad", "countryCode": "RU", "countryId": "2017370", "countryName": "Russia", "fcl": "P", "fclName": "city, village,...", "fcode": "PPL", "fcodeName": "populated place", "geonameId": 573973, "lat": "58.79885", "lng": "30.28517", "name": "Bol\u2019shiye Sokol\u2019niki", "population": 0, "toponymName": "Bol\u2019shiye Sokol\u2019niki"}, {"adminCode1": "10", "adminName1": "Brjansk", "countryCode": "RU", "countryId": "2017370", "countryName": "Russia", "fcl": "P", "fclName": "city, village,...", "fcode": "PPL", "fcodeName": "populated place", "geonameId": 491151, "lat": "52.99131", "lng": "32.03333", "name": "Sokolki", "population": 0, "toponymName": "Sokolki"}, {"adminCode1": "05", "adminName1": "Minsk", "countryCode": "BY", "countryId": "630336", "countryName": "Belarus", "fcl": "P", "fclName": "city, village,...", "fcode": "PPL", "fcodeName": "populated place", "geonameId": 8246986, "lat": "54.3829", "lng": "27.3617", "name": "Sokol\u2019ye-Ugol", "population": 0, "toponymName": "Sokol\u2019ye-Ugol"}, {"adminCode1": "04", "adminName1": "Minsk", "countryCode": "BY", "countryId": "630336", "countryName": "Belarus", "fcl": "P", "fclName": "city, village,...", "fcode": "PPLX", "fcodeName": "section of populated place", "geonameId": 8019718, "lat": "53.8764", "lng": "27.8983", "name": "Sokal", "population": 0, "toponymName": "Sokal"}, {"adminCode1": "06", "adminName1": "Mogilev", "countryCode": "BY", "countryId": "630336", "countryName": "Belarus", "fcl": "P", "fclName": "city, village,...", "fcode": "PPL", "fcodeName": "populated place", "geonameId": 621681, "lat": "53.6645", "lng": "31.6657", "name": "Sakol\u2019niki", "population": 0, "toponymName": "Sakol\u2019niki"}, {"adminCode1": "60", "adminName1": "Pskov", "countryCode": "RU", "countryId": "2017370", "countryName": "Russia", "fcl": "P", "fclName": "city, village,...", "fcode": "PPL", "fcodeName": "populated place", "geonameId": 822742, "lat": "56.34678", "lng": "30.01149", "name": "Starosokol\u2019niki", "population": 0, "toponymName": "Starosokol\u2019niki"}], "searchinfo": {"east": 32.8, "featureClass": "P", "fuzzy": 1, "hgr_id": 640, "name": "\u0421\u043e\u043a\u043e\u043b", "north": 59.483333, "south": 51.483333, "type": "json", "url": "http://api.geonames.org/search?name=%D0%A1%D0%BE%D0%BA%D0%BE%D0%BB&type=json&north=59.483333&featureClass=P&east=32.8&west=24.8&south=51.483333&username=jaguillette&fuzzy=1", "username": "jaguillette", "west": 24.8}, "totalResultsCount": 24}