{"geonames": [{"adminCode1": "60", "adminName1": "Pskov", "countryCode": "RU", "countryId": "2017370", "countryName": "Russia", "fcl": "P", "fclName": "city, village,...", "fcode": "PPL", "fcodeName": "populated place", "geonameId": 490396, "lat": "57.63856", "lng": "30.42011", "name": "Sosnitsa", "population": 0, "toponymName": "Sosnitsa"}, {"adminCode1": "E7", "adminName1": "Vi\u013caka", "countryCode": "LV", "countryId": "458258", "countryName": "Latvia", "fcl": "P", "fclName": "city, village,...", "fcode": "PPL", "fcodeName": "populated place", "geonameId": 455367, "lat": "57.28333", "lng": "27.73333", "name": "Sosnica", "population": 0, "toponymName": "Sosnica"}, {"adminCode1": "52", "adminName1": "Novgorod", "countryCode": "RU", "countryId": "2017370", "countryName": "Russia", "fcl": "P", "fclName": "city, village,...", "fcode": "PPL", "fcodeName": "populated place", "geonameId": 7609847, "lat": "57.9463", "lng": "31.1737", "name": "Sosnitsa", "population": 0, "toponymName": "Sosnitsa"}, {"adminCode1": "52", "adminName1": "Novgorod", "countryCode": "RU", "countryId": "2017370", "countryName": "Russia", "fcl": "P", "fclName": "city, village,...", "fcode": "PPL", "fcodeName": "populated place", "geonameId": 490401, "lat": "58.02667", "lng": "32.84829", "name": "Sosnitsa", "population": 0, "toponymName": "Sosnitsa"}, {"adminCode1": "77", "adminName1": "Tverskaya", "countryCode": "RU", "countryId": "2017370", "countryName": "Russia", "fcl": "P", "fclName": "city, village,...", "fcode": "PPL", "fcodeName": "populated place", "geonameId": 490402, "lat": "57.40046", "lng": "33.0122", "name": "Sosnitsa", "population": 0, "toponymName": "Sosnitsa"}, {"adminCode1": "80", "adminName1": "Subcarpathian Voivodeship", "countryCode": "PL", "countryId": "798544", "countryName": "Poland", "fcl": "P", "fclName": "city, village,...", "fcode": "PPL", "fcodeName": "populated place", "geonameId": 758558, "lat": "49.90083", "lng": "22.87469", "name": "So\u015bnica", "population": 1409, "toponymName": "So\u015bnica"}, {"adminCode1": "87", "adminName1": "West Pomeranian Voivodeship", "countryCode": "PL", "countryId": "798544", "countryName": "Poland", "fcl": "P", "fclName": "city, village,...", "fcode": "PPL", "fcodeName": "populated place", "geonameId": 3085143, "lat": "53.43321", "lng": "16.202", "name": "So\u015bnica", "population": 219, "toponymName": "So\u015bnica"}, {"adminCode1": "86", "adminName1": "Greater Poland Voivodeship", "countryCode": "PL", "countryId": "798544", "countryName": "Poland", "fcl": "P", "fclName": "city, village,...", "fcode": "PPL", "fcodeName": "populated place", "geonameId": 3085144, "lat": "51.86123", "lng": "17.68061", "name": "So\u015bnica", "population": 585, "toponymName": "So\u015bnica"}, {"adminCode1": "72", "adminName1": "Lower Silesian Voivodeship", "countryCode": "PL", "countryId": "798544", "countryName": "Poland", "fcl": "P", "fclName": "city, village,...", "fcode": "PPL", "fcodeName": "populated place", "geonameId": 3085145, "lat": "51.03292", "lng": "16.78445", "name": "So\u015bnica", "population": 346, "toponymName": "So\u015bnica"}, {"adminCode1": "83", "adminName1": "Silesian Voivodeship", "countryCode": "PL", "countryId": "798544", "countryName": "Poland", "fcl": "P", "fclName": "city, village,...", "fcode": "PPL", "fcodeName": "populated place", "geonameId": 8426596, "lat": "50.28382", "lng": "18.73289", "name": "So\u015bnica", "population": 0, "toponymName": "So\u015bnica"}, {"adminCode1": "80", "adminName1": "Subcarpathian Voivodeship", "countryCode": "PL", "countryId": "798544", "countryName": "Poland", "fcl": "P", "fclName": "city, village,...", "fcode": "PPL", "fcodeName": "populated place", "geonameId": 758555, "lat": "49.90008", "lng": "22.87529", "name": "So\u015bnica-Brzeg", "population": 0, "toponymName": "So\u015bnica-Brzeg"}, {"adminCode1": "07", "adminName1": "Vitebsk", "countryCode": "BY", "countryId": "630336", "countryName": "Belarus", "fcl": "P", "fclName": "city, village,...", "fcode": "PPL", "fcodeName": "populated place", "geonameId": 621618, "lat": "55.4231", "lng": "28.9984", "name": "Sosnitsa", "population": 0, "toponymName": "Sosnitsa"}, {"adminCode1": "10", "adminName1": "Brjansk", "countryCode": "RU", "countryId": "2017370", "countryName": "Russia", "fcl": "P", "fclName": "city, village,...", "fcode": "PPL", "fcodeName": "populated place", "geonameId": 819922, "lat": "52.1146", "lng": "34.4374", "name": "Sosnitsa", "population": 0, "toponymName": "Sosnitsa"}, {"adminCode1": "02", "adminName1": "Chernihiv", "countryCode": "UA", "countryId": "690791", "countryName": "Ukraine", "fcl": "P", "fclName": "city, village,...", "fcode": "PPLA2", "fcodeName": "seat of a second-order administrative division", "geonameId": 693100, "lat": "51.52387", "lng": "32.49985", "name": "Sosnytsya", "population": 7825, "toponymName": "Sosnytsya"}], "searchinfo": {"east": 180, "featureClass": "P", "fuzzy": 1, "hgr_id": 646, "name": "\u0421\u043e\u0441\u043d\u0438\u0446\u0430", "north": 90, "south": -90, "type": "json", "url": "http://api.geonames.org/search?west=-180&name=%D0%A1%D0%BE%D1%81%D0%BD%D0%B8%D1%86%D0%B0&type=json&featureClass=P&east=180&north=90&fuzzy=1&south=-90&username=jaguillette", "username": "jaguillette", "west": -180}, "totalResultsCount": 14}