{"geonames": [{"adminCode1": "85", "adminName1": "Vologda", "countryCode": "RU", "countryId": "2017370", "countryName": "Russia", "fcl": "P", "fclName": "city, village,...", "fcode": "PPL", "fcodeName": "populated place", "geonameId": 489872, "lat": "59.12552", "lng": "40.20818", "name": "Spas", "population": 0, "toponymName": "Spas"}, {"adminCode1": "88", "adminName1": "Jaroslavl", "countryCode": "RU", "countryId": "2017370", "countryName": "Russia", "fcl": "P", "fclName": "city, village,...", "fcode": "PPL", "fcodeName": "populated place", "geonameId": 489875, "lat": "58.03246", "lng": "39.05842", "name": "Spas", "population": 0, "toponymName": "Spas"}, {"adminCode1": "37", "adminName1": "Kostroma", "countryCode": "RU", "countryId": "2017370", "countryName": "Russia", "fcl": "P", "fclName": "city, village,...", "fcode": "PPL", "fcodeName": "populated place", "geonameId": 489877, "lat": "57.45277", "lng": "41.02888", "name": "Spas", "population": 0, "toponymName": "Spas"}, {"adminCode1": "37", "adminName1": "Kostroma", "countryCode": "RU", "countryId": "2017370", "countryName": "Russia", "fcl": "P", "fclName": "city, village,...", "fcode": "PPL", "fcodeName": "populated place", "geonameId": 489754, "lat": "59.16276", "lng": "46.72044", "name": "Spas", "population": 0, "toponymName": "Spas"}, {"adminCode1": "37", "adminName1": "Kostroma", "countryCode": "RU", "countryId": "2017370", "countryName": "Russia", "fcl": "P", "fclName": "city, village,...", "fcode": "PPL", "fcodeName": "populated place", "geonameId": 489876, "lat": "57.9047", "lng": "40.76802", "name": "Spas", "population": 0, "toponymName": "Spas"}, {"adminCode1": "85", "adminName1": "Vologda", "countryCode": "RU", "countryId": "2017370", "countryName": "Russia", "fcl": "P", "fclName": "city, village,...", "fcode": "PPL", "fcodeName": "populated place", "geonameId": 489854, "lat": "58.95181", "lng": "38.81711", "name": "Spas-Lom", "population": 0, "toponymName": "Spas-Lom"}, {"adminCode1": "88", "adminName1": "Jaroslavl", "countryCode": "RU", "countryId": "2017370", "countryName": "Russia", "fcl": "P", "fclName": "city, village,...", "fcode": "PPL", "fcodeName": "populated place", "geonameId": 7079479, "lat": "57.8018", "lng": "39.8887", "name": "Spas", "population": 0, "toponymName": "Spas"}, {"adminCode1": "33", "adminName1": "Kirov", "countryCode": "RU", "countryId": "2017370", "countryName": "Russia", "fcl": "P", "fclName": "city, village,...", "fcode": "PPL", "fcodeName": "populated place", "geonameId": 489846, "lat": "58.40507", "lng": "49.00348", "name": "Spas-Talitsa", "population": 0, "toponymName": "Spas-Talitsa"}, {"adminCode1": "88", "adminName1": "Jaroslavl", "countryCode": "RU", "countryId": "2017370", "countryName": "Russia", "fcl": "P", "fclName": "city, village,...", "fcode": "PPL", "fcodeName": "populated place", "geonameId": 489864, "lat": "57.99173", "lng": "38.07636", "name": "Spas-Il'd'", "population": 0, "toponymName": "Spas-Il\u2019d\u2019"}, {"adminCode1": "85", "adminName1": "Vologda", "countryCode": "RU", "countryId": "2017370", "countryName": "Russia", "fcl": "P", "fclName": "city, village,...", "fcode": "PPL", "fcodeName": "populated place", "geonameId": 6313448, "lat": "58.73159", "lng": "40.37305", "name": "Spas-Nurma", "population": 0, "toponymName": "Spas-Nurma"}, {"adminCode1": "37", "adminName1": "Kostroma", "countryCode": "RU", "countryId": "2017370", "countryName": "Russia", "fcl": "P", "fclName": "city, village,...", "fcode": "PPL", "fcodeName": "populated place", "geonameId": 489733, "lat": "57.70077", "lng": "41.17237", "name": "Spas Yamshchiki", "population": 0, "toponymName": "Spas Yamshchiki"}, {"adminCode1": "85", "adminName1": "Vologda", "countryCode": "RU", "countryId": "2017370", "countryName": "Russia", "fcl": "P", "fclName": "city, village,...", "fcode": "PPL", "fcodeName": "populated place", "geonameId": 489832, "lat": "58.91667", "lng": "40.7", "name": "Spas-Sen\u2019ga", "population": 0, "toponymName": "Spas-Sen\u2019ga"}, {"adminCode1": "37", "adminName1": "Kostroma", "countryCode": "RU", "countryId": "2017370", "countryName": "Russia", "fcl": "P", "fclName": "city, village,...", "fcode": "PPL", "fcodeName": "populated place", "geonameId": 489874, "lat": "58.41199", "lng": "41.41569", "name": "Spas", "population": 0, "toponymName": "Spas"}, {"adminCode1": "88", "adminName1": "Jaroslavl", "countryCode": "RU", "countryId": "2017370", "countryName": "Russia", "fcl": "P", "fclName": "city, village,...", "fcode": "PPL", "fcodeName": "populated place", "geonameId": 6641622, "lat": "57.80043", "lng": "40.19023", "name": "Spas-Vitaliy", "population": 0, "toponymName": "Spas-Vitaliy"}, {"adminCode1": "88", "adminName1": "Jaroslavl", "countryCode": "RU", "countryId": "2017370", "countryName": "Russia", "fcl": "P", "fclName": "city, village,...", "fcode": "PPL", "fcodeName": "populated place", "geonameId": 7079009, "lat": "57.55105", "lng": "39.20209", "name": "Spas-Ramen\u2019ye", "population": 0, "toponymName": "Spas-Ramen\u2019ye"}, {"adminCode1": "37", "adminName1": "Kostroma", "countryCode": "RU", "countryId": "2017370", "countryName": "Russia", "fcl": "P", "fclName": "city, village,...", "fcode": "PPLQ", "fcodeName": "abandoned populated place", "geonameId": 6283017, "lat": "57.82647", "lng": "41.88408", "name": "Spas-Pen\u2019ye", "population": 0, "toponymName": "Spas-Pen\u2019ye"}, {"adminCode1": "37", "adminName1": "Kostroma", "countryCode": "RU", "countryId": "2017370", "countryName": "Russia", "fcl": "P", "fclName": "city, village,...", "fcode": "PPL", "fcodeName": "populated place", "geonameId": 489759, "lat": "58.13349", "lng": "41.98678", "name": "Spas-Verkhov\u2019ye", "population": 0, "toponymName": "Spas-Verkhov\u2019ye"}, {"adminCode1": "37", "adminName1": "Kostroma", "countryCode": "RU", "countryId": "2017370", "countryName": "Russia", "fcl": "P", "fclName": "city, village,...", "fcode": "PPL", "fcodeName": "populated place", "geonameId": 465814, "lat": "57.68621", "lng": "42.41504", "name": "Zabor'ye", "population": 0, "toponymName": "Zabor\u2019ye"}, {"adminCode1": "37", "adminName1": "Kostroma", "countryCode": "RU", "countryId": "2017370", "countryName": "Russia", "fcl": "P", "fclName": "city, village,...", "fcode": "PPL", "fcodeName": "populated place", "geonameId": 6610681, "lat": "58.03302", "lng": "41.20856", "name": "Spas-Buraki", "population": 0, "toponymName": "Spas-Buraki"}, {"adminCode1": "37", "adminName1": "Kostroma", "countryCode": "RU", "countryId": "2017370", "countryName": "Russia", "fcl": "P", "fclName": "city, village,...", "fcode": "PPL", "fcodeName": "populated place", "geonameId": 495633, "lat": "59.07009", "lng": "43.27584", "name": "Shartanovo", "population": 0, "toponymName": "Shartanovo"}, {"adminCode1": "88", "adminName1": "Jaroslavl", "countryCode": "RU", "countryId": "2017370", "countryName": "Russia", "fcl": "P", "fclName": "city, village,...", "fcode": "PPL", "fcodeName": "populated place", "geonameId": 7078838, "lat": "57.41824", "lng": "39.8405", "name": "Spass", "population": 0, "toponymName": "Spass"}, {"adminCode1": "37", "adminName1": "Kostroma", "countryCode": "RU", "countryId": "2017370", "countryName": "Russia", "fcl": "P", "fclName": "city, village,...", "fcode": "PPL", "fcodeName": "populated place", "geonameId": 463029, "lat": "57.58271", "lng": "41.33768", "name": "Zhilino", "population": 0, "toponymName": "Zhilino"}, {"adminCode1": "33", "adminName1": "Kirov", "countryCode": "RU", "countryId": "2017370", "countryName": "Russia", "fcl": "P", "fclName": "city, village,...", "fcode": "PPL", "fcodeName": "populated place", "geonameId": 510869, "lat": "58.67167", "lng": "50.14472", "name": "Pervomayskiy", "population": 0, "toponymName": "Pervomayskiy"}, {"adminCode1": "85", "adminName1": "Vologda", "countryCode": "RU", "countryId": "2017370", "countryName": "Russia", "fcl": "P", "fclName": "city, village,...", "fcode": "PPL", "fcodeName": "populated place", "geonameId": 475492, "lat": "60.66564", "lng": "43.20143", "name": "Spasskiy Pogost", "population": 225, "toponymName": "Spasskiy Pogost"}], "searchinfo": {"east": 57.25, "featureClass": "P", "fuzzy": 1, "hgr_id": 647, "name": "\u0421\u043f\u0430\u0441", "north": 64.08, "south": 57.25, "type": "json", "url": "http://api.geonames.org/search?name=%D0%A1%D0%BF%D0%B0%D1%81&type=json&north=64.08&featureClass=P&east=57.25&west=37.83&south=57.25&username=jaguillette&fuzzy=1", "username": "jaguillette", "west": 37.83}, "totalResultsCount": 24}