{"totalResultsCount":19,"geonames":[{"adminCode1":"06","lng":"40.0217","geonameId":582812,"toponymName":"Alekseyevskaya","countryId":"2017370","fcl":"P","population":0,"countryCode":"RU","name":"Alekseyevskaya","fclName":"city, village,...","countryName":"Russia","fcodeName":"populated place","adminName1":"Arkhangelskaya","lat":"60.7456","fcode":"PPL"},{"adminCode1":"38","lng":"40.15528","geonameId":582817,"toponymName":"Alekseyevskaya","countryId":"2017370","fcl":"P","population":3303,"countryCode":"RU","name":"Alekseyevskaya","fclName":"city, village,...","countryName":"Russia","fcodeName":"populated place","adminName1":"Krasnodarskiy","lat":"45.77167","fcode":"PPL"},{"adminCode1":"85","lng":"38.1426","geonameId":7494879,"toponymName":"Alekseyevskaya","countryId":"2017370","fcl":"P","population":0,"countryCode":"RU","name":"Alekseyevskaya","fclName":"city, village,...","countryName":"Russia","fcodeName":"populated place","adminName1":"Vologda","lat":"59.9621","fcode":"PPL"},{"adminCode1":"85","lng":"46.9058","geonameId":7513077,"toponymName":"Alekseyevskaya","countryId":"2017370","fcl":"P","population":0,"countryCode":"RU","name":"Alekseyevskaya","fclName":"city, village,...","countryName":"Russia","fcodeName":"populated place","adminName1":"Vologda","lat":"60.6269","fcode":"PPL"},{"adminCode1":"20","lng":"108.4","geonameId":2027911,"toponymName":"Alekseyevskaya","countryId":"2017370","fcl":"P","population":3082,"countryCode":"RU","name":"Alekseyevskaya","fclName":"city, village,...","countryName":"Russia","fcodeName":"populated place","adminName1":"Irkutsk","lat":"57.85","fcode":"PPL"},{"adminCode1":"06","lng":"44.3217","geonameId":582810,"toponymName":"Alekseyevskaya","countryId":"2017370","fcl":"P","population":0,"countryCode":"RU","name":"Alekseyevskaya","fclName":"city, village,...","countryName":"Russia","fcodeName":"populated place","adminName1":"Arkhangelskaya","lat":"62.3171","fcode":"PPL"},{"adminCode1":"28","lng":"36.36667","geonameId":582811,"toponymName":"Alekseyevskaya","countryId":"2017370","fcl":"P","population":0,"countryCode":"RU","name":"Alekseyevskaya","fclName":"city, village,...","countryName":"Russia","fcodeName":"populated place","adminName1":"Kareliya","lat":"61.66667","fcode":"PPL"},{"adminCode1":"37","lng":"43.3","geonameId":582813,"toponymName":"Alekseyevskaya","countryId":"2017370","fcl":"P","population":0,"countryCode":"RU","name":"Alekseyevskaya","fclName":"city, village,...","countryName":"Russia","fcodeName":"populated place","adminName1":"Kostroma","lat":"58.71667","fcode":"PPL"},{"adminCode1":"47","lng":"38.81675","geonameId":582815,"toponymName":"Alekseyevskaya","countryId":"2017370","fcl":"P","population":0,"countryCode":"RU","name":"Alekseyevskaya","fclName":"city, village,...","countryName":"Russia","fcodeName":"populated place","adminName1":"Moskovskaya","lat":"55.48759","fcode":"PPL"},{"adminCode1":"85","lng":"46.7521","geonameId":7512756,"toponymName":"Alekseyevskaya","countryId":"2017370","fcl":"P","population":0,"countryCode":"RU","name":"Alekseyevskaya","fclName":"city, village,...","countryName":"Russia","fcodeName":"abandoned populated place","adminName1":"Vologda","lat":"60.6708","fcode":"PPLQ"},{"adminCode1":"84","lng":"42.1845","geonameId":582816,"toponymName":"Alekseyevskaya","countryId":"2017370","fcl":"P","population":4205,"countryCode":"RU","name":"Alekseyevskaya","fclName":"city, village,...","countryName":"Russia","fcodeName":"populated place","adminName1":"Volgograd","lat":"50.2896","fcode":"PPL"},{"adminCode1":"06","lng":"45.04","geonameId":8250923,"toponymName":"Alekseyevskaya","countryId":"2017370","fcl":"P","population":0,"countryCode":"RU","name":"Alekseyevskaya","fclName":"city, village,...","countryName":"Russia","fcodeName":"populated place","adminName1":"Arkhangelskaya","lat":"62.2336","fcode":"PPL"},{"adminCode1":"06","lng":"40.835","geonameId":8223579,"toponymName":"Alekseyevskaya","countryId":"2017370","fcl":"P","population":0,"countryCode":"RU","name":"Alekseyevskaya","fclName":"city, village,...","countryName":"Russia","fcodeName":"populated place","adminName1":"Arkhangelskaya","lat":"61.788","fcode":"PPL"},{"adminCode1":"05","lng":"129.61667","geonameId":2027909,"toponymName":"Gora Alekseyevskaya","countryId":"2017370","fcl":"T","population":0,"countryCode":"RU","name":"Gora Alekseyevskaya","fclName":"mountain,hill,rock,... ","countryName":"Russia","fcodeName":"mountain","adminName1":"Amur","lat":"53.91667","fcode":"MT"},{"adminCode1":"59","lng":"131.88944","geonameId":2027910,"toponymName":"Gora Alekseyevskaya","countryId":"2017370","fcl":"T","population":0,"countryCode":"RU","name":"Gora Alekseyevskaya","fclName":"mountain,hill,rock,... ","countryName":"Russia","fcodeName":"hill","adminName1":"Primorskiy","lat":"43.11556","fcode":"HLL"},{"adminCode1":"59","lng":"131.84605","geonameId":2056684,"toponymName":"Gora Alekseyevskaya","countryId":"2017370","fcl":"T","population":0,"countryCode":"RU","name":"Gora Alekseyevskaya","fclName":"mountain,hill,rock,... ","countryName":"Russia","fcodeName":"mountain","adminName1":"Primorskiy","lat":"44.75037","fcode":"MT"},{"adminCode1":"69","lng":"32.02182","geonameId":815469,"toponymName":"Alekseyevskaya Buda","countryId":"2017370","fcl":"P","population":0,"countryCode":"RU","name":"Alekseyevskaya Buda","fclName":"city, village,...","countryName":"Russia","fcodeName":"abandoned populated place","adminName1":"Smolensk","lat":"54.2221","fcode":"PPLQ"},{"adminCode1":"59","lng":"133.53089","geonameId":8239530,"toponymName":"Gora Alekseyevskaya","countryId":"2017370","fcl":"T","population":0,"countryCode":"RU","name":"Gora Alekseyevskaya","fclName":"mountain,hill,rock,... ","countryName":"Russia","fcodeName":"mountain","adminName1":"Primorskiy","lat":"43.35491","fcode":"MT"},{"adminCode1":"65","lng":"50.4855","geonameId":582808,"toponymName":"Stantsiya Alekseyevskaya","countryId":"2017370","fcl":"S","population":0,"countryCode":"RU","name":"Stantsiya Alekseyevskaya","fclName":"spot, building, farm","countryName":"Russia","fcodeName":"railroad station","adminName1":"Samara","lat":"53.23422","fcode":"RSTN"}]}