{"totalResultsCount":10,"geonames":[{"countryId":"2017370","adminCode1":"25","countryName":"Russia","fclName":"city, village,...","countryCode":"RU","lng":"35.31222","fcodeName":"populated place","toponymName":"Алешня","fcl":"P","name":"Алешня","fcode":"PPL","geonameId":815668,"lat":"54.97167","adminName1":"Kaluga","population":0},{"countryId":"2017370","adminCode1":"56","countryName":"Russia","fclName":"city, village,...","countryCode":"RU","lng":"36.49798","fcodeName":"populated place","toponymName":"Oleshnya","fcl":"P","name":"Oleshnya","fcode":"PPL","geonameId":515638,"lat":"53.01377","adminName1":"Orjol","population":0},{"countryId":"2017370","adminCode1":"62","countryName":"Russia","fclName":"city, village,...","countryCode":"RU","lng":"39.33333","fcodeName":"populated place","toponymName":"Alëshnya","fcl":"P","name":"Aleshnya","fcode":"PPL","geonameId":582628,"lat":"54.7","adminName1":"Rjazan","population":0},{"countryId":"2017370","adminCode1":"76","countryName":"Russia","fclName":"city, village,...","countryCode":"RU","lng":"37.26148","fcodeName":"populated place","toponymName":"Alëshnya","fcl":"P","name":"Alëshnya","fcode":"PPL","geonameId":582629,"lat":"54.24563","adminName1":"Tula","population":0},{"countryId":"2017370","adminCode1":"25","countryName":"Russia","fclName":"city, village,...","countryCode":"RU","lng":"35.61034","fcodeName":"populated place","toponymName":"Alëshnya","fcl":"P","name":"Alëshnya","fcode":"PPL","geonameId":582630,"lat":"53.92495","adminName1":"Kaluga","population":0},{"countryId":"2017370","adminCode1":"10","countryName":"Russia","fclName":"city, village,...","countryCode":"RU","lng":"33.45958","fcodeName":"populated place","toponymName":"Alëshnya","fcl":"P","name":"Alëshnya","fcode":"PPL","geonameId":582631,"lat":"53.63586","adminName1":"Brjansk","population":0},{"countryId":"2017370","adminCode1":"62","countryName":"Russia","fclName":"stream, lake, ...","countryCode":"RU","lng":"41.95072","fcodeName":"stream","toponymName":"Aleshnya","fcl":"H","name":"Aleshnya","fcode":"STM","geonameId":582624,"lat":"54.33329","adminName1":"Rjazan","population":0},{"countryId":"2017370","adminCode1":"76","countryName":"Russia","fclName":"stream, lake, ...","countryCode":"RU","lng":"37.70917","fcodeName":"stream","toponymName":"Aleshnya","fcl":"H","name":"Aleshnya","fcode":"STM","geonameId":821694,"lat":"53.99333","adminName1":"Tula","population":0},{"countryId":"2017370","adminCode1":"25","countryName":"Russia","fclName":"stream, lake, ...","countryCode":"RU","lng":"36.51611","fcodeName":"stream","toponymName":"Aleshnya","fcl":"H","name":"Aleshnya","fcode":"STM","geonameId":818768,"lat":"54.68583","adminName1":"Kaluga","population":0},{"countryId":"2017370","adminCode1":"62","countryName":"Russia","fclName":"stream, lake, ...","countryCode":"RU","lng":"40.0434","fcodeName":"stream","toponymName":"Alëshnya","fcl":"H","name":"Alëshnya","fcode":"STM","geonameId":7688337,"lat":"54.0182","adminName1":"Rjazan","population":0}]}