{"totalResultsCount":10,"geonames":[{"adminCode1":"25","lng":"35.31222","geonameId":815668,"toponymName":"Алешня","countryId":"2017370","fcl":"P","population":0,"countryCode":"RU","name":"Алешня","fclName":"city, village,...","countryName":"Russia","fcodeName":"populated place","adminName1":"Kaluga","lat":"54.97167","fcode":"PPL"},{"adminCode1":"56","lng":"36.49798","geonameId":515638,"toponymName":"Oleshnya","countryId":"2017370","fcl":"P","population":0,"countryCode":"RU","name":"Oleshnya","fclName":"city, village,...","countryName":"Russia","fcodeName":"populated place","adminName1":"Orjol","lat":"53.01377","fcode":"PPL"},{"adminCode1":"62","lng":"39.33333","geonameId":582628,"toponymName":"Alëshnya","countryId":"2017370","fcl":"P","population":0,"countryCode":"RU","name":"Aleshnya","fclName":"city, village,...","countryName":"Russia","fcodeName":"populated place","adminName1":"Rjazan","lat":"54.7","fcode":"PPL"},{"adminCode1":"76","lng":"37.26148","geonameId":582629,"toponymName":"Alëshnya","countryId":"2017370","fcl":"P","population":0,"countryCode":"RU","name":"Alëshnya","fclName":"city, village,...","countryName":"Russia","fcodeName":"populated place","adminName1":"Tula","lat":"54.24563","fcode":"PPL"},{"adminCode1":"25","lng":"35.61033","geonameId":582630,"toponymName":"Alëshnya","countryId":"2017370","fcl":"P","population":0,"countryCode":"RU","name":"Alëshnya","fclName":"city, village,...","countryName":"Russia","fcodeName":"populated place","adminName1":"Kaluga","lat":"53.92495","fcode":"PPL"},{"adminCode1":"10","lng":"33.45958","geonameId":582631,"toponymName":"Alëshnya","countryId":"2017370","fcl":"P","population":0,"countryCode":"RU","name":"Alëshnya","fclName":"city, village,...","countryName":"Russia","fcodeName":"populated place","adminName1":"Brjansk","lat":"53.63586","fcode":"PPL"},{"adminCode1":"62","lng":"41.95072","geonameId":582624,"toponymName":"Aleshnya","countryId":"2017370","fcl":"H","population":0,"countryCode":"RU","name":"Aleshnya","fclName":"stream, lake, ...","countryName":"Russia","fcodeName":"stream","adminName1":"Rjazan","lat":"54.33329","fcode":"STM"},{"adminCode1":"76","lng":"37.70917","geonameId":821694,"toponymName":"Aleshnya","countryId":"2017370","fcl":"H","population":0,"countryCode":"RU","name":"Aleshnya","fclName":"stream, lake, ...","countryName":"Russia","fcodeName":"stream","adminName1":"Tula","lat":"53.99333","fcode":"STM"},{"adminCode1":"25","lng":"36.51611","geonameId":818768,"toponymName":"Aleshnya","countryId":"2017370","fcl":"H","population":0,"countryCode":"RU","name":"Aleshnya","fclName":"stream, lake, ...","countryName":"Russia","fcodeName":"stream","adminName1":"Kaluga","lat":"54.68583","fcode":"STM"},{"adminCode1":"62","lng":"40.0434","geonameId":7688337,"toponymName":"Alëshnya","countryId":"2017370","fcl":"H","population":0,"countryCode":"RU","name":"Alëshnya","fclName":"stream, lake, ...","countryName":"Russia","fcodeName":"stream","adminName1":"Rjazan","lat":"54.0182","fcode":"STM"}]}