{"totalResultsCount":12,"geonames":[{"countryId":"2017370","adminCode1":"38","countryName":"Russia","fclName":"city, village,...","countryCode":"RU","lng":"40.15528","fcodeName":"populated place","toponymName":"Alekseyevskaya","fcl":"P","name":"Alekseyevskaya","fcode":"PPL","geonameId":582817,"lat":"45.77167","adminName1":"Krasnodarskiy","population":3303},{"countryId":"2017370","adminCode1":"06","countryName":"Russia","fclName":"city, village,...","countryCode":"RU","lng":"40.0217","fcodeName":"populated place","toponymName":"Alekseyevskaya","fcl":"P","name":"Alekseyevskaya","fcode":"PPL","geonameId":582812,"lat":"60.7456","adminName1":"Arkhangelskaya","population":0},{"countryId":"2017370","adminCode1":"85","countryName":"Russia","fclName":"city, village,...","countryCode":"RU","lng":"38.1426","fcodeName":"populated place","toponymName":"Alekseyevskaya","fcl":"P","name":"Alekseyevskaya","fcode":"PPL","geonameId":7494879,"lat":"59.9621","adminName1":"Vologda","population":0},{"countryId":"2017370","adminCode1":"85","countryName":"Russia","fclName":"city, village,...","countryCode":"RU","lng":"46.9058","fcodeName":"populated place","toponymName":"Alekseyevskaya","fcl":"P","name":"Alekseyevskaya","fcode":"PPL","geonameId":7513077,"lat":"60.6269","adminName1":"Vologda","population":0},{"countryId":"2017370","adminCode1":"20","countryName":"Russia","fclName":"city, village,...","countryCode":"RU","lng":"108.4","fcodeName":"populated place","toponymName":"Alekseyevskaya","fcl":"P","name":"Alekseyevskaya","fcode":"PPL","geonameId":2027911,"lat":"57.85","adminName1":"Irkutsk","population":3082},{"countryId":"2017370","adminCode1":"06","countryName":"Russia","fclName":"city, village,...","countryCode":"RU","lng":"44.3217","fcodeName":"populated place","toponymName":"Alekseyevskaya","fcl":"P","name":"Alekseyevskaya","fcode":"PPL","geonameId":582810,"lat":"62.3171","adminName1":"Arkhangelskaya","population":0},{"countryId":"2017370","adminCode1":"28","countryName":"Russia","fclName":"city, village,...","countryCode":"RU","lng":"36.36667","fcodeName":"populated place","toponymName":"Alekseyevskaya","fcl":"P","name":"Alekseyevskaya","fcode":"PPL","geonameId":582811,"lat":"61.66667","adminName1":"Kareliya","population":0},{"countryId":"2017370","adminCode1":"37","countryName":"Russia","fclName":"city, village,...","countryCode":"RU","lng":"43.3","fcodeName":"populated place","toponymName":"Alekseyevskaya","fcl":"P","name":"Alekseyevskaya","fcode":"PPL","geonameId":582813,"lat":"58.71667","adminName1":"Kostroma","population":0},{"countryId":"2017370","adminCode1":"47","countryName":"Russia","fclName":"city, village,...","countryCode":"RU","lng":"38.81675","fcodeName":"populated place","toponymName":"Alekseyevskaya","fcl":"P","name":"Alekseyevskaya","fcode":"PPL","geonameId":582815,"lat":"55.48759","adminName1":"Moskovskaya","population":0},{"countryId":"2017370","adminCode1":"84","countryName":"Russia","fclName":"city, village,...","countryCode":"RU","lng":"42.1845","fcodeName":"populated place","toponymName":"Alekseyevskaya","fcl":"P","name":"Alekseyevskaya","fcode":"PPL","geonameId":582816,"lat":"50.2896","adminName1":"Volgograd","population":4205},{"countryId":"2017370","adminCode1":"06","countryName":"Russia","fclName":"city, village,...","countryCode":"RU","lng":"45.04","fcodeName":"populated place","toponymName":"Alekseyevskaya","fcl":"P","name":"Alekseyevskaya","fcode":"PPL","geonameId":8250923,"lat":"62.2336","adminName1":"Arkhangelskaya","population":0},{"countryId":"2017370","adminCode1":"06","countryName":"Russia","fclName":"city, village,...","countryCode":"RU","lng":"40.835","fcodeName":"populated place","toponymName":"Alekseyevskaya","fcl":"P","name":"Alekseyevskaya","fcode":"PPL","geonameId":8223579,"lat":"61.788","adminName1":"Arkhangelskaya","population":0}]}