{"totalResultsCount":55,"geonames":[{"countryId":"2017370","adminCode1":"10","countryName":"Russia","fclName":"city, village,...","countryCode":"RU","lng":"31.7801","fcodeName":"populated place","toponymName":"Antonovka","fcl":"P","name":"Antonovka","fcode":"PPL","geonameId":581504,"lat":"53.1068","adminName1":"Brjansk","population":0},{"countryId":"690791","adminCode1":"04","countryName":"Ukraine","fclName":"city, village,...","countryCode":"UA","lng":"35.02213","fcodeName":"populated place","toponymName":"Antonovka","fcl":"P","name":"Antonovka","fcode":"PPL","geonameId":713292,"lat":"48.29355","adminName1":"Dnipropetrovsk","population":0},{"countryId":"2017370","adminCode1":"42","countryName":"Russia","fclName":"city, village,...","countryCode":"RU","lng":"35.35","fcodeName":"populated place","toponymName":"Antonovka","fcl":"P","name":"Antonovka","fcode":"PPL","geonameId":581489,"lat":"59.6","adminName1":"Leningrad","population":0},{"countryId":"2017370","adminCode1":"09","countryName":"Russia","fclName":"city, village,...","countryCode":"RU","lng":"35.7605","fcodeName":"populated place","toponymName":"Antonovka","fcl":"P","name":"Antonovka","fcode":"PPL","geonameId":581509,"lat":"50.5503","adminName1":"Belgorod","population":0},{"countryId":"690791","adminCode1":"01","countryName":"Ukraine","fclName":"city, village,...","countryCode":"UA","lng":"30.07466","fcodeName":"populated place","toponymName":"Antonovka","fcl":"P","name":"Antonovka","fcode":"PPL","geonameId":713289,"lat":"48.53429","adminName1":"Cherkasy","population":0},{"countryId":"2017370","adminCode1":"69","countryName":"Russia","fclName":"city, village,...","countryCode":"RU","lng":"33.23953","fcodeName":"populated place","toponymName":"Antonovka","fcl":"P","name":"Antonovka","fcode":"PPL","geonameId":581497,"lat":"54.15853","adminName1":"Smolensk","population":0},{"countryId":"2017370","adminCode1":"10","countryName":"Russia","fclName":"city, village,...","countryCode":"RU","lng":"33.45639","fcodeName":"populated place","toponymName":"Antonovka","fcl":"P","name":"Antonovka","fcode":"PPL","geonameId":581501,"lat":"53.43778","adminName1":"Brjansk","population":0},{"countryId":"2017370","adminCode1":"10","countryName":"Russia","fclName":"city, village,...","countryCode":"RU","lng":"34.27554","fcodeName":"populated place","toponymName":"Antonovka","fcl":"P","name":"Antonovka","fcode":"PPL","geonameId":581503,"lat":"53.21737","adminName1":"Brjansk","population":0},{"countryId":"2017370","adminCode1":"10","countryName":"Russia","fclName":"city, village,...","countryCode":"RU","lng":"34.27944","fcodeName":"populated place","toponymName":"Antonovka","fcl":"P","name":"Antonovka","fcode":"PPL","geonameId":815903,"lat":"53.35444","adminName1":"Brjansk","population":0},{"countryId":"690791","adminCode1":"02","countryName":"Ukraine","fclName":"city, village,...","countryCode":"UA","lng":"32.53519","fcodeName":"populated place","toponymName":"Antonivka","fcl":"P","name":"Antonovka","fcode":"PPL","geonameId":713277,"lat":"50.38309","adminName1":"Chernihiv","population":0},{"countryId":"630336","adminCode1":"02","countryName":"Belarus","fclName":"city, village,...","countryCode":"BY","lng":"30.1476","fcodeName":"populated place","toponymName":"Antonovka","fcl":"P","name":"Antonovka","fcode":"PPL","geonameId":630553,"lat":"52.9817","adminName1":"Gomel","population":0},{"countryId":"630336","adminCode1":"02","countryName":"Belarus","fclName":"city, village,...","countryCode":"BY","lng":"29.7994","fcodeName":"populated place","toponymName":"Antonovka","fcl":"P","name":"Antonovka","fcode":"PPL","geonameId":630554,"lat":"52.7272","adminName1":"Gomel","population":0},{"countryId":"630336","adminCode1":"02","countryName":"Belarus","fclName":"city, village,...","countryCode":"BY","lng":"29.2838","fcodeName":"populated place","toponymName":"Antonovka","fcl":"P","name":"Antonovka","fcode":"PPL","geonameId":630556,"lat":"52.1644","adminName1":"Gomel","population":0},{"countryId":"630336","adminCode1":"02","countryName":"Belarus","fclName":"city, village,...","countryCode":"BY","lng":"29.139","fcodeName":"populated place","toponymName":"Antonovka","fcl":"P","name":"Antonovka","fcode":"PPL","geonameId":630557,"lat":"51.9354","adminName1":"Gomel","population":0},{"countryId":"630336","adminCode1":"02","countryName":"Belarus","fclName":"city, village,...","countryCode":"BY","lng":"30.6597","fcodeName":"populated place","toponymName":"Antonovka","fcl":"P","name":"Antonovka","fcode":"PPL","geonameId":815016,"lat":"52.9173","adminName1":"Gomel","population":0},{"countryId":"630336","adminCode1":"06","countryName":"Belarus","fclName":"city, village,...","countryCode":"BY","lng":"30.639","fcodeName":"populated place","toponymName":"Antonovka","fcl":"P","name":"Antonovka","fcode":"PPL","geonameId":815387,"lat":"53.8124","adminName1":"Mahilyowskaya Voblastsʼ","population":0},{"countryId":"630336","adminCode1":"06","countryName":"Belarus","fclName":"city, village,...","countryCode":"BY","lng":"29.2107","fcodeName":"populated place","toponymName":"Antonovka","fcl":"P","name":"Antonovka","fcode":"PPL","geonameId":8148795,"lat":"53.2193","adminName1":"Mahilyowskaya Voblastsʼ","population":0},{"countryId":"630336","adminCode1":"03","countryName":"Belarus","fclName":"city, village,...","countryCode":"BY","lng":"25.9587","fcodeName":"populated place","toponymName":"Antonovka","fcl":"P","name":"Antonovka","fcode":"PPL","geonameId":7930785,"lat":"53.7071","adminName1":"Grodnenskaya","population":0},{"countryId":"630336","adminCode1":"05","countryName":"Belarus","fclName":"city, village,...","countryCode":"BY","lng":"27.7295","fcodeName":"populated place","toponymName":"Antonovka","fcl":"P","name":"Antonovka","fcode":"PPL","geonameId":8247112,"lat":"54.3011","adminName1":"Minskaja Voblasts’","population":0},{"countryId":"630336","adminCode1":"07","countryName":"Belarus","fclName":"city, village,...","countryCode":"BY","lng":"28.5561","fcodeName":"populated place","toponymName":"Antonovka","fcl":"P","name":"Antonovka","fcode":"PPL","geonameId":8222525,"lat":"54.9524","adminName1":"Vitsyebskaya Voblastsʼ","population":0},{"countryId":"2017370","adminCode1":"56","countryName":"Russia","fclName":"city, village,...","countryCode":"RU","lng":"35.8028","fcodeName":"populated place","toponymName":"Antonovka","fcl":"P","name":"Antonovka","fcode":"PPL","geonameId":7687264,"lat":"52.4994","adminName1":"Orjol","population":0},{"countryId":"630336","adminCode1":"06","countryName":"Belarus","fclName":"city, village,...","countryCode":"BY","lng":"32.0222","fcodeName":"populated place","toponymName":"Antonovka","fcl":"P","name":"Antonovka","fcode":"PPL","geonameId":630551,"lat":"53.4463","adminName1":"Mahilyowskaya Voblastsʼ","population":0},{"countryId":"630336","adminCode1":"06","countryName":"Belarus","fclName":"city, village,...","countryCode":"BY","lng":"31.6581","fcodeName":"populated place","toponymName":"Antonovka","fcl":"P","name":"Antonovka","fcode":"PPL","geonameId":630552,"lat":"53.4065","adminName1":"Mahilyowskaya Voblastsʼ","population":0},{"countryId":"630336","adminCode1":"02","countryName":"Belarus","fclName":"city, village,...","countryCode":"BY","lng":"31.2327","fcodeName":"populated place","toponymName":"Antonovka","fcl":"P","name":"Antonovka","fcode":"PPL","geonameId":630555,"lat":"52.2431","adminName1":"Gomel","population":0},{"countryId":"630336","adminCode1":"07","countryName":"Belarus","fclName":"city, village,...","countryCode":"BY","lng":"30.9018","fcodeName":"populated place","toponymName":"Antonovka","fcl":"P","name":"Antonovka","fcode":"PPL","geonameId":8331277,"lat":"55.4538","adminName1":"Vitsyebskaya Voblastsʼ","population":0},{"countryId":"690791","adminCode1":"19","countryName":"Ukraine","fclName":"city, village,...","countryCode":"UA","lng":"26.5","fcodeName":"populated place","toponymName":"Antonovka","fcl":"P","name":"Antonovka","fcode":"PPL","geonameId":713276,"lat":"50.8","adminName1":"Rivne","population":0},{"countryId":"690791","adminCode1":"13","countryName":"Ukraine","fclName":"city, village,...","countryCode":"UA","lng":"30.68435","fcodeName":"populated place","toponymName":"Antonovka","fcl":"P","name":"Antonovka","fcode":"PPL","geonameId":713278,"lat":"49.9755","adminName1":"Kiev","population":0},{"countryId":"690791","adminCode1":"13","countryName":"Ukraine","fclName":"city, village,...","countryCode":"UA","lng":"30.38333","fcodeName":"populated place","toponymName":"Antonovka","fcl":"P","name":"Antonovka","fcode":"PPL","geonameId":713279,"lat":"49.85","adminName1":"Kiev","population":0},{"countryId":"690791","adminCode1":"09","countryName":"Ukraine","fclName":"city, village,...","countryCode":"UA","lng":"26.78412","fcodeName":"populated place","toponymName":"Antonovka","fcl":"P","name":"Antonovka","fcode":"PPL","geonameId":713280,"lat":"49.5308","adminName1":"Khmelnytskyi","population":0},{"countryId":"690791","adminCode1":"13","countryName":"Ukraine","fclName":"city, village,...","countryCode":"UA","lng":"30.264","fcodeName":"populated place","toponymName":"Antonovka","fcl":"P","name":"Antonovka","fcode":"PPL","geonameId":713282,"lat":"49.39143","adminName1":"Kiev","population":0},{"countryId":"690791","adminCode1":"07","countryName":"Ukraine","fclName":"city, village,...","countryCode":"UA","lng":"35.79792","fcodeName":"populated place","toponymName":"Antonovka","fcl":"P","name":"Antonovka","fcode":"PPL","geonameId":713283,"lat":"49.32766","adminName1":"Kharkiv","population":0},{"countryId":"690791","adminCode1":"09","countryName":"Ukraine","fclName":"city, village,...","countryCode":"UA","lng":"26.51509","fcodeName":"populated place","toponymName":"Antonovka","fcl":"P","name":"Antonovka","fcode":"PPL","geonameId":713284,"lat":"48.94634","adminName1":"Khmelnytskyi","population":0},{"countryId":"690791","adminCode1":"09","countryName":"Ukraine","fclName":"city, village,...","countryCode":"UA","lng":"27.13304","fcodeName":"populated place","toponymName":"Antonovka","fcl":"P","name":"Antonovka","fcode":"PPL","geonameId":713285,"lat":"48.83881","adminName1":"Khmelnytskyi","population":0},{"countryId":"690791","adminCode1":"23","countryName":"Ukraine","fclName":"city, village,...","countryCode":"UA","lng":"29.50341","fcodeName":"populated place","toponymName":"Antonovka","fcl":"P","name":"Antonovka","fcode":"PPL","geonameId":713286,"lat":"48.64362","adminName1":"Vinnyts'ka","population":0},{"countryId":"690791","adminCode1":"10","countryName":"Ukraine","fclName":"city, village,...","countryCode":"UA","lng":"32.41667","fcodeName":"populated place","toponymName":"Antonovka","fcl":"P","name":"Antonovka","fcode":"PPL","geonameId":713288,"lat":"48.53333","adminName1":"Kirovohrad","population":0},{"countryId":"690791","adminCode1":"10","countryName":"Ukraine","fclName":"city, village,...","countryCode":"UA","lng":"30.9","fcodeName":"populated place","toponymName":"Antonovka","fcl":"P","name":"Antonovka","fcode":"PPL","geonameId":713291,"lat":"48.48333","adminName1":"Kirovohrad","population":0},{"countryId":"690791","adminCode1":"26","countryName":"Ukraine","fclName":"city, village,...","countryCode":"UA","lng":"35.68071","fcodeName":"populated place","toponymName":"Antonovka","fcl":"P","name":"Antonovka","fcode":"PPL","geonameId":713293,"lat":"47.96965","adminName1":"Zaporizhia","population":0},{"countryId":"630336","adminCode1":"06","countryName":"Belarus","fclName":"city, village,...","countryCode":"BY","lng":"31.52139","fcodeName":"populated place","toponymName":"Antonovka","fcl":"P","name":"Antonovka","fcode":"PPL","geonameId":815587,"lat":"53.84694","adminName1":"Mahilyowskaya Voblastsʼ","population":0},{"countryId":"630336","adminCode1":"02","countryName":"Belarus","fclName":"city, village,...","countryCode":"BY","lng":"31.2672","fcodeName":"populated place","toponymName":"Antonovka","fcl":"P","name":"Antonovka","fcode":"PPL","geonameId":629169,"lat":"52.8814","adminName1":"Gomel","population":0},{"countryId":"690791","adminCode1":"09","countryName":"Ukraine","fclName":"city, village,...","countryCode":"UA","lng":"27.7173","fcodeName":"populated place","toponymName":"Antonivka","fcl":"P","name":"Antonivka","fcode":"PPL","geonameId":713281,"lat":"49.45367","adminName1":"Khmelnytskyi","population":130},{"countryId":"690791","adminCode1":"24","countryName":"Ukraine","fclName":"city, village,...","countryCode":"UA","lng":"25.16303","fcodeName":"populated place","toponymName":"Antonivka","fcl":"P","name":"Antonivka","fcode":"PPL","geonameId":713265,"lat":"50.73138","adminName1":"Volyn","population":0},{"countryId":"690791","adminCode1":"24","countryName":"Ukraine","fclName":"city, village,...","countryCode":"UA","lng":"25.08953","fcodeName":"populated place","toponymName":"Antonivka","fcl":"P","name":"Antonivka","fcode":"PPL","geonameId":713266,"lat":"50.30016","adminName1":"Volyn","population":0},{"countryId":"690791","adminCode1":"21","countryName":"Ukraine","fclName":"city, village,...","countryCode":"UA","lng":"33.5882","fcodeName":"populated place","toponymName":"Antonivka","fcl":"P","name":"Antonivka","fcode":"PPL","geonameId":713274,"lat":"52.00256","adminName1":"Sumy","population":0},{"countryId":"690791","adminCode1":"23","countryName":"Ukraine","fclName":"city, village,...","countryCode":"UA","lng":"28.4275","fcodeName":"populated place","toponymName":"Antonivka","fcl":"P","name":"Antonivka","fcode":"PPL","geonameId":713290,"lat":"48.53939","adminName1":"Vinnyts'ka","population":0},{"countryId":"630336","adminCode1":"06","countryName":"Belarus","fclName":"city, village,...","countryCode":"BY","lng":"30.8954","fcodeName":"populated place","toponymName":"Antonawka","fcl":"P","name":"Antonawka","fcode":"PPL","geonameId":630550,"lat":"53.7454","adminName1":"Mahilyowskaya Voblastsʼ","population":0},{"countryId":"2017370","adminCode1":"77","countryName":"Russia","fclName":"city, village,...","countryCode":"RU","lng":"35.3656","fcodeName":"populated place","toponymName":"Antonovo","fcl":"P","name":"Antonovo","fcode":"PPL","geonameId":581479,"lat":"58.32384","adminName1":"Tverskaya","population":0},{"countryId":"690791","adminCode1":"23","countryName":"Ukraine","fclName":"city, village,...","countryCode":"UA","lng":"28.41519","fcodeName":"populated place","toponymName":"Stina","fcl":"P","name":"Stina","fcode":"PPL","geonameId":692623,"lat":"48.45548","adminName1":"Vinnyts'ka","population":0},{"countryId":"630336","adminCode1":"07","countryName":"Belarus","fclName":"city, village,...","countryCode":"BY","lng":"30.4326","fcodeName":"populated place","toponymName":"Antonawka","fcl":"P","name":"Antonawka","fcode":"PPL","geonameId":8281016,"lat":"54.4036","adminName1":"Vitsyebskaya Voblastsʼ","population":0},{"countryId":"690791","adminCode1":"21","countryName":"Ukraine","fclName":"city, village,...","countryCode":"UA","lng":"33.74376","fcodeName":"populated place","toponymName":"Antonivka","fcl":"P","name":"Antonivka","fcode":"PPL","geonameId":8407114,"lat":"51.42604","adminName1":"Sumy","population":0},{"countryId":"690791","adminCode1":"19","countryName":"Ukraine","fclName":"city, village,...","countryCode":"UA","lng":"26.56722","fcodeName":"populated place","toponymName":"Antonivka","fcl":"P","name":"Antonivka","fcode":"PPL","geonameId":8346656,"lat":"50.98411","adminName1":"Rivne","population":0},{"countryId":"690791","adminCode1":"27","countryName":"Ukraine","fclName":"city, village,...","countryCode":"UA","lng":"29.33366","fcodeName":"populated place","toponymName":"Antonivka","fcl":"P","name":"Antonivka","fcode":"PPL","geonameId":8507792,"lat":"50.31398","adminName1":"Zhytomyr","population":0},{"countryId":"690791","adminCode1":"27","countryName":"Ukraine","fclName":"city, village,...","countryCode":"UA","lng":"28.21905","fcodeName":"populated place","toponymName":"Antonivka","fcl":"P","name":"Antonivka","fcode":"PPL","geonameId":8466954,"lat":"50.64116","adminName1":"Zhytomyr","population":0},{"countryId":"690791","adminCode1":"06","countryName":"Ukraine","fclName":"city, village,...","countryCode":"UA","lng":"25.0539","fcodeName":"populated place","toponymName":"Antonuvka","fcl":"P","name":"Antonuvka","fcode":"PPL","geonameId":713268,"lat":"48.94484","adminName1":"Ivano-Frankivsk","population":0},{"countryId":"690791","adminCode1":"19","countryName":"Ukraine","fclName":"city, village,...","countryCode":"UA","lng":"26.301","fcodeName":"populated place","toponymName":"Antonivka","fcl":"P","name":"Antonivka","fcode":"PPL","geonameId":713275,"lat":"51.3149","adminName1":"Rivne","population":0},{"countryId":"617790","adminCode1":"71","countryName":"Moldova","fclName":"city, village,...","countryCode":"MD","lng":"27.69083","fcodeName":"populated place","toponymName":"Antoneuca","fcl":"P","name":"Antoneuca","fcode":"PPL","geonameId":618635,"lat":"48.07639","adminName1":"Drochia","population":0}]}