{"totalResultsCount":12,"geonames":[{"adminCode1":"10","lng":"31.7801","geonameId":581504,"toponymName":"Antonovka","countryId":"2017370","fcl":"P","population":0,"countryCode":"RU","name":"Antonovka","fclName":"city, village,...","countryName":"Russia","fcodeName":"populated place","adminName1":"Brjansk","lat":"53.1068","fcode":"PPL"},{"adminCode1":"02","lng":"30.1476","geonameId":630553,"toponymName":"Antonovka","countryId":"630336","fcl":"P","population":0,"countryCode":"BY","name":"Antonovka","fclName":"city, village,...","countryName":"Belarus","fcodeName":"populated place","adminName1":"Gomel","lat":"52.9817","fcode":"PPL"},{"adminCode1":"02","lng":"29.7994","geonameId":630554,"toponymName":"Antonovka","countryId":"630336","fcl":"P","population":0,"countryCode":"BY","name":"Antonovka","fclName":"city, village,...","countryName":"Belarus","fcodeName":"populated place","adminName1":"Gomel","lat":"52.7272","fcode":"PPL"},{"adminCode1":"02","lng":"30.6597","geonameId":815016,"toponymName":"Antonovka","countryId":"630336","fcl":"P","population":0,"countryCode":"BY","name":"Antonovka","fclName":"city, village,...","countryName":"Belarus","fcodeName":"populated place","adminName1":"Gomel","lat":"52.9173","fcode":"PPL"},{"adminCode1":"06","lng":"30.639","geonameId":815387,"toponymName":"Antonovka","countryId":"630336","fcl":"P","population":0,"countryCode":"BY","name":"Antonovka","fclName":"city, village,...","countryName":"Belarus","fcodeName":"populated place","adminName1":"Mahilyowskaya Voblastsʼ","lat":"53.8124","fcode":"PPL"},{"adminCode1":"06","lng":"32.0222","geonameId":630551,"toponymName":"Antonovka","countryId":"630336","fcl":"P","population":0,"countryCode":"BY","name":"Antonovka","fclName":"city, village,...","countryName":"Belarus","fcodeName":"populated place","adminName1":"Mahilyowskaya Voblastsʼ","lat":"53.4463","fcode":"PPL"},{"adminCode1":"06","lng":"31.6581","geonameId":630552,"toponymName":"Antonovka","countryId":"630336","fcl":"P","population":0,"countryCode":"BY","name":"Antonovka","fclName":"city, village,...","countryName":"Belarus","fcodeName":"populated place","adminName1":"Mahilyowskaya Voblastsʼ","lat":"53.4065","fcode":"PPL"},{"adminCode1":"02","lng":"31.2327","geonameId":630555,"toponymName":"Antonovka","countryId":"630336","fcl":"P","population":0,"countryCode":"BY","name":"Antonovka","fclName":"city, village,...","countryName":"Belarus","fcodeName":"populated place","adminName1":"Gomel","lat":"52.2431","fcode":"PPL"},{"adminCode1":"06","lng":"31.52139","geonameId":815587,"toponymName":"Antonovka","countryId":"630336","fcl":"P","population":0,"countryCode":"BY","name":"Antonovka","fclName":"city, village,...","countryName":"Belarus","fcodeName":"populated place","adminName1":"Mahilyowskaya Voblastsʼ","lat":"53.84694","fcode":"PPL"},{"adminCode1":"02","lng":"31.2672","geonameId":629169,"toponymName":"Antonovka","countryId":"630336","fcl":"P","population":0,"countryCode":"BY","name":"Antonovka","fclName":"city, village,...","countryName":"Belarus","fcodeName":"populated place","adminName1":"Gomel","lat":"52.8814","fcode":"PPL"},{"adminCode1":"06","lng":"30.8954","geonameId":630550,"toponymName":"Antonawka","countryId":"630336","fcl":"P","population":0,"countryCode":"BY","name":"Antonawka","fclName":"city, village,...","countryName":"Belarus","fcodeName":"populated place","adminName1":"Mahilyowskaya Voblastsʼ","lat":"53.7454","fcode":"PPL"},{"adminCode1":"07","lng":"30.4326","geonameId":8281016,"toponymName":"Antonawka","countryId":"630336","fcl":"P","population":0,"countryCode":"BY","name":"Antonawka","fclName":"city, village,...","countryName":"Belarus","fcodeName":"populated place","adminName1":"Vitsyebskaya Voblastsʼ","lat":"54.4036","fcode":"PPL"}]}