{"totalResultsCount":132,"geonames":[{"countryId":"2017370","adminCode1":"59","countryName":"Russia","fclName":"city, village,...","countryCode":"RU","lng":"133.33407","fcodeName":"populated place","toponymName":"Antonovka","fcl":"P","name":"Antonovka","fcode":"PPL","geonameId":2027609,"lat":"44.91202","adminName1":"Primorskiy","population":0},{"countryId":"2017370","adminCode1":"53","countryName":"Russia","fclName":"city, village,...","countryCode":"RU","lng":"82.3007","fcodeName":"populated place","toponymName":"Antonovka","fcl":"P","name":"Antonovka","fcode":"PPL","geonameId":1511530,"lat":"54.8284","adminName1":"Novosibirsk","population":0},{"countryId":"2017370","adminCode1":"10","countryName":"Russia","fclName":"city, village,...","countryCode":"RU","lng":"31.7801","fcodeName":"populated place","toponymName":"Antonovka","fcl":"P","name":"Antonovka","fcode":"PPL","geonameId":581504,"lat":"53.1068","adminName1":"Brjansk","population":0},{"countryId":"2017370","adminCode1":"08","countryName":"Russia","fclName":"city, village,...","countryCode":"RU","lng":"55.73333","fcodeName":"populated place","toponymName":"Antonovka","fcl":"P","name":"Antonovka","fcode":"PPL","geonameId":581505,"lat":"52.9","adminName1":"Bashkortostan","population":0},{"countryId":"2017370","adminCode1":"65","countryName":"Russia","fclName":"city, village,...","countryCode":"RU","lng":"51.236","fcodeName":"populated place","toponymName":"Antonovka","fcl":"P","name":"Antonovka","fcode":"PPL","geonameId":581506,"lat":"52.67","adminName1":"Samara","population":0},{"countryId":"2017370","adminCode1":"67","countryName":"Russia","fclName":"city, village,...","countryCode":"RU","lng":"48.3804","fcodeName":"populated place","toponymName":"Antonovka","fcl":"P","name":"Antonovka","fcode":"PPL","geonameId":581507,"lat":"51.3803","adminName1":"Saratov","population":0},{"countryId":"2017370","adminCode1":"67","countryName":"Russia","fclName":"city, village,...","countryCode":"RU","lng":"48.8004","fcodeName":"populated place","toponymName":"Antonovka","fcl":"P","name":"Antonovka","fcode":"PPL","geonameId":581508,"lat":"51.3197","adminName1":"Saratov","population":0},{"countryId":"2017370","adminCode1":"63","countryName":"Russia","fclName":"city, village,...","countryCode":"RU","lng":"118.41667","fcodeName":"populated place","toponymName":"Antonovka","fcl":"P","name":"Antonovka","fcode":"PPL","geonameId":2027604,"lat":"63.25","adminName1":"Sakha","population":0},{"countryId":"2017370","adminCode1":"53","countryName":"Russia","fclName":"city, village,...","countryCode":"RU","lng":"77.01552","fcodeName":"populated place","toponymName":"Antonovka","fcl":"P","name":"Antonovka","fcode":"PPL","geonameId":1511521,"lat":"53.98618","adminName1":"Novosibirsk","population":0},{"countryId":"2017370","adminCode1":"71","countryName":"Russia","fclName":"city, village,...","countryCode":"RU","lng":"64.36351","fcodeName":"populated place","toponymName":"Antonovka","fcl":"P","name":"Antonovka","fcode":"PPL","geonameId":1511525,"lat":"58.54258","adminName1":"Sverdlovsk","population":0},{"countryId":"2017370","adminCode1":"54","countryName":"Russia","fclName":"city, village,...","countryCode":"RU","lng":"74.95592","fcodeName":"populated place","toponymName":"Antonovka","fcl":"P","name":"Antonovka","fcode":"PPL","geonameId":1511529,"lat":"55.34702","adminName1":"Omsk","population":0},{"countryId":"2017370","adminCode1":"73","countryName":"Russia","fclName":"city, village,...","countryCode":"RU","lng":"49.5","fcodeName":"populated place","toponymName":"Antonovka","fcl":"P","name":"Antonovka","fcode":"PPL","geonameId":581493,"lat":"54.9","adminName1":"Tatarstan","population":0},{"countryId":"2017370","adminCode1":"08","countryName":"Russia","fclName":"city, village,...","countryCode":"RU","lng":"56.28251","fcodeName":"populated place","toponymName":"Antonovka","fcl":"P","name":"Antonovka","fcode":"PPL","geonameId":581498,"lat":"53.99387","adminName1":"Bashkortostan","population":0},{"countryId":"2017370","adminCode1":"65","countryName":"Russia","fclName":"city, village,...","countryCode":"RU","lng":"51.61386","fcodeName":"populated place","toponymName":"Antonovka","fcl":"P","name":"Antonovka","fcode":"PPL","geonameId":581500,"lat":"53.57236","adminName1":"Samara","population":0},{"countryId":"2017370","adminCode1":"59","countryName":"Russia","fclName":"city, village,...","countryCode":"RU","lng":"134.43629","fcodeName":"populated place","toponymName":"Antonovka","fcl":"P","name":"Antonovka","fcode":"PPL","geonameId":2027610,"lat":"44.36594","adminName1":"Primorskiy","population":0},{"countryId":"690791","adminCode1":"04","countryName":"Ukraine","fclName":"city, village,...","countryCode":"UA","lng":"35.02213","fcodeName":"populated place","toponymName":"Antonovka","fcl":"P","name":"Antonovka","fcode":"PPL","geonameId":713292,"lat":"48.29355","adminName1":"Dnipropetrovsk","population":0},{"countryId":"2017370","adminCode1":"05","countryName":"Russia","fclName":"city, village,...","countryCode":"RU","lng":"128.5718","fcodeName":"populated place","toponymName":"Antonovka","fcl":"P","name":"Antonovka","fcode":"PPL","geonameId":2027605,"lat":"51.47788","adminName1":"Amur","population":0},{"countryId":"2017370","adminCode1":"05","countryName":"Russia","fclName":"city, village,...","countryCode":"RU","lng":"129.94246","fcodeName":"populated place","toponymName":"Antonovka","fcl":"P","name":"Antonovka","fcode":"PPL","geonameId":2027607,"lat":"49.4293","adminName1":"Amur","population":0},{"countryId":"2017370","adminCode1":"91","countryName":"Russia","fclName":"city, village,...","countryCode":"RU","lng":"91.71726","fcodeName":"populated place","toponymName":"Antonovka","fcl":"P","name":"Antonovka","fcode":"PPL","geonameId":1511528,"lat":"56.17198","adminName1":"Krasnoyarskiy","population":0},{"countryId":"2017370","adminCode1":"29","countryName":"Russia","fclName":"city, village,...","countryCode":"RU","lng":"86.6656","fcodeName":"populated place","toponymName":"Antonovka","fcl":"P","name":"Antonovka","fcode":"PPL","geonameId":1511531,"lat":"54.2496","adminName1":"Kemerovo","population":0},{"countryId":"2017370","adminCode1":"42","countryName":"Russia","fclName":"city, village,...","countryCode":"RU","lng":"35.35","fcodeName":"populated place","toponymName":"Antonovka","fcl":"P","name":"Antonovka","fcode":"PPL","geonameId":581489,"lat":"59.6","adminName1":"Leningrad","population":0},{"countryId":"2017370","adminCode1":"16","countryName":"Russia","fclName":"city, village,...","countryCode":"RU","lng":"46.88818","fcodeName":"populated place","toponymName":"Antonovka","fcl":"P","name":"Antonovka","fcode":"PPL","geonameId":581490,"lat":"55.79728","adminName1":"Chuvashia","population":0},{"countryId":"2017370","adminCode1":"73","countryName":"Russia","fclName":"city, village,...","countryCode":"RU","lng":"49.1453","fcodeName":"populated place","toponymName":"Antonovka","fcl":"P","name":"Antonovka","fcode":"PPL","geonameId":581491,"lat":"55.3139","adminName1":"Tatarstan","population":0},{"countryId":"2017370","adminCode1":"46","countryName":"Russia","fclName":"city, village,...","countryCode":"RU","lng":"46.26741","fcodeName":"populated place","toponymName":"Antonovka","fcl":"P","name":"Antonovka","fcode":"PPL","geonameId":581495,"lat":"54.50876","adminName1":"Mordoviya","population":0},{"countryId":"2017370","adminCode1":"08","countryName":"Russia","fclName":"city, village,...","countryCode":"RU","lng":"56.2003","fcodeName":"populated place","toponymName":"Antonovka","fcl":"P","name":"Antonovka","fcode":"PPL","geonameId":581496,"lat":"54.2801","adminName1":"Bashkortostan","population":0},{"countryId":"2017370","adminCode1":"09","countryName":"Russia","fclName":"city, village,...","countryCode":"RU","lng":"35.7605","fcodeName":"populated place","toponymName":"Antonovka","fcl":"P","name":"Antonovka","fcode":"PPL","geonameId":581509,"lat":"50.5503","adminName1":"Belgorod","population":0},{"countryId":"2017370","adminCode1":"05","countryName":"Russia","fclName":"city, village,...","countryCode":"RU","lng":"129.3697","fcodeName":"populated place","toponymName":"Antonovka","fcl":"P","name":"Antonovka","fcode":"PPL","geonameId":2027606,"lat":"49.86466","adminName1":"Amur","population":0},{"countryId":"2017370","adminCode1":"25","countryName":"Russia","fclName":"city, village,...","countryCode":"RU","lng":"37.06012","fcodeName":"populated place","toponymName":"Antonovka","fcl":"P","name":"Antonovka","fcode":"PPL","geonameId":581494,"lat":"54.66698","adminName1":"Kaluga","population":0},{"countryId":"2017370","adminCode1":"59","countryName":"Russia","fclName":"city, village,...","countryCode":"RU","lng":"138.49474","fcodeName":"populated place","toponymName":"Antonovka","fcl":"P","name":"Antonovka","fcode":"PPL","geonameId":2027608,"lat":"47.25118","adminName1":"Primorskiy","population":0},{"countryId":"1522867","adminCode1":"16","countryName":"Kazakhstan","fclName":"city, village,...","countryCode":"KZ","lng":"68.43644","fcodeName":"populated place","toponymName":"Antonovka","fcl":"P","name":"Antonovka","fcode":"PPL","geonameId":1526282,"lat":"53.31643","adminName1":"Soltüstik Qazaqstan","population":0},{"countryId":"2017370","adminCode1":"29","countryName":"Russia","fclName":"city, village,...","countryCode":"RU","lng":"86.25952","fcodeName":"populated place","toponymName":"Antonovka","fcl":"P","name":"Antonovka","fcode":"PPL","geonameId":1511523,"lat":"56.10796","adminName1":"Kemerovo","population":0},{"countryId":"2017370","adminCode1":"71","countryName":"Russia","fclName":"city, village,...","countryCode":"RU","lng":"61.08333","fcodeName":"populated place","toponymName":"Antonovka","fcl":"P","name":"Antonovka","fcode":"PPL","geonameId":1511524,"lat":"59.18333","adminName1":"Sverdlovsk","population":0},{"countryId":"2017370","adminCode1":"71","countryName":"Russia","fclName":"city, village,...","countryCode":"RU","lng":"63.741","fcodeName":"populated place","toponymName":"Antonovka","fcl":"P","name":"Antonovka","fcode":"PPL","geonameId":1511526,"lat":"58.06216","adminName1":"Sverdlovsk","population":0},{"countryId":"2017370","adminCode1":"71","countryName":"Russia","fclName":"city, village,...","countryCode":"RU","lng":"61.16667","fcodeName":"populated place","toponymName":"Antonovka","fcl":"P","name":"Antonovka","fcode":"PPL","geonameId":1511527,"lat":"57.41667","adminName1":"Sverdlovsk","population":0},{"countryId":"690791","adminCode1":"01","countryName":"Ukraine","fclName":"city, village,...","countryCode":"UA","lng":"30.07466","fcodeName":"populated place","toponymName":"Antonovka","fcl":"P","name":"Antonovka","fcode":"PPL","geonameId":713289,"lat":"48.53429","adminName1":"Cherkasy","population":0},{"countryId":"2017370","adminCode1":"08","countryName":"Russia","fclName":"city, village,...","countryCode":"RU","lng":"56.43333","fcodeName":"populated place","toponymName":"Antonovka","fcl":"P","name":"Antonovka","fcode":"PPL","geonameId":581492,"lat":"55.08333","adminName1":"Bashkortostan","population":0},{"countryId":"2017370","adminCode1":"69","countryName":"Russia","fclName":"city, village,...","countryCode":"RU","lng":"33.23953","fcodeName":"populated place","toponymName":"Antonovka","fcl":"P","name":"Antonovka","fcode":"PPL","geonameId":581497,"lat":"54.15853","adminName1":"Smolensk","population":0},{"countryId":"2017370","adminCode1":"08","countryName":"Russia","fclName":"city, village,...","countryCode":"RU","lng":"54.3364","fcodeName":"populated place","toponymName":"Antonovka","fcl":"P","name":"Antonovka","fcode":"PPL","geonameId":581499,"lat":"53.5911","adminName1":"Bashkortostan","population":0},{"countryId":"2017370","adminCode1":"10","countryName":"Russia","fclName":"city, village,...","countryCode":"RU","lng":"33.45639","fcodeName":"populated place","toponymName":"Antonovka","fcl":"P","name":"Antonovka","fcode":"PPL","geonameId":581501,"lat":"53.43778","adminName1":"Brjansk","population":0},{"countryId":"2017370","adminCode1":"08","countryName":"Russia","fclName":"city, village,...","countryCode":"RU","lng":"54.33333","fcodeName":"populated place","toponymName":"Antonovka","fcl":"P","name":"Antonovka","fcode":"PPL","geonameId":581502,"lat":"53.4","adminName1":"Bashkortostan","population":0},{"countryId":"2017370","adminCode1":"10","countryName":"Russia","fclName":"city, village,...","countryCode":"RU","lng":"34.27554","fcodeName":"populated place","toponymName":"Antonovka","fcl":"P","name":"Antonovka","fcode":"PPL","geonameId":581503,"lat":"53.21737","adminName1":"Brjansk","population":0},{"countryId":"2017370","adminCode1":"61","countryName":"Russia","fclName":"city, village,...","countryCode":"RU","lng":"40.71056","fcodeName":"populated place","toponymName":"Antonovka","fcl":"P","name":"Antonovka","fcode":"PPL","geonameId":581510,"lat":"48.79554","adminName1":"Rostov","population":0},{"countryId":"2017370","adminCode1":"61","countryName":"Russia","fclName":"city, village,...","countryCode":"RU","lng":"41.35534","fcodeName":"populated place","toponymName":"Antonovka","fcl":"P","name":"Antonovka","fcode":"PPL","geonameId":581511,"lat":"48.64112","adminName1":"Rostov","population":0},{"countryId":"2017370","adminCode1":"10","countryName":"Russia","fclName":"city, village,...","countryCode":"RU","lng":"34.27944","fcodeName":"populated place","toponymName":"Antonovka","fcl":"P","name":"Antonovka","fcode":"PPL","geonameId":815903,"lat":"53.35444","adminName1":"Brjansk","population":0},{"countryId":"2017370","adminCode1":"72","countryName":"Russia","fclName":"city, village,...","countryCode":"RU","lng":"41.73682","fcodeName":"populated place","toponymName":"Antonovka","fcl":"P","name":"Antonovka","fcode":"PPL","geonameId":808522,"lat":"51.85153","adminName1":"Tambov","population":0},{"countryId":"2017370","adminCode1":"65","countryName":"Russia","fclName":"city, village,...","countryCode":"RU","lng":"51.3265","fcodeName":"populated place","toponymName":"Antonovka","fcl":"P","name":"Antonovka","fcode":"PPL","geonameId":7590548,"lat":"53.9529","adminName1":"Samara","population":0},{"countryId":"690791","adminCode1":"02","countryName":"Ukraine","fclName":"city, village,...","countryCode":"UA","lng":"32.53519","fcodeName":"populated place","toponymName":"Antonivka","fcl":"P","name":"Antonovka","fcode":"PPL","geonameId":713277,"lat":"50.38309","adminName1":"Chernihiv","population":0},{"countryId":"2017370","adminCode1":"55","countryName":"Russia","fclName":"city, village,...","countryCode":"RU","lng":"52.70741","fcodeName":"populated place","toponymName":"Pavlo-Antonovka","fcl":"P","name":"Pavlo-Antonovka","fcode":"PPL","geonameId":512221,"lat":"52.40372","adminName1":"Orenburg","population":0},{"countryId":"630336","adminCode1":"02","countryName":"Belarus","fclName":"city, village,...","countryCode":"BY","lng":"30.1476","fcodeName":"populated place","toponymName":"Antonovka","fcl":"P","name":"Antonovka","fcode":"PPL","geonameId":630553,"lat":"52.9817","adminName1":"Gomel","population":0},{"countryId":"630336","adminCode1":"02","countryName":"Belarus","fclName":"city, village,...","countryCode":"BY","lng":"29.7994","fcodeName":"populated place","toponymName":"Antonovka","fcl":"P","name":"Antonovka","fcode":"PPL","geonameId":630554,"lat":"52.7272","adminName1":"Gomel","population":0},{"countryId":"630336","adminCode1":"02","countryName":"Belarus","fclName":"city, village,...","countryCode":"BY","lng":"29.2838","fcodeName":"populated place","toponymName":"Antonovka","fcl":"P","name":"Antonovka","fcode":"PPL","geonameId":630556,"lat":"52.1644","adminName1":"Gomel","population":0},{"countryId":"630336","adminCode1":"02","countryName":"Belarus","fclName":"city, village,...","countryCode":"BY","lng":"29.139","fcodeName":"populated place","toponymName":"Antonovka","fcl":"P","name":"Antonovka","fcode":"PPL","geonameId":630557,"lat":"51.9354","adminName1":"Gomel","population":0},{"countryId":"630336","adminCode1":"02","countryName":"Belarus","fclName":"city, village,...","countryCode":"BY","lng":"30.6597","fcodeName":"populated place","toponymName":"Antonovka","fcl":"P","name":"Antonovka","fcode":"PPL","geonameId":815016,"lat":"52.9173","adminName1":"Gomel","population":0},{"countryId":"630336","adminCode1":"06","countryName":"Belarus","fclName":"city, village,...","countryCode":"BY","lng":"30.639","fcodeName":"populated place","toponymName":"Antonovka","fcl":"P","name":"Antonovka","fcode":"PPL","geonameId":815387,"lat":"53.8124","adminName1":"Mahilyowskaya Voblastsʼ","population":0},{"countryId":"630336","adminCode1":"06","countryName":"Belarus","fclName":"city, village,...","countryCode":"BY","lng":"29.2107","fcodeName":"populated place","toponymName":"Antonovka","fcl":"P","name":"Antonovka","fcode":"PPL","geonameId":8148795,"lat":"53.2193","adminName1":"Mahilyowskaya Voblastsʼ","population":0},{"countryId":"630336","adminCode1":"03","countryName":"Belarus","fclName":"city, village,...","countryCode":"BY","lng":"25.9587","fcodeName":"populated place","toponymName":"Antonovka","fcl":"P","name":"Antonovka","fcode":"PPL","geonameId":7930785,"lat":"53.7071","adminName1":"Grodnenskaya","population":0},{"countryId":"630336","adminCode1":"05","countryName":"Belarus","fclName":"city, village,...","countryCode":"BY","lng":"27.7295","fcodeName":"populated place","toponymName":"Antonovka","fcl":"P","name":"Antonovka","fcode":"PPL","geonameId":8247112,"lat":"54.3011","adminName1":"Minskaja Voblasts’","population":0},{"countryId":"630336","adminCode1":"07","countryName":"Belarus","fclName":"city, village,...","countryCode":"BY","lng":"28.5561","fcodeName":"populated place","toponymName":"Antonovka","fcl":"P","name":"Antonovka","fcode":"PPL","geonameId":8222525,"lat":"54.9524","adminName1":"Vitsyebskaya Voblastsʼ","population":0},{"countryId":"2017370","adminCode1":"51","countryName":"Russia","fclName":"city, village,...","countryCode":"RU","lng":"42.5831","fcodeName":"populated place","toponymName":"Antonovka","fcl":"P","name":"Antonovka","fcode":"PPL","geonameId":7751052,"lat":"54.8159","adminName1":"Nizjnij Novgorod","population":0},{"countryId":"2017370","adminCode1":"56","countryName":"Russia","fclName":"city, village,...","countryCode":"RU","lng":"35.8028","fcodeName":"populated place","toponymName":"Antonovka","fcl":"P","name":"Antonovka","fcode":"PPL","geonameId":7687264,"lat":"52.4994","adminName1":"Orjol","population":0},{"countryId":"630336","adminCode1":"06","countryName":"Belarus","fclName":"city, village,...","countryCode":"BY","lng":"32.0222","fcodeName":"populated place","toponymName":"Antonovka","fcl":"P","name":"Antonovka","fcode":"PPL","geonameId":630551,"lat":"53.4463","adminName1":"Mahilyowskaya Voblastsʼ","population":0},{"countryId":"630336","adminCode1":"06","countryName":"Belarus","fclName":"city, village,...","countryCode":"BY","lng":"31.6581","fcodeName":"populated place","toponymName":"Antonovka","fcl":"P","name":"Antonovka","fcode":"PPL","geonameId":630552,"lat":"53.4065","adminName1":"Mahilyowskaya Voblastsʼ","population":0},{"countryId":"630336","adminCode1":"02","countryName":"Belarus","fclName":"city, village,...","countryCode":"BY","lng":"31.2327","fcodeName":"populated place","toponymName":"Antonovka","fcl":"P","name":"Antonovka","fcode":"PPL","geonameId":630555,"lat":"52.2431","adminName1":"Gomel","population":0},{"countryId":"630336","adminCode1":"07","countryName":"Belarus","fclName":"city, village,...","countryCode":"BY","lng":"30.9018","fcodeName":"populated place","toponymName":"Antonovka","fcl":"P","name":"Antonovka","fcode":"PPL","geonameId":8331277,"lat":"55.4538","adminName1":"Vitsyebskaya Voblastsʼ","population":0},{"countryId":"690791","adminCode1":"19","countryName":"Ukraine","fclName":"city, village,...","countryCode":"UA","lng":"26.5","fcodeName":"populated place","toponymName":"Antonovka","fcl":"P","name":"Antonovka","fcode":"PPL","geonameId":713276,"lat":"50.8","adminName1":"Rivne","population":0},{"countryId":"1522867","adminCode1":"03","countryName":"Kazakhstan","fclName":"city, village,...","countryCode":"KZ","lng":"71.7081","fcodeName":"populated place","toponymName":"Antonovka","fcl":"P","name":"Antonovka","fcode":"PPL","geonameId":1526284,"lat":"51.5802","adminName1":"Aqmola","population":0},{"countryId":"690791","adminCode1":"16","countryName":"Ukraine","fclName":"city, village,...","countryCode":"UA","lng":"32.34283","fcodeName":"populated place","toponymName":"Antonovka","fcl":"P","name":"Antonovka","fcode":"PPL","geonameId":713297,"lat":"47.57606","adminName1":"Mykolaiv","population":0},{"countryId":"2017370","adminCode1":"61","countryName":"Russia","fclName":"city, village,...","countryCode":"RU","lng":"40.09917","fcodeName":"populated place","toponymName":"Novaya Antonovka","fcl":"P","name":"Novaya Antonovka","fcode":"PPL","geonameId":519815,"lat":"47.67611","adminName1":"Rostov","population":0},{"countryId":"1527747","adminCode1":"02","countryName":"Kyrgyzstan","fclName":"city, village,...","countryCode":"KG","lng":"74.44058","fcodeName":"populated place","toponymName":"Voyenno-Antonovka","fcl":"P","name":"Voyenno-Antonovka","fcode":"PPL","geonameId":1527030,"lat":"42.87378","adminName1":"Chüy","population":0},{"countryId":"1522867","adminCode1":"00","countryName":"Kazakhstan","fclName":"city, village,...","countryCode":"KZ","lng":"61.75379","fcodeName":"populated place","toponymName":"Antonovka","fcl":"P","name":"Antonovka","fcode":"PPL","geonameId":1526283,"lat":"52.46796","adminName1":"","population":0},{"countryId":"1522867","adminCode1":"10","countryName":"Kazakhstan","fclName":"city, village,...","countryCode":"KZ","lng":"69.96667","fcodeName":"populated place","toponymName":"Antonovka","fcl":"P","name":"Antonovka","fcode":"PPL","geonameId":1526286,"lat":"42.5","adminName1":"Ongtüstik Qazaqstan","population":0},{"countryId":"690791","adminCode1":"13","countryName":"Ukraine","fclName":"city, village,...","countryCode":"UA","lng":"30.68435","fcodeName":"populated place","toponymName":"Antonovka","fcl":"P","name":"Antonovka","fcode":"PPL","geonameId":713278,"lat":"49.9755","adminName1":"Kiev","population":0},{"countryId":"690791","adminCode1":"13","countryName":"Ukraine","fclName":"city, village,...","countryCode":"UA","lng":"30.38333","fcodeName":"populated place","toponymName":"Antonovka","fcl":"P","name":"Antonovka","fcode":"PPL","geonameId":713279,"lat":"49.85","adminName1":"Kiev","population":0},{"countryId":"690791","adminCode1":"09","countryName":"Ukraine","fclName":"city, village,...","countryCode":"UA","lng":"26.78412","fcodeName":"populated place","toponymName":"Antonovka","fcl":"P","name":"Antonovka","fcode":"PPL","geonameId":713280,"lat":"49.5308","adminName1":"Khmelnytskyi","population":0},{"countryId":"690791","adminCode1":"13","countryName":"Ukraine","fclName":"city, village,...","countryCode":"UA","lng":"30.264","fcodeName":"populated place","toponymName":"Antonovka","fcl":"P","name":"Antonovka","fcode":"PPL","geonameId":713282,"lat":"49.39143","adminName1":"Kiev","population":0},{"countryId":"690791","adminCode1":"07","countryName":"Ukraine","fclName":"city, village,...","countryCode":"UA","lng":"35.79792","fcodeName":"populated place","toponymName":"Antonovka","fcl":"P","name":"Antonovka","fcode":"PPL","geonameId":713283,"lat":"49.32766","adminName1":"Kharkiv","population":0},{"countryId":"690791","adminCode1":"09","countryName":"Ukraine","fclName":"city, village,...","countryCode":"UA","lng":"26.51509","fcodeName":"populated place","toponymName":"Antonovka","fcl":"P","name":"Antonovka","fcode":"PPL","geonameId":713284,"lat":"48.94634","adminName1":"Khmelnytskyi","population":0},{"countryId":"690791","adminCode1":"09","countryName":"Ukraine","fclName":"city, village,...","countryCode":"UA","lng":"27.13304","fcodeName":"populated place","toponymName":"Antonovka","fcl":"P","name":"Antonovka","fcode":"PPL","geonameId":713285,"lat":"48.83881","adminName1":"Khmelnytskyi","population":0},{"countryId":"690791","adminCode1":"23","countryName":"Ukraine","fclName":"city, village,...","countryCode":"UA","lng":"29.50341","fcodeName":"populated place","toponymName":"Antonovka","fcl":"P","name":"Antonovka","fcode":"PPL","geonameId":713286,"lat":"48.64362","adminName1":"Vinnyts'ka","population":0},{"countryId":"690791","adminCode1":"10","countryName":"Ukraine","fclName":"city, village,...","countryCode":"UA","lng":"32.41667","fcodeName":"populated place","toponymName":"Antonovka","fcl":"P","name":"Antonovka","fcode":"PPL","geonameId":713288,"lat":"48.53333","adminName1":"Kirovohrad","population":0},{"countryId":"690791","adminCode1":"10","countryName":"Ukraine","fclName":"city, village,...","countryCode":"UA","lng":"30.9","fcodeName":"populated place","toponymName":"Antonovka","fcl":"P","name":"Antonovka","fcode":"PPL","geonameId":713291,"lat":"48.48333","adminName1":"Kirovohrad","population":0},{"countryId":"690791","adminCode1":"26","countryName":"Ukraine","fclName":"city, village,...","countryCode":"UA","lng":"35.68071","fcodeName":"populated place","toponymName":"Antonovka","fcl":"P","name":"Antonovka","fcode":"PPL","geonameId":713293,"lat":"47.96965","adminName1":"Zaporizhia","population":0},{"countryId":"690791","adminCode1":"17","countryName":"Ukraine","fclName":"city, village,...","countryCode":"UA","lng":"30.26755","fcodeName":"populated place","toponymName":"Antonovka","fcl":"P","name":"Antonovka","fcode":"PPL","geonameId":713294,"lat":"47.9122","adminName1":"Odessa","population":0},{"countryId":"690791","adminCode1":"05","countryName":"Ukraine","fclName":"city, village,...","countryCode":"UA","lng":"37.35702","fcodeName":"populated place","toponymName":"Antonovka","fcl":"P","name":"Antonovka","fcode":"PPL","geonameId":713295,"lat":"47.8815","adminName1":"Donetsk","population":0},{"countryId":"690791","adminCode1":"16","countryName":"Ukraine","fclName":"city, village,...","countryCode":"UA","lng":"32.09068","fcodeName":"populated place","toponymName":"Antonovka","fcl":"P","name":"Antonovka","fcode":"PPL","geonameId":713299,"lat":"47.52394","adminName1":"Mykolaiv","population":0},{"countryId":"690791","adminCode1":"17","countryName":"Ukraine","fclName":"city, village,...","countryCode":"UA","lng":"30.48215","fcodeName":"populated place","toponymName":"Antonovka","fcl":"P","name":"Antonovka","fcode":"PPL","geonameId":713300,"lat":"47.27813","adminName1":"Odessa","population":0},{"countryId":"690791","adminCode1":"08","countryName":"Ukraine","fclName":"city, village,...","countryCode":"UA","lng":"33.63333","fcodeName":"populated place","toponymName":"Antonovka","fcl":"P","name":"Antonovka","fcode":"PPL","geonameId":713302,"lat":"46.86667","adminName1":"Kherson","population":0},{"countryId":"690791","adminCode1":"08","countryName":"Ukraine","fclName":"city, village,...","countryCode":"UA","lng":"33.83034","fcodeName":"populated place","toponymName":"Antonovka","fcl":"P","name":"Antonovka","fcode":"PPL","geonameId":713303,"lat":"46.78128","adminName1":"Kherson","population":0},{"countryId":"690791","adminCode1":"08","countryName":"Ukraine","fclName":"city, village,...","countryCode":"UA","lng":"32.73274","fcodeName":"populated place","toponymName":"Antonovka","fcl":"P","name":"Antonovka","fcode":"PPL","geonameId":713304,"lat":"46.67885","adminName1":"Kherson","population":0},{"countryId":"690791","adminCode1":"08","countryName":"Ukraine","fclName":"city, village,...","countryCode":"UA","lng":"34.35","fcodeName":"populated place","toponymName":"Antonovka","fcl":"P","name":"Antonovka","fcode":"PPL","geonameId":713305,"lat":"46.6","adminName1":"Kherson","population":0},{"countryId":"690791","adminCode1":"08","countryName":"Ukraine","fclName":"city, village,...","countryCode":"UA","lng":"33.3","fcodeName":"populated place","toponymName":"Antonovka","fcl":"P","name":"Antonovka","fcode":"PPL","geonameId":713306,"lat":"46.16667","adminName1":"Kherson","population":0},{"countryId":"630336","adminCode1":"06","countryName":"Belarus","fclName":"city, village,...","countryCode":"BY","lng":"31.52139","fcodeName":"populated place","toponymName":"Antonovka","fcl":"P","name":"Antonovka","fcode":"PPL","geonameId":815587,"lat":"53.84694","adminName1":"Mahilyowskaya Voblastsʼ","population":0},{"countryId":"2017370","adminCode1":"76","countryName":"Russia","fclName":"city, village,...","countryCode":"RU","lng":"37.24359","fcodeName":"populated place","toponymName":"Antonovka","fcl":"P","name":"Antonovka","fcode":"PPL","geonameId":6714654,"lat":"54.67903","adminName1":"Tula","population":0},{"countryId":"630336","adminCode1":"02","countryName":"Belarus","fclName":"city, village,...","countryCode":"BY","lng":"31.2672","fcodeName":"populated place","toponymName":"Antonovka","fcl":"P","name":"Antonovka","fcode":"PPL","geonameId":629169,"lat":"52.8814","adminName1":"Gomel","population":0},{"countryId":"2017370","adminCode1":"67","countryName":"Russia","fclName":"city, village,...","countryCode":"RU","lng":"46.94509","fcodeName":"populated place","toponymName":"Novo-Antonovka","fcl":"P","name":"Novo-Antonovka","fcode":"PPL","geonameId":519060,"lat":"51.26065","adminName1":"Saratov","population":0},{"countryId":"690791","adminCode1":"09","countryName":"Ukraine","fclName":"city, village,...","countryCode":"UA","lng":"27.7173","fcodeName":"populated place","toponymName":"Antonivka","fcl":"P","name":"Antonivka","fcode":"PPL","geonameId":713281,"lat":"49.45367","adminName1":"Khmelnytskyi","population":130},{"countryId":"690791","adminCode1":"16","countryName":"Ukraine","fclName":"city, village,...","countryCode":"UA","lng":"32.44104","fcodeName":"populated place","toponymName":"Novo-Antonovka","fcl":"P","name":"Novo-Antonovka","fcode":"PPL","geonameId":699684,"lat":"47.76642","adminName1":"Mykolaiv","population":0},{"countryId":"690791","adminCode1":"26","countryName":"Ukraine","fclName":"city, village,...","countryCode":"UA","lng":"36.91667","fcodeName":"populated place","toponymName":"Novo-Antonovka","fcl":"P","name":"Novo-Antonovka","fcode":"PPL","geonameId":699685,"lat":"47.5","adminName1":"Zaporizhia","population":0},{"countryId":"2017370","adminCode1":"61","countryName":"Russia","fclName":"city, village,...","countryCode":"RU","lng":"40.21806","fcodeName":"populated place","toponymName":"Novo-Antonovka","fcl":"P","name":"Novo-Antonovka","fcode":"PPL","geonameId":802007,"lat":"47.67472","adminName1":"Rostov","population":0},{"countryId":"1522867","adminCode1":"07","countryName":"Kazakhstan","fclName":"city, village,...","countryCode":"KZ","lng":"51.76583","fcodeName":"populated place","toponymName":"Antonovo","fcl":"P","name":"Antonovo","fcode":"PPL","geonameId":610616,"lat":"49.37806","adminName1":"Batys Qazaqstan","population":0}]}