{"totalResultsCount":159,"geonames":[{"adminCode1":"08","lng":"56.28251","geonameId":581498,"toponymName":"Antonovka","countryId":"2017370","fcl":"P","population":0,"countryCode":"RU","name":"Antonovka","fclName":"city, village,...","countryName":"Russia","fcodeName":"populated place","adminName1":"Bashkortostan","lat":"53.99387","fcode":"PPL"},{"adminCode1":"65","lng":"51.61386","geonameId":581500,"toponymName":"Antonovka","countryId":"2017370","fcl":"P","population":0,"countryCode":"RU","name":"Antonovka","fclName":"city, village,...","countryName":"Russia","fcodeName":"populated place","adminName1":"Samara","lat":"53.57236","fcode":"PPL"},{"adminCode1":"10","lng":"31.7801","geonameId":581504,"toponymName":"Antonovka","countryId":"2017370","fcl":"P","population":0,"countryCode":"RU","name":"Antonovka","fclName":"city, village,...","countryName":"Russia","fcodeName":"populated place","adminName1":"Brjansk","lat":"53.1068","fcode":"PPL"},{"adminCode1":"08","lng":"55.73333","geonameId":581505,"toponymName":"Antonovka","countryId":"2017370","fcl":"P","population":0,"countryCode":"RU","name":"Antonovka","fclName":"city, village,...","countryName":"Russia","fcodeName":"populated place","adminName1":"Bashkortostan","lat":"52.9","fcode":"PPL"},{"adminCode1":"67","lng":"48.3804","geonameId":581507,"toponymName":"Antonovka","countryId":"2017370","fcl":"P","population":0,"countryCode":"RU","name":"Antonovka","fclName":"city, village,...","countryName":"Russia","fcodeName":"populated place","adminName1":"Saratov","lat":"51.3803","fcode":"PPL"},{"adminCode1":"53","lng":"77.01552","geonameId":1511521,"toponymName":"Antonovka","countryId":"2017370","fcl":"P","population":0,"countryCode":"RU","name":"Antonovka","fclName":"city, village,...","countryName":"Russia","fcodeName":"populated place","adminName1":"Novosibirsk","lat":"53.98618","fcode":"PPL"},{"adminCode1":"53","lng":"82.3007","geonameId":1511530,"toponymName":"Antonovka","countryId":"2017370","fcl":"P","population":0,"countryCode":"RU","name":"Antonovka","fclName":"city, village,...","countryName":"Russia","fcodeName":"populated place","adminName1":"Novosibirsk","lat":"54.8284","fcode":"PPL"},{"adminCode1":"73","lng":"49.5","geonameId":581493,"toponymName":"Antonovka","countryId":"2017370","fcl":"P","population":0,"countryCode":"RU","name":"Antonovka","fclName":"city, village,...","countryName":"Russia","fcodeName":"populated place","adminName1":"Tatarstan","lat":"54.9","fcode":"PPL"},{"adminCode1":"65","lng":"51.236","geonameId":581506,"toponymName":"Antonovka","countryId":"2017370","fcl":"P","population":0,"countryCode":"RU","name":"Antonovka","fclName":"city, village,...","countryName":"Russia","fcodeName":"populated place","adminName1":"Samara","lat":"52.67","fcode":"PPL"},{"adminCode1":"67","lng":"48.8004","geonameId":581508,"toponymName":"Antonovka","countryId":"2017370","fcl":"P","population":0,"countryCode":"RU","name":"Antonovka","fclName":"city, village,...","countryName":"Russia","fcodeName":"populated place","adminName1":"Saratov","lat":"51.3197","fcode":"PPL"},{"adminCode1":"71","lng":"64.36351","geonameId":1511525,"toponymName":"Antonovka","countryId":"2017370","fcl":"P","population":0,"countryCode":"RU","name":"Antonovka","fclName":"city, village,...","countryName":"Russia","fcodeName":"populated place","adminName1":"Sverdlovsk","lat":"58.54257","fcode":"PPL"},{"adminCode1":"54","lng":"74.95592","geonameId":1511529,"toponymName":"Antonovka","countryId":"2017370","fcl":"P","population":0,"countryCode":"RU","name":"Antonovka","fclName":"city, village,...","countryName":"Russia","fcodeName":"populated place","adminName1":"Omsk","lat":"55.34702","fcode":"PPL"},{"adminCode1":"63","lng":"118.41667","geonameId":2027604,"toponymName":"Antonovka","countryId":"2017370","fcl":"P","population":0,"countryCode":"RU","name":"Antonovka","fclName":"city, village,...","countryName":"Russia","fcodeName":"populated place","adminName1":"Sakha","lat":"63.25","fcode":"PPL"},{"adminCode1":"04","lng":"35.02213","geonameId":713292,"toponymName":"Antonovka","countryId":"690791","fcl":"P","population":0,"countryCode":"UA","name":"Antonovka","fclName":"city, village,...","countryName":"Ukraine","fcodeName":"populated place","adminName1":"Dnipropetrovsk","lat":"48.29355","fcode":"PPL"},{"adminCode1":"59","lng":"133.33407","geonameId":2027609,"toponymName":"Antonovka","countryId":"2017370","fcl":"P","population":0,"countryCode":"RU","name":"Antonovka","fclName":"city, village,...","countryName":"Russia","fcodeName":"populated place","adminName1":"Primorskiy","lat":"44.91202","fcode":"PPL"},{"adminCode1":"59","lng":"134.43629","geonameId":2027610,"toponymName":"Antonovka","countryId":"2017370","fcl":"P","population":0,"countryCode":"RU","name":"Antonovka","fclName":"city, village,...","countryName":"Russia","fcodeName":"populated place","adminName1":"Primorskiy","lat":"44.36595","fcode":"PPL"},{"adminCode1":"73","lng":"49.1453","geonameId":581491,"toponymName":"Antonovka","countryId":"2017370","fcl":"P","population":0,"countryCode":"RU","name":"Antonovka","fclName":"city, village,...","countryName":"Russia","fcodeName":"populated place","adminName1":"Tatarstan","lat":"55.3139","fcode":"PPL"},{"adminCode1":"46","lng":"46.26741","geonameId":581495,"toponymName":"Antonovka","countryId":"2017370","fcl":"P","population":0,"countryCode":"RU","name":"Antonovka","fclName":"city, village,...","countryName":"Russia","fcodeName":"populated place","adminName1":"Mordoviya","lat":"54.50876","fcode":"PPL"},{"adminCode1":"08","lng":"56.2003","geonameId":581496,"toponymName":"Antonovka","countryId":"2017370","fcl":"P","population":0,"countryCode":"RU","name":"Antonovka","fclName":"city, village,...","countryName":"Russia","fcodeName":"populated place","adminName1":"Bashkortostan","lat":"54.2801","fcode":"PPL"},{"adminCode1":"08","lng":"54.3364","geonameId":581499,"toponymName":"Antonovka","countryId":"2017370","fcl":"P","population":0,"countryCode":"RU","name":"Antonovka","fclName":"city, village,...","countryName":"Russia","fcodeName":"populated place","adminName1":"Bashkortostan","lat":"53.5911","fcode":"PPL"},{"adminCode1":"71","lng":"63.741","geonameId":1511526,"toponymName":"Antonovka","countryId":"2017370","fcl":"P","population":0,"countryCode":"RU","name":"Antonovka","fclName":"city, village,...","countryName":"Russia","fcodeName":"populated place","adminName1":"Sverdlovsk","lat":"58.06216","fcode":"PPL"},{"adminCode1":"05","lng":"129.94246","geonameId":2027607,"toponymName":"Antonovka","countryId":"2017370","fcl":"P","population":0,"countryCode":"RU","name":"Antonovka","fclName":"city, village,...","countryName":"Russia","fcodeName":"populated place","adminName1":"Amur","lat":"49.4293","fcode":"PPL"},{"adminCode1":"23","lng":"20.78817","geonameId":825403,"toponymName":"Antonovka","countryId":"2017370","fcl":"P","population":0,"countryCode":"RU","name":"Antonovka","fclName":"city, village,...","countryName":"Russia","fcodeName":"populated place","adminName1":"Kaliningrad","lat":"54.79066","fcode":"PPL"},{"adminCode1":"10","lng":"34.27944","geonameId":815903,"toponymName":"Antonovka","countryId":"2017370","fcl":"P","population":0,"countryCode":"RU","name":"Antonovka","fclName":"city, village,...","countryName":"Russia","fcodeName":"populated place","adminName1":"Brjansk","lat":"53.35444","fcode":"PPL"},{"adminCode1":"72","lng":"41.73682","geonameId":808522,"toponymName":"Antonovka","countryId":"2017370","fcl":"P","population":0,"countryCode":"RU","name":"Antonovka","fclName":"city, village,...","countryName":"Russia","fcodeName":"populated place","adminName1":"Tambov","lat":"51.85153","fcode":"PPL"},{"adminCode1":"65","lng":"51.3265","geonameId":7590548,"toponymName":"Antonovka","countryId":"2017370","fcl":"P","population":0,"countryCode":"RU","name":"Antonovka","fclName":"city, village,...","countryName":"Russia","fcodeName":"populated place","adminName1":"Samara","lat":"53.9529","fcode":"PPL"},{"adminCode1":"25","lng":"37.06012","geonameId":581494,"toponymName":"Antonovka","countryId":"2017370","fcl":"P","population":0,"countryCode":"RU","name":"Antonovka","fclName":"city, village,...","countryName":"Russia","fcodeName":"populated place","adminName1":"Kaluga","lat":"54.66698","fcode":"PPL"},{"adminCode1":"29","lng":"86.6656","geonameId":1511531,"toponymName":"Antonovka","countryId":"2017370","fcl":"P","population":0,"countryCode":"RU","name":"Antonovka","fclName":"city, village,...","countryName":"Russia","fcodeName":"populated place","adminName1":"Kemerovo","lat":"54.2496","fcode":"PPL"},{"adminCode1":"05","lng":"129.3697","geonameId":2027606,"toponymName":"Antonovka","countryId":"2017370","fcl":"P","population":0,"countryCode":"RU","name":"Antonovka","fclName":"city, village,...","countryName":"Russia","fcodeName":"populated place","adminName1":"Amur","lat":"49.86466","fcode":"PPL"},{"adminCode1":"42","lng":"35.35","geonameId":581489,"toponymName":"Antonovka","countryId":"2017370","fcl":"P","population":0,"countryCode":"RU","name":"Antonovka","fclName":"city, village,...","countryName":"Russia","fcodeName":"populated place","adminName1":"Leningrad","lat":"59.6","fcode":"PPL"},{"adminCode1":"16","lng":"46.88818","geonameId":581490,"toponymName":"Antonovka","countryId":"2017370","fcl":"P","population":0,"countryCode":"RU","name":"Antonovka","fclName":"city, village,...","countryName":"Russia","fcodeName":"populated place","adminName1":"Chuvashia","lat":"55.79728","fcode":"PPL"},{"adminCode1":"08","lng":"56.43333","geonameId":581492,"toponymName":"Antonovka","countryId":"2017370","fcl":"P","population":0,"countryCode":"RU","name":"Antonovka","fclName":"city, village,...","countryName":"Russia","fcodeName":"populated place","adminName1":"Bashkortostan","lat":"55.08333","fcode":"PPL"},{"adminCode1":"69","lng":"33.23953","geonameId":581497,"toponymName":"Antonovka","countryId":"2017370","fcl":"P","population":0,"countryCode":"RU","name":"Antonovka","fclName":"city, village,...","countryName":"Russia","fcodeName":"populated place","adminName1":"Smolensk","lat":"54.15853","fcode":"PPL"},{"adminCode1":"10","lng":"33.45639","geonameId":581501,"toponymName":"Antonovka","countryId":"2017370","fcl":"P","population":0,"countryCode":"RU","name":"Antonovka","fclName":"city, village,...","countryName":"Russia","fcodeName":"populated place","adminName1":"Brjansk","lat":"53.43778","fcode":"PPL"},{"adminCode1":"08","lng":"54.33333","geonameId":581502,"toponymName":"Antonovka","countryId":"2017370","fcl":"P","population":0,"countryCode":"RU","name":"Antonovka","fclName":"city, village,...","countryName":"Russia","fcodeName":"populated place","adminName1":"Bashkortostan","lat":"53.4","fcode":"PPL"},{"adminCode1":"10","lng":"34.27554","geonameId":581503,"toponymName":"Antonovka","countryId":"2017370","fcl":"P","population":0,"countryCode":"RU","name":"Antonovka","fclName":"city, village,...","countryName":"Russia","fcodeName":"populated place","adminName1":"Brjansk","lat":"53.21737","fcode":"PPL"},{"adminCode1":"09","lng":"35.7605","geonameId":581509,"toponymName":"Antonovka","countryId":"2017370","fcl":"P","population":0,"countryCode":"RU","name":"Antonovka","fclName":"city, village,...","countryName":"Russia","fcodeName":"populated place","adminName1":"Belgorod","lat":"50.5503","fcode":"PPL"},{"adminCode1":"61","lng":"40.71056","geonameId":581510,"toponymName":"Antonovka","countryId":"2017370","fcl":"P","population":0,"countryCode":"RU","name":"Antonovka","fclName":"city, village,...","countryName":"Russia","fcodeName":"populated place","adminName1":"Rostovskaya Oblast","lat":"48.79554","fcode":"PPL"},{"adminCode1":"61","lng":"41.35534","geonameId":581511,"toponymName":"Antonovka","countryId":"2017370","fcl":"P","population":0,"countryCode":"RU","name":"Antonovka","fclName":"city, village,...","countryName":"Russia","fcodeName":"populated place","adminName1":"Rostovskaya Oblast","lat":"48.64112","fcode":"PPL"},{"adminCode1":"16","lng":"68.43644","geonameId":1526282,"toponymName":"Antonovka","countryId":"1522867","fcl":"P","population":0,"countryCode":"KZ","name":"Antonovka","fclName":"city, village,...","countryName":"Kazakhstan","fcodeName":"populated place","adminName1":"Soltüstik Qazaqstan","lat":"53.31643","fcode":"PPL"},{"adminCode1":"29","lng":"86.25952","geonameId":1511523,"toponymName":"Antonovka","countryId":"2017370","fcl":"P","population":0,"countryCode":"RU","name":"Antonovka","fclName":"city, village,...","countryName":"Russia","fcodeName":"populated place","adminName1":"Kemerovo","lat":"56.10796","fcode":"PPL"},{"adminCode1":"71","lng":"61.08333","geonameId":1511524,"toponymName":"Antonovka","countryId":"2017370","fcl":"P","population":0,"countryCode":"RU","name":"Antonovka","fclName":"city, village,...","countryName":"Russia","fcodeName":"populated place","adminName1":"Sverdlovsk","lat":"59.18333","fcode":"PPL"},{"adminCode1":"71","lng":"61.16667","geonameId":1511527,"toponymName":"Antonovka","countryId":"2017370","fcl":"P","population":0,"countryCode":"RU","name":"Antonovka","fclName":"city, village,...","countryName":"Russia","fcodeName":"populated place","adminName1":"Sverdlovsk","lat":"57.41667","fcode":"PPL"},{"adminCode1":"91","lng":"91.71726","geonameId":1511528,"toponymName":"Antonovka","countryId":"2017370","fcl":"P","population":0,"countryCode":"RU","name":"Antonovka","fclName":"city, village,...","countryName":"Russia","fcodeName":"populated place","adminName1":"Krasnoyarskiy","lat":"56.17198","fcode":"PPL"},{"adminCode1":"05","lng":"128.5718","geonameId":2027605,"toponymName":"Antonovka","countryId":"2017370","fcl":"P","population":0,"countryCode":"RU","name":"Antonovka","fclName":"city, village,...","countryName":"Russia","fcodeName":"populated place","adminName1":"Amur","lat":"51.47788","fcode":"PPL"},{"adminCode1":"59","lng":"138.49474","geonameId":2027608,"toponymName":"Antonovka","countryId":"2017370","fcl":"P","population":0,"countryCode":"RU","name":"Antonovka","fclName":"city, village,...","countryName":"Russia","fcodeName":"populated place","adminName1":"Primorskiy","lat":"47.25118","fcode":"PPL"},{"adminCode1":"23","lng":"22.04917","geonameId":826227,"toponymName":"Antonovka","countryId":"2017370","fcl":"P","population":0,"countryCode":"RU","name":"Antonovka","fclName":"city, village,...","countryName":"Russia","fcodeName":"populated place","adminName1":"Kaliningrad","lat":"54.34028","fcode":"PPL"},{"adminCode1":"01","lng":"30.07466","geonameId":713289,"toponymName":"Antonovka","countryId":"690791","fcl":"P","population":0,"countryCode":"UA","name":"Antonovka","fclName":"city, village,...","countryName":"Ukraine","fcodeName":"populated place","adminName1":"Cherkasy","lat":"48.53429","fcode":"PPL"},{"adminCode1":"06","lng":"32.0222","geonameId":630551,"toponymName":"Antonovka","countryId":"630336","fcl":"P","population":0,"countryCode":"BY","name":"Antonovka","fclName":"city, village,...","countryName":"Belarus","fcodeName":"populated place","adminName1":"Mahilyowskaya Voblastsʼ","lat":"53.4463","fcode":"PPL"},{"adminCode1":"02","lng":"30.1476","geonameId":630553,"toponymName":"Antonovka","countryId":"630336","fcl":"P","population":0,"countryCode":"BY","name":"Antonovka","fclName":"city, village,...","countryName":"Belarus","fcodeName":"populated place","adminName1":"Gomel Region","lat":"52.9817","fcode":"PPL"},{"adminCode1":"02","lng":"31.2327","geonameId":630555,"toponymName":"Antonovka","countryId":"630336","fcl":"P","population":0,"countryCode":"BY","name":"Antonovka","fclName":"city, village,...","countryName":"Belarus","fcodeName":"populated place","adminName1":"Gomel Region","lat":"52.2431","fcode":"PPL"},{"adminCode1":"02","lng":"30.6597","geonameId":815016,"toponymName":"Antonovka","countryId":"630336","fcl":"P","population":0,"countryCode":"BY","name":"Antonovka","fclName":"city, village,...","countryName":"Belarus","fcodeName":"populated place","adminName1":"Gomel Region","lat":"52.9173","fcode":"PPL"},{"adminCode1":"03","lng":"25.9587","geonameId":7930785,"toponymName":"Antonovka","countryId":"630336","fcl":"P","population":0,"countryCode":"BY","name":"Antonovka","fclName":"city, village,...","countryName":"Belarus","fcodeName":"populated place","adminName1":"Grodnenskaya Oblast’","lat":"53.7071","fcode":"PPL"},{"adminCode1":"05","lng":"27.7295","geonameId":8247112,"toponymName":"Antonovka","countryId":"630336","fcl":"P","population":0,"countryCode":"BY","name":"Antonovka","fclName":"city, village,...","countryName":"Belarus","fcodeName":"populated place","adminName1":"Minskaja Voblasts’","lat":"54.3011","fcode":"PPL"},{"adminCode1":"55","lng":"52.70741","geonameId":512221,"toponymName":"Pavlo-Antonovka","countryId":"2017370","fcl":"P","population":0,"countryCode":"RU","name":"Pavlo-Antonovka","fclName":"city, village,...","countryName":"Russia","fcodeName":"populated place","adminName1":"Orenburg","lat":"52.40372","fcode":"PPL"},{"adminCode1":"06","lng":"31.6581","geonameId":630552,"toponymName":"Antonovka","countryId":"630336","fcl":"P","population":0,"countryCode":"BY","name":"Antonovka","fclName":"city, village,...","countryName":"Belarus","fcodeName":"populated place","adminName1":"Mahilyowskaya Voblastsʼ","lat":"53.4065","fcode":"PPL"},{"adminCode1":"02","lng":"29.7994","geonameId":630554,"toponymName":"Antonovka","countryId":"630336","fcl":"P","population":0,"countryCode":"BY","name":"Antonovka","fclName":"city, village,...","countryName":"Belarus","fcodeName":"populated place","adminName1":"Gomel Region","lat":"52.7272","fcode":"PPL"},{"adminCode1":"02","lng":"29.2838","geonameId":630556,"toponymName":"Antonovka","countryId":"630336","fcl":"P","population":0,"countryCode":"BY","name":"Antonovka","fclName":"city, village,...","countryName":"Belarus","fcodeName":"populated place","adminName1":"Gomel Region","lat":"52.1644","fcode":"PPL"},{"adminCode1":"02","lng":"29.139","geonameId":630557,"toponymName":"Antonovka","countryId":"630336","fcl":"P","population":0,"countryCode":"BY","name":"Antonovka","fclName":"city, village,...","countryName":"Belarus","fcodeName":"populated place","adminName1":"Gomel Region","lat":"51.9354","fcode":"PPL"},{"adminCode1":"06","lng":"30.639","geonameId":815387,"toponymName":"Antonovka","countryId":"630336","fcl":"P","population":0,"countryCode":"BY","name":"Antonovka","fclName":"city, village,...","countryName":"Belarus","fcodeName":"populated place","adminName1":"Mahilyowskaya Voblastsʼ","lat":"53.8124","fcode":"PPL"},{"adminCode1":"06","lng":"29.2107","geonameId":8148795,"toponymName":"Antonovka","countryId":"630336","fcl":"P","population":0,"countryCode":"BY","name":"Antonovka","fclName":"city, village,...","countryName":"Belarus","fcodeName":"populated place","adminName1":"Mahilyowskaya Voblastsʼ","lat":"53.2193","fcode":"PPL"},{"adminCode1":"07","lng":"28.5561","geonameId":8222525,"toponymName":"Antonovka","countryId":"630336","fcl":"P","population":0,"countryCode":"BY","name":"Antonovka","fclName":"city, village,...","countryName":"Belarus","fcodeName":"populated place","adminName1":"Vitsyebskaya Voblastsʼ","lat":"54.9524","fcode":"PPL"},{"adminCode1":"51","lng":"42.5831","geonameId":7751052,"toponymName":"Antonovka","countryId":"2017370","fcl":"P","population":0,"countryCode":"RU","name":"Antonovka","fclName":"city, village,...","countryName":"Russia","fcodeName":"populated place","adminName1":"Nizjnij Novgorod","lat":"54.8159","fcode":"PPL"},{"adminCode1":"56","lng":"35.8028","geonameId":7687264,"toponymName":"Antonovka","countryId":"2017370","fcl":"P","population":0,"countryCode":"RU","name":"Antonovka","fclName":"city, village,...","countryName":"Russia","fcodeName":"populated place","adminName1":"Orjol","lat":"52.4994","fcode":"PPL"},{"adminCode1":"07","lng":"30.9018","geonameId":8331277,"toponymName":"Antonovka","countryId":"630336","fcl":"P","population":0,"countryCode":"BY","name":"Antonovka","fclName":"city, village,...","countryName":"Belarus","fcodeName":"populated place","adminName1":"Vitsyebskaya Voblastsʼ","lat":"55.4538","fcode":"PPL"},{"adminCode1":"55","lng":"53.1036","geonameId":7590733,"toponymName":"Antonovka","countryId":"2017370","fcl":"P","population":0,"countryCode":"RU","name":"Antonovka","fclName":"city, village,...","countryName":"Russia","fcodeName":"abandoned populated place","adminName1":"Orenburg","lat":"53.8673","fcode":"PPLQ"},{"adminCode1":"03","lng":"71.70811","geonameId":1526284,"toponymName":"Antonovka","countryId":"1522867","fcl":"P","population":0,"countryCode":"KZ","name":"Antonovka","fclName":"city, village,...","countryName":"Kazakhstan","fcodeName":"populated place","adminName1":"Aqmola","lat":"51.5802","fcode":"PPL"},{"adminCode1":"14","lng":"39.21454","geonameId":809898,"toponymName":"Antonovka","countryId":"690791","fcl":"P","population":0,"countryCode":"UA","name":"Antonovka","fclName":"city, village,...","countryName":"Ukraine","fcodeName":"populated place","adminName1":"Luhansk","lat":"49.2907","fcode":"PPL"},{"adminCode1":"19","lng":"26.5","geonameId":713276,"toponymName":"Antonovka","countryId":"690791","fcl":"P","population":0,"countryCode":"UA","name":"Antonovka","fclName":"city, village,...","countryName":"Ukraine","fcodeName":"populated place","adminName1":"Rivne","lat":"50.8","fcode":"PPL"},{"adminCode1":"02","lng":"32.53519","geonameId":713277,"toponymName":"Antonivka","countryId":"690791","fcl":"P","population":0,"countryCode":"UA","name":"Antonovka","fclName":"city, village,...","countryName":"Ukraine","fcodeName":"populated place","adminName1":"Chernihivs’ka Oblast’","lat":"50.38309","fcode":"PPL"},{"adminCode1":"16","lng":"32.34283","geonameId":713297,"toponymName":"Antonovka","countryId":"690791","fcl":"P","population":0,"countryCode":"UA","name":"Antonovka","fclName":"city, village,...","countryName":"Ukraine","fcodeName":"populated place","adminName1":"Mykolaiv","lat":"47.57606","fcode":"PPL"},{"adminCode1":"61","lng":"40.09917","geonameId":519815,"toponymName":"Novaya Antonovka","countryId":"2017370","fcl":"P","population":0,"countryCode":"RU","name":"Novaya Antonovka","fclName":"city, village,...","countryName":"Russia","fcodeName":"populated place","adminName1":"Rostovskaya Oblast","lat":"47.67611","fcode":"PPL"},{"adminCode1":"00","lng":"61.75379","geonameId":1526283,"toponymName":"Antonovka","countryId":"1522867","fcl":"P","population":0,"countryCode":"KZ","name":"Antonovka","fclName":"city, village,...","countryName":"Kazakhstan","fcodeName":"populated place","adminName1":"","lat":"52.46796","fcode":"PPL"},{"adminCode1":"64","lng":"144.6359","geonameId":2127133,"toponymName":"Gora Antonovka","countryId":"2017370","fcl":"T","population":0,"countryCode":"RU","name":"Gora Antonovka","fclName":"mountain,hill,rock,... ","countryName":"Russia","fcodeName":"hill","adminName1":"Sakhalin","lat":"48.83524","fcode":"HLL"},{"adminCode1":"29","lng":"86.2168","geonameId":7590998,"toponymName":"Urochishche Antonovka","countryId":"2017370","fcl":"L","population":0,"countryCode":"RU","name":"Urochishche Antonovka","fclName":"parks,area, ...","countryName":"Russia","fcodeName":"area","adminName1":"Kemerovo","lat":"56.002","fcode":"AREA"},{"adminCode1":"71","lng":"64.5531","geonameId":7608831,"toponymName":"Urochishche Antonovka","countryId":"2017370","fcl":"L","population":0,"countryCode":"RU","name":"Urochishche Antonovka","fclName":"parks,area, ...","countryName":"Russia","fcodeName":"area","adminName1":"Sverdlovsk","lat":"57.1479","fcode":"AREA"},{"adminCode1":"90","lng":"57.5489","geonameId":8062000,"toponymName":"Antonovka","countryId":"2017370","fcl":"P","population":0,"countryCode":"RU","name":"Antonovka","fclName":"city, village,...","countryName":"Russia","fcodeName":"abandoned populated place","adminName1":"Perm","lat":"57.049","fcode":"PPLQ"},{"adminCode1":"10","lng":"69.96667","geonameId":1526286,"toponymName":"Antonovka","countryId":"1522867","fcl":"P","population":0,"countryCode":"KZ","name":"Antonovka","fclName":"city, village,...","countryName":"Kazakhstan","fcodeName":"populated place","adminName1":"Ongtüstik Qazaqstan","lat":"42.5","fcode":"PPL"},{"adminCode1":"06","lng":"31.52139","geonameId":815587,"toponymName":"Antonovka","countryId":"630336","fcl":"P","population":0,"countryCode":"BY","name":"Antonovka","fclName":"city, village,...","countryName":"Belarus","fcodeName":"populated place","adminName1":"Mahilyowskaya Voblastsʼ","lat":"53.84694","fcode":"PPL"},{"adminCode1":"13","lng":"30.68435","geonameId":713278,"toponymName":"Antonovka","countryId":"690791","fcl":"P","population":0,"countryCode":"UA","name":"Antonovka","fclName":"city, village,...","countryName":"Ukraine","fcodeName":"populated place","adminName1":"Kyiv Oblast","lat":"49.9755","fcode":"PPL"},{"adminCode1":"13","lng":"30.38333","geonameId":713279,"toponymName":"Antonovka","countryId":"690791","fcl":"P","population":0,"countryCode":"UA","name":"Antonovka","fclName":"city, village,...","countryName":"Ukraine","fcodeName":"populated place","adminName1":"Kyiv Oblast","lat":"49.85","fcode":"PPL"},{"adminCode1":"09","lng":"26.78412","geonameId":713280,"toponymName":"Antonovka","countryId":"690791","fcl":"P","population":0,"countryCode":"UA","name":"Antonovka","fclName":"city, village,...","countryName":"Ukraine","fcodeName":"populated place","adminName1":"Khmelnytskyi","lat":"49.5308","fcode":"PPL"},{"adminCode1":"13","lng":"30.264","geonameId":713282,"toponymName":"Antonovka","countryId":"690791","fcl":"P","population":0,"countryCode":"UA","name":"Antonovka","fclName":"city, village,...","countryName":"Ukraine","fcodeName":"populated place","adminName1":"Kyiv Oblast","lat":"49.39143","fcode":"PPL"},{"adminCode1":"07","lng":"35.79792","geonameId":713283,"toponymName":"Antonovka","countryId":"690791","fcl":"P","population":0,"countryCode":"UA","name":"Antonovka","fclName":"city, village,...","countryName":"Ukraine","fcodeName":"populated place","adminName1":"Kharkiv","lat":"49.32766","fcode":"PPL"},{"adminCode1":"09","lng":"26.51509","geonameId":713284,"toponymName":"Antonovka","countryId":"690791","fcl":"P","population":0,"countryCode":"UA","name":"Antonovka","fclName":"city, village,...","countryName":"Ukraine","fcodeName":"populated place","adminName1":"Khmelnytskyi","lat":"48.94634","fcode":"PPL"},{"adminCode1":"09","lng":"27.13303","geonameId":713285,"toponymName":"Antonovka","countryId":"690791","fcl":"P","population":0,"countryCode":"UA","name":"Antonovka","fclName":"city, village,...","countryName":"Ukraine","fcodeName":"populated place","adminName1":"Khmelnytskyi","lat":"48.83881","fcode":"PPL"},{"adminCode1":"23","lng":"29.50341","geonameId":713286,"toponymName":"Antonovka","countryId":"690791","fcl":"P","population":0,"countryCode":"UA","name":"Antonovka","fclName":"city, village,...","countryName":"Ukraine","fcodeName":"populated place","adminName1":"Vinnyts'ka","lat":"48.64362","fcode":"PPL"},{"adminCode1":"10","lng":"32.41667","geonameId":713288,"toponymName":"Antonovka","countryId":"690791","fcl":"P","population":0,"countryCode":"UA","name":"Antonovka","fclName":"city, village,...","countryName":"Ukraine","fcodeName":"populated place","adminName1":"Kirovohrad","lat":"48.53333","fcode":"PPL"},{"adminCode1":"10","lng":"30.9","geonameId":713291,"toponymName":"Antonovka","countryId":"690791","fcl":"P","population":0,"countryCode":"UA","name":"Antonovka","fclName":"city, village,...","countryName":"Ukraine","fcodeName":"populated place","adminName1":"Kirovohrad","lat":"48.48333","fcode":"PPL"},{"adminCode1":"26","lng":"35.68071","geonameId":713293,"toponymName":"Antonovka","countryId":"690791","fcl":"P","population":0,"countryCode":"UA","name":"Antonovka","fclName":"city, village,...","countryName":"Ukraine","fcodeName":"populated place","adminName1":"Zaporiz’ka Oblast’","lat":"47.96965","fcode":"PPL"},{"adminCode1":"17","lng":"30.26755","geonameId":713294,"toponymName":"Antonovka","countryId":"690791","fcl":"P","population":0,"countryCode":"UA","name":"Antonovka","fclName":"city, village,...","countryName":"Ukraine","fcodeName":"populated place","adminName1":"Odessa","lat":"47.9122","fcode":"PPL"},{"adminCode1":"05","lng":"37.35702","geonameId":713295,"toponymName":"Antonovka","countryId":"690791","fcl":"P","population":0,"countryCode":"UA","name":"Antonovka","fclName":"city, village,...","countryName":"Ukraine","fcodeName":"populated place","adminName1":"Donetsk","lat":"47.8815","fcode":"PPL"},{"adminCode1":"16","lng":"32.09068","geonameId":713299,"toponymName":"Antonovka","countryId":"690791","fcl":"P","population":0,"countryCode":"UA","name":"Antonovka","fclName":"city, village,...","countryName":"Ukraine","fcodeName":"populated place","adminName1":"Mykolaiv","lat":"47.52394","fcode":"PPL"},{"adminCode1":"17","lng":"30.48215","geonameId":713300,"toponymName":"Antonovka","countryId":"690791","fcl":"P","population":0,"countryCode":"UA","name":"Antonovka","fclName":"city, village,...","countryName":"Ukraine","fcodeName":"populated place","adminName1":"Odessa","lat":"47.27813","fcode":"PPL"},{"adminCode1":"08","lng":"33.63333","geonameId":713302,"toponymName":"Antonovka","countryId":"690791","fcl":"P","population":0,"countryCode":"UA","name":"Antonovka","fclName":"city, village,...","countryName":"Ukraine","fcodeName":"populated place","adminName1":"Kherson","lat":"46.86667","fcode":"PPL"},{"adminCode1":"08","lng":"33.83034","geonameId":713303,"toponymName":"Antonovka","countryId":"690791","fcl":"P","population":0,"countryCode":"UA","name":"Antonovka","fclName":"city, village,...","countryName":"Ukraine","fcodeName":"populated place","adminName1":"Kherson","lat":"46.78128","fcode":"PPL"},{"adminCode1":"08","lng":"32.73274","geonameId":713304,"toponymName":"Antonovka","countryId":"690791","fcl":"P","population":0,"countryCode":"UA","name":"Antonovka","fclName":"city, village,...","countryName":"Ukraine","fcodeName":"populated place","adminName1":"Kherson","lat":"46.67885","fcode":"PPL"},{"adminCode1":"08","lng":"34.35","geonameId":713305,"toponymName":"Antonovka","countryId":"690791","fcl":"P","population":0,"countryCode":"UA","name":"Antonovka","fclName":"city, village,...","countryName":"Ukraine","fcodeName":"populated place","adminName1":"Kherson","lat":"46.6","fcode":"PPL"},{"adminCode1":"08","lng":"33.3","geonameId":713306,"toponymName":"Antonovka","countryId":"690791","fcl":"P","population":0,"countryCode":"UA","name":"Antonovka","fclName":"city, village,...","countryName":"Ukraine","fcodeName":"populated place","adminName1":"Kherson","lat":"46.16667","fcode":"PPL"},{"adminCode1":"76","lng":"37.24359","geonameId":6714654,"toponymName":"Antonovka","countryId":"2017370","fcl":"P","population":0,"countryCode":"RU","name":"Antonovka","fclName":"city, village,...","countryName":"Russia","fcodeName":"populated place","adminName1":"Tula","lat":"54.67903","fcode":"PPL"}]}