{"totalResultsCount":14,"geonames":[{"adminCode1":"07","lng":"48.04076","geonameId":580497,"toponymName":"Astrakhan’","countryId":"2017370","fcl":"P","population":502533,"countryCode":"RU","name":"Astrakhan","fclName":"city, village,...","countryName":"Russia","fcodeName":"seat of a first-order administrative division","adminName1":"Astrakhan","lat":"46.34968","fcode":"PPLA"},{"adminCode1":"33","lng":"51.2635","geonameId":580493,"toponymName":"Astrakhan’","countryId":"2017370","fcl":"P","population":0,"countryCode":"RU","name":"Astrakhan'","fclName":"city, village,...","countryName":"Russia","fcodeName":"populated place","adminName1":"Kirov","lat":"57.8227","fcode":"PPL"},{"adminCode1":"07","lng":"48.08333","geonameId":824964,"toponymName":"Gorod Astrakhan’","countryId":"2017370","fcl":"A","population":0,"countryCode":"RU","name":"Gorod Astrakhan’","fclName":"country, state, region,...","countryName":"Russia","fcodeName":"second-order administrative division","adminName1":"Astrakhan","lat":"46.36667","fcode":"ADM2"},{"adminCode1":"07","lng":"48","geonameId":580491,"toponymName":"Astrakhanskaya Oblast’","countryId":"2017370","fcl":"A","population":0,"countryCode":"RU","name":"Astrakhanskaya Oblast’","fclName":"country, state, region,...","countryName":"Russia","fcodeName":"first-order administrative division","adminName1":"Astrakhan","lat":"47","fcode":"ADM1"},{"adminCode1":"03","lng":"69.5","geonameId":1526056,"toponymName":"Astrakhan Aūdany","countryId":"1522867","fcl":"A","population":0,"countryCode":"KZ","name":"Astrakhan Aūdany","fclName":"country, state, region,...","countryName":"Kazakhstan","fcodeName":"second-order administrative division","adminName1":"Aqmola","lat":"51.5","fcode":"ADM2"},{"adminCode1":"14","lng":"38.60505","geonameId":699888,"toponymName":"Nova Astrakhan’","countryId":"690791","fcl":"P","population":0,"countryCode":"UA","name":"Nova Astrakhan'","fclName":"city, village,...","countryName":"Ukraine","fcodeName":"populated place","adminName1":"Luhansk","lat":"49.12654","fcode":"PPL"},{"lng":"48.00639","geonameId":6300996,"toponymName":"Astrakhan","countryId":"2017370","fcl":"S","population":0,"countryCode":"RU","name":"Astrakhan","fclName":"spot, building, farm","countryName":"Russia","fcodeName":"airport","adminName1":"","lat":"46.28333","fcode":"AIRP"},{"adminCode1":"03","lng":"69.79684","geonameId":1526059,"toponymName":"Astrakhan","countryId":"1522867","fcl":"P","population":6459,"countryCode":"KZ","name":"Astrakhan","fclName":"city, village,...","countryName":"Kazakhstan","fcodeName":"populated place","adminName1":"Aqmola","lat":"51.53092","fcode":"PPL"},{"adminCode1":"15","lng":"48.49186","geonameId":148290,"toponymName":"Dzhalilabad","countryId":"587116","fcl":"P","population":36259,"countryCode":"AZ","name":"Dzhalilabad","fclName":"city, village,...","countryName":"Azerbaijan","fcodeName":"seat of a first-order administrative division","adminName1":"Jalilabad District","lat":"39.20963","fcode":"PPLA"},{"adminCode1":"15","lng":"48.5","geonameId":148155,"toponymName":"Jalilabad District","countryId":"587116","fcl":"A","population":200000,"countryCode":"AZ","name":"Jalilabad District","fclName":"country, state, region,...","countryName":"Azerbaijan","fcodeName":"first-order administrative division","adminName1":"Jalilabad District","lat":"39.25","fcode":"ADM1"},{"adminCode1":"07","lng":"48.0721","geonameId":580486,"toponymName":"Stantsiya Astrakhan’ Vtoraya","countryId":"2017370","fcl":"S","population":0,"countryCode":"RU","name":"Stantsiya Astrakhan’ Vtoraya","fclName":"spot, building, farm","countryName":"Russia","fcodeName":"railroad station","adminName1":"Astrakhan","lat":"46.4039","fcode":"RSTN"},{"adminCode1":"07","lng":"48.0595","geonameId":580492,"toponymName":"Stantsiya Astrakhan’ Pervaya","countryId":"2017370","fcl":"S","population":0,"countryCode":"RU","name":"Stantsiya Astrakhan’ Pervaya","fclName":"spot, building, farm","countryName":"Russia","fcodeName":"railroad station","adminName1":"Astrakhan","lat":"46.3627","fcode":"RSTN"},{"adminCode1":"07","lng":"48","geonameId":580488,"toponymName":"Astrakhanskiy Reyd","countryId":"2017370","fcl":"H","population":0,"countryCode":"RU","name":"Astrakhanskiy Reyd","fclName":"stream, lake, ...","countryName":"Russia","fcodeName":"roadstead","adminName1":"Astrakhan","lat":"45.5","fcode":"RDST"},{"lng":"48.05","geonameId":6519931,"toponymName":"Azimut Hotel Astrakhan","countryId":"2017370","fcl":"S","population":0,"countryCode":"RU","name":"Azimut Hotel Astrakhan","fclName":"spot, building, farm","countryName":"Russia","fcodeName":"hotel","adminName1":"","lat":"46.3499","fcode":"HTL"}]}