{"totalResultsCount":9,"geonames":[{"adminCode1":"06","lng":"31.0867","geonameId":630403,"toponymName":"Baryshevka","countryId":"630336","fcl":"P","population":0,"countryCode":"BY","name":"Baryshevka","fclName":"city, village,...","countryName":"Belarus","fcodeName":"populated place","adminName1":"Mahilyowskaya Voblasts º","lat":"53.8754","fcode":"PPL"},{"adminCode1":"62","lng":"41.26942","geonameId":821379,"toponymName":"Baryshevka","countryId":"2017370","fcl":"P","population":0,"countryCode":"RU","name":"Baryshevka","fclName":"city, village,...","countryName":"Russia","fcodeName":"populated place","adminName1":"Rjazan","lat":"53.57365","fcode":"PPL"},{"adminCode1":"04","lng":"79.08333","geonameId":1510823,"toponymName":"Baryshevka","countryId":"2017370","fcl":"P","population":0,"countryCode":"RU","name":"Baryshevka","fclName":"city, village,...","countryName":"Russia","fcodeName":"populated place","adminName1":"Altai Krai","lat":"52.81667","fcode":"PPL"},{"adminCode1":"08","lng":"58.48333","geonameId":578929,"toponymName":"Baryshevka","countryId":"2017370","fcl":"P","population":0,"countryCode":"RU","name":"Baryshevka","fclName":"city, village,...","countryName":"Russia","fcodeName":"populated place","adminName1":"Bashkortostan","lat":"55.96667","fcode":"PPL"},{"adminCode1":"00","lng":"80.94221","geonameId":1525727,"toponymName":"Baryshevka","countryId":"1522867","fcl":"P","population":0,"countryCode":"KZ","name":"Baryshevka","fclName":"city, village,...","countryName":"Kazakhstan","fcodeName":"populated place","adminName1":"","lat":"50.55691","fcode":"PPL"},{"adminCode1":"03","lng":"71.06098","geonameId":1525726,"toponymName":"Baryshevka","countryId":"1522867","fcl":"P","population":0,"countryCode":"KZ","name":"Baryshevka","fclName":"city, village,...","countryName":"Kazakhstan","fcodeName":"populated place","adminName1":"Aqmola","lat":"51.77573","fcode":"PPL"},{"adminCode1":"13","lng":"31.32173","geonameId":712787,"toponymName":"Baryshivka","countryId":"690791","fcl":"P","population":10762,"countryCode":"UA","name":"Baryshivka","fclName":"city, village,...","countryName":"Ukraine","fcodeName":"populated place","adminName1":"Kiev","lat":"50.36098","fcode":"PPL"},{"adminCode1":"27","lng":"28.54871","geonameId":712785,"toponymName":"Barashivka","countryId":"690791","fcl":"P","population":0,"countryCode":"UA","name":"Barashivka","fclName":"city, village,...","countryName":"Ukraine","fcodeName":"populated place","adminName1":"Zhytomyr","lat":"50.27291","fcode":"PPL"},{"adminCode1":"04","lng":"79.06667","geonameId":1510825,"toponymName":"Barvishevka","countryId":"2017370","fcl":"P","population":0,"countryCode":"RU","name":"Barvishevka","fclName":"city, village,...","countryName":"Russia","fcodeName":"populated place","adminName1":"Altai Krai","lat":"52.75","fcode":"PPL"}]}