{"totalResultsCount":9,"geonames":[{"countryId":"2017370","adminCode1":"08","countryName":"Russia","fclName":"city, village,...","countryCode":"RU","lng":"58.48333","fcodeName":"populated place","toponymName":"Baryshevka","fcl":"P","name":"Baryshevka","fcode":"PPL","geonameId":578929,"lat":"55.96667","adminName1":"Bashkortostan","population":0},{"countryId":"2017370","adminCode1":"04","countryName":"Russia","fclName":"city, village,...","countryCode":"RU","lng":"79.08333","fcodeName":"populated place","toponymName":"Baryshevka","fcl":"P","name":"Baryshevka","fcode":"PPL","geonameId":1510823,"lat":"52.81667","adminName1":"Altai Krai","population":0},{"countryId":"2017370","adminCode1":"62","countryName":"Russia","fclName":"city, village,...","countryCode":"RU","lng":"41.26942","fcodeName":"populated place","toponymName":"Baryshevka","fcl":"P","name":"Baryshevka","fcode":"PPL","geonameId":821379,"lat":"53.57365","adminName1":"Rjazan","population":0},{"countryId":"630336","adminCode1":"06","countryName":"Belarus","fclName":"city, village,...","countryCode":"BY","lng":"31.0867","fcodeName":"populated place","toponymName":"Baryshevka","fcl":"P","name":"Baryshevka","fcode":"PPL","geonameId":630403,"lat":"53.8754","adminName1":"Mahilyowskaya Voblasts º","population":0},{"countryId":"1522867","adminCode1":"00","countryName":"Kazakhstan","fclName":"city, village,...","countryCode":"KZ","lng":"80.94221","fcodeName":"populated place","toponymName":"Baryshevka","fcl":"P","name":"Baryshevka","fcode":"PPL","geonameId":1525727,"lat":"50.55691","adminName1":"","population":0},{"countryId":"690791","adminCode1":"13","countryName":"Ukraine","fclName":"city, village,...","countryCode":"UA","lng":"31.32173","fcodeName":"populated place","toponymName":"Baryshivka","fcl":"P","name":"Baryshivka","fcode":"PPL","geonameId":712787,"lat":"50.36098","adminName1":"Kiev","population":10762},{"countryId":"1522867","adminCode1":"03","countryName":"Kazakhstan","fclName":"city, village,...","countryCode":"KZ","lng":"71.06098","fcodeName":"populated place","toponymName":"Baryshevka","fcl":"P","name":"Baryshevka","fcode":"PPL","geonameId":1525726,"lat":"51.77572","adminName1":"Aqmola","population":0},{"countryId":"690791","adminCode1":"27","countryName":"Ukraine","fclName":"city, village,...","countryCode":"UA","lng":"28.5487","fcodeName":"populated place","toponymName":"Barashivka","fcl":"P","name":"Barashivka","fcode":"PPL","geonameId":712785,"lat":"50.27291","adminName1":"Zhytomyr","population":0},{"countryId":"2017370","adminCode1":"04","countryName":"Russia","fclName":"city, village,...","countryCode":"RU","lng":"79.06667","fcodeName":"populated place","toponymName":"Barvishevka","fcl":"P","name":"Barvishevka","fcode":"PPL","geonameId":1510825,"lat":"52.75","adminName1":"Altai Krai","population":0}]}