{"totalResultsCount":11,"geonames":[{"adminCode1":"88","lng":"39.39169","geonameId":577806,"toponymName":"Beloye","countryId":"2017370","fcl":"P","population":0,"countryCode":"RU","name":"Beloye","fclName":"city, village,...","countryName":"Russia","fcodeName":"populated place","adminName1":"Jaroslavl","lat":"58.3822","fcode":"PPL"},{"adminCode1":"77","lng":"36.87806","geonameId":577807,"toponymName":"Beloye","countryId":"2017370","fcl":"P","population":0,"countryCode":"RU","name":"Beloye","fclName":"city, village,...","countryName":"Russia","fcodeName":"populated place","adminName1":"Tverskaya","lat":"57.57361","fcode":"PPL"},{"adminCode1":"51","lng":"42.99299","geonameId":577808,"toponymName":"Beloye","countryId":"2017370","fcl":"P","population":0,"countryCode":"RU","name":"Beloye","fclName":"city, village,...","countryName":"Russia","fcodeName":"populated place","adminName1":"Nizjnij Novgorod","lat":"56.79285","fcode":"PPL"},{"adminCode1":"62","lng":"40.24036","geonameId":577810,"toponymName":"Beloye","countryId":"2017370","fcl":"P","population":0,"countryCode":"RU","name":"Beloye","fclName":"city, village,...","countryName":"Russia","fcodeName":"populated place","adminName1":"Rjazan","lat":"55.28318","fcode":"PPL"},{"adminCode1":"85","lng":"38.9359","geonameId":7494235,"toponymName":"Beloye","countryId":"2017370","fcl":"P","population":0,"countryCode":"RU","name":"Beloye","fclName":"city, village,...","countryName":"Russia","fcodeName":"populated place","adminName1":"Vologda","lat":"59.08818","fcode":"PPL"},{"adminCode1":"85","lng":"39.63053","geonameId":7495088,"toponymName":"Beloye","countryId":"2017370","fcl":"P","population":0,"countryCode":"RU","name":"Beloye","fclName":"city, village,...","countryName":"Russia","fcodeName":"populated place","adminName1":"Vologda","lat":"59.27145","fcode":"PPL"},{"adminCode1":"85","lng":"39.36777","geonameId":577803,"toponymName":"Beloye","countryId":"2017370","fcl":"P","population":0,"countryCode":"RU","name":"Beloye","fclName":"city, village,...","countryName":"Russia","fcodeName":"populated place","adminName1":"Vologda","lat":"59.07297","fcode":"PPL"},{"adminCode1":"85","lng":"39.8326","geonameId":577804,"toponymName":"Beloye","countryId":"2017370","fcl":"P","population":0,"countryCode":"RU","name":"Beloye","fclName":"city, village,...","countryName":"Russia","fcodeName":"populated place","adminName1":"Vologda","lat":"59.0487","fcode":"PPL"},{"adminCode1":"62","lng":"42.43333","geonameId":577811,"toponymName":"Beloye","countryId":"2017370","fcl":"P","population":0,"countryCode":"RU","name":"Beloye","fclName":"city, village,...","countryName":"Russia","fcodeName":"populated place","adminName1":"Rjazan","lat":"54.58333","fcode":"PPL"},{"adminCode1":"76","lng":"36.3546","geonameId":577812,"toponymName":"Beloye","countryId":"2017370","fcl":"P","population":0,"countryCode":"RU","name":"Beloye","fclName":"city, village,...","countryName":"Russia","fcodeName":"populated place","adminName1":"Tula","lat":"54.05074","fcode":"PPL"},{"adminCode1":"47","lng":"38.4852","geonameId":873860,"toponymName":"Beloye Ozero","countryId":"2017370","fcl":"P","population":0,"countryCode":"RU","name":"Beloye Ozero","fclName":"city, village,...","countryName":"Russia","fcodeName":"populated place","adminName1":"Moskovskaya","lat":"55.45258","fcode":"PPL"}]}