{"totalResultsCount":188,"geonames":[{"adminCode1":"15","lng":"82.97524","geonameId":1525479,"toponymName":"Beloe","countryId":"1522867","fcl":"P","population":0,"countryCode":"KZ","name":"Beloe","fclName":"city, village,...","countryName":"Kazakhstan","fcodeName":"populated place","adminName1":"East Kazakhstan","lat":"48.85756","fcode":"PPL"},{"adminCode1":"16","lng":"68.47609","geonameId":1525476,"toponymName":"Beloye","countryId":"1522867","fcl":"P","population":0,"countryCode":"KZ","name":"Beloe","fclName":"city, village,...","countryName":"Kazakhstan","fcodeName":"populated place","adminName1":"Soltüstik Qazaqstan","lat":"55.06103","fcode":"PPL"},{"adminCode1":"63","lng":"122.60524","geonameId":2026883,"toponymName":"Beloye","countryId":"2017370","fcl":"P","population":0,"countryCode":"RU","name":"Beloye","fclName":"city, village,...","countryName":"Russia","fcodeName":"populated place","adminName1":"Sakha","lat":"60.5588","fcode":"PPL"},{"adminCode1":"15","lng":"85.41438","geonameId":1525478,"toponymName":"Beloe","countryId":"1522867","fcl":"P","population":0,"countryCode":"KZ","name":"Beloe","fclName":"city, village,...","countryName":"Kazakhstan","fcodeName":"populated place","adminName1":"East Kazakhstan","lat":"49.36548","fcode":"PPL"},{"adminCode1":"40","lng":"63.4647","geonameId":1510441,"toponymName":"Beloye","countryId":"2017370","fcl":"P","population":0,"countryCode":"RU","name":"Beloye","fclName":"city, village,...","countryName":"Russia","fcodeName":"populated place","adminName1":"Kurgan","lat":"56.4241","fcode":"PPL"},{"adminCode1":"40","lng":"64.97417","geonameId":1510442,"toponymName":"Beloye","countryId":"2017370","fcl":"P","population":0,"countryCode":"RU","name":"Beloye","fclName":"city, village,...","countryName":"Russia","fcodeName":"populated place","adminName1":"Kurgan","lat":"54.72611","fcode":"PPL"},{"adminCode1":"53","lng":"78.46689","geonameId":1510443,"toponymName":"Beloye","countryId":"2017370","fcl":"P","population":0,"countryCode":"RU","name":"Beloye","fclName":"city, village,...","countryName":"Russia","fcodeName":"populated place","adminName1":"Novosibirsk","lat":"53.94066","fcode":"PPL"},{"adminCode1":"04","lng":"85.33833","geonameId":1484881,"toponymName":"Beloye","countryId":"2017370","fcl":"P","population":350,"countryCode":"RU","name":"Beloye","fclName":"city, village,...","countryName":"Russia","fcodeName":"populated place","adminName1":"Altai Krai","lat":"51.62333","fcode":"PPL"},{"adminCode1":"42","lng":"30.46145","geonameId":577805,"toponymName":"Beloye","countryId":"2017370","fcl":"P","population":0,"countryCode":"RU","name":"Beloye","fclName":"city, village,...","countryName":"Russia","fcodeName":"populated place","adminName1":"Leningrad","lat":"58.80577","fcode":"PPL"},{"adminCode1":"88","lng":"39.39169","geonameId":577806,"toponymName":"Beloye","countryId":"2017370","fcl":"P","population":0,"countryCode":"RU","name":"Beloye","fclName":"city, village,...","countryName":"Russia","fcodeName":"populated place","adminName1":"Jaroslavl","lat":"58.3822","fcode":"PPL"},{"adminCode1":"77","lng":"36.87806","geonameId":577807,"toponymName":"Beloye","countryId":"2017370","fcl":"P","population":0,"countryCode":"RU","name":"Beloye","fclName":"city, village,...","countryName":"Russia","fcodeName":"populated place","adminName1":"Tverskaya","lat":"57.57361","fcode":"PPL"},{"adminCode1":"51","lng":"42.99299","geonameId":577808,"toponymName":"Beloye","countryId":"2017370","fcl":"P","population":0,"countryCode":"RU","name":"Beloye","fclName":"city, village,...","countryName":"Russia","fcodeName":"populated place","adminName1":"Nizjnij Novgorod","lat":"56.79285","fcode":"PPL"},{"adminCode1":"62","lng":"40.24036","geonameId":577810,"toponymName":"Beloye","countryId":"2017370","fcl":"P","population":0,"countryCode":"RU","name":"Beloye","fclName":"city, village,...","countryName":"Russia","fcodeName":"populated place","adminName1":"Rjazan","lat":"55.28318","fcode":"PPL"},{"adminCode1":"01","lng":"39.65143","geonameId":577817,"toponymName":"Beloye","countryId":"2017370","fcl":"P","population":3067,"countryCode":"RU","name":"Beloye","fclName":"city, village,...","countryName":"Russia","fcodeName":"populated place","adminName1":"Adygeya","lat":"45.04832","fcode":"PPL"},{"adminCode1":"85","lng":"38.9359","geonameId":7494235,"toponymName":"Beloye","countryId":"2017370","fcl":"P","population":0,"countryCode":"RU","name":"Beloye","fclName":"city, village,...","countryName":"Russia","fcodeName":"populated place","adminName1":"Vologda","lat":"59.08818","fcode":"PPL"},{"adminCode1":"85","lng":"39.63053","geonameId":7495088,"toponymName":"Beloye","countryId":"2017370","fcl":"P","population":0,"countryCode":"RU","name":"Beloye","fclName":"city, village,...","countryName":"Russia","fcodeName":"populated place","adminName1":"Vologda","lat":"59.27145","fcode":"PPL"},{"adminCode1":"60","lng":"29.4466","geonameId":7599010,"toponymName":"Beloye","countryId":"2017370","fcl":"P","population":0,"countryCode":"RU","name":"Beloye","fclName":"city, village,...","countryName":"Russia","fcodeName":"populated place","adminName1":"Pskov","lat":"56.2544","fcode":"PPL"},{"adminCode1":"60","lng":"29.8225","geonameId":7599051,"toponymName":"Beloye","countryId":"2017370","fcl":"P","population":0,"countryCode":"RU","name":"Beloye","fclName":"city, village,...","countryName":"Russia","fcodeName":"populated place","adminName1":"Pskov","lat":"56.2235","fcode":"PPL"},{"adminCode1":"10","lng":"-73.77886","geonameId":3898450,"toponymName":"Alturas Beloe","countryId":"3895114","fcl":"T","population":0,"countryCode":"CL","name":"Alturas Beloe","fclName":"mountain,hill,rock,... ","countryName":"Chile","fcodeName":"hills","adminName1":"Magallanes","lat":"-52.91434","fcode":"HLLS"},{"adminCode1":"64","lng":"142.62383","geonameId":2126796,"toponymName":"Beloye","countryId":"2017370","fcl":"P","population":0,"countryCode":"RU","name":"Beloye","fclName":"city, village,...","countryName":"Russia","fcodeName":"populated place","adminName1":"Sakhalin","lat":"50.75299","fcode":"PPL"},{"adminCode1":"71","lng":"61.65703","geonameId":1510428,"toponymName":"Ozero Beloye","countryId":"2017370","fcl":"H","population":0,"countryCode":"RU","name":"Ozero Beloye","fclName":"stream, lake, ...","countryName":"Russia","fcodeName":"lake","adminName1":"Sverdlovsk","lat":"57.27392","fcode":"LK"},{"adminCode1":"85","lng":"37.6598","geonameId":577759,"toponymName":"Ozero Beloye","countryId":"2017370","fcl":"H","population":0,"countryCode":"RU","name":"Ozero Beloye","fclName":"stream, lake, ...","countryName":"Russia","fcodeName":"lake","adminName1":"Vologda","lat":"60.2025","fcode":"LK"},{"adminCode1":"85","lng":"36.8027","geonameId":577763,"toponymName":"Ozero Beloye","countryId":"2017370","fcl":"H","population":0,"countryCode":"RU","name":"Ozero Beloye","fclName":"stream, lake, ...","countryName":"Russia","fcodeName":"lake","adminName1":"Vologda","lat":"59.6077","fcode":"LK"},{"adminCode1":"85","lng":"35.6271","geonameId":577764,"toponymName":"Ozero Beloye","countryId":"2017370","fcl":"H","population":0,"countryCode":"RU","name":"Ozero Beloye","fclName":"stream, lake, ...","countryName":"Russia","fcodeName":"lake","adminName1":"Vologda","lat":"59.3782","fcode":"LK"},{"adminCode1":"52","lng":"35.2055","geonameId":577771,"toponymName":"Ozero Beloye","countryId":"2017370","fcl":"H","population":0,"countryCode":"RU","name":"Ozero Beloye","fclName":"stream, lake, ...","countryName":"Russia","fcodeName":"lake","adminName1":"Novgorod","lat":"58.57565","fcode":"LK"},{"adminCode1":"60","lng":"30.29188","geonameId":577779,"toponymName":"Ozero Beloye","countryId":"2017370","fcl":"H","population":0,"countryCode":"RU","name":"Ozero Beloye","fclName":"stream, lake, ...","countryName":"Russia","fcodeName":"lake","adminName1":"Pskov","lat":"57.68634","fcode":"LK"},{"adminCode1":"81","lng":"46.9904","geonameId":577796,"toponymName":"Ozero Beloye","countryId":"2017370","fcl":"H","population":0,"countryCode":"RU","name":"Ozero Beloye","fclName":"stream, lake, ...","countryName":"Russia","fcodeName":"lake","adminName1":"Ulyanovsk","lat":"53.0207","fcode":"LK"},{"adminCode1":"06","lng":"39.9563","geonameId":577801,"toponymName":"Beloye","countryId":"2017370","fcl":"P","population":0,"countryCode":"RU","name":"Beloye","fclName":"city, village,...","countryName":"Russia","fcodeName":"abandoned populated place","adminName1":"Arkhangelskaya","lat":"64.3073","fcode":"PPLQ"},{"adminCode1":"77","lng":"36.52139","geonameId":828968,"toponymName":"Ozero Beloye","countryId":"2017370","fcl":"H","population":0,"countryCode":"RU","name":"Ozero Beloye","fclName":"stream, lake, ...","countryName":"Russia","fcodeName":"lake","adminName1":"Tverskaya","lat":"57.02722","fcode":"LK"},{"adminCode1":"54","lng":"73.7892","geonameId":7618717,"toponymName":"Ozero Beloye","countryId":"2017370","fcl":"H","population":0,"countryCode":"RU","name":"Ozero Beloye","fclName":"stream, lake, ...","countryName":"Russia","fcodeName":"lake","adminName1":"Omsk","lat":"56.2494","fcode":"LK"},{"adminCode1":"60","lng":"28.3874","geonameId":7611031,"toponymName":"Ozero Beloye","countryId":"2017370","fcl":"H","population":0,"countryCode":"RU","name":"Ozero Beloye","fclName":"stream, lake, ...","countryName":"Russia","fcodeName":"lake","adminName1":"Pskov","lat":"58.8418","fcode":"LK"},{"adminCode1":"60","lng":"28.0807","geonameId":7611224,"toponymName":"Ozero Beloye","countryId":"2017370","fcl":"H","population":0,"countryCode":"RU","name":"Ozero Beloye","fclName":"stream, lake, ...","countryName":"Russia","fcodeName":"lake","adminName1":"Pskov","lat":"58.2819","fcode":"LK"},{"adminCode1":"42","lng":"28.8522","geonameId":7611426,"toponymName":"Ozero Beloye","countryId":"2017370","fcl":"H","population":0,"countryCode":"RU","name":"Ozero Beloye","fclName":"stream, lake, ...","countryName":"Russia","fcodeName":"lake","adminName1":"Leningrad","lat":"58.91","fcode":"LK"},{"adminCode1":"42","lng":"35.1175","geonameId":7493990,"toponymName":"Ozero Beloye","countryId":"2017370","fcl":"H","population":0,"countryCode":"RU","name":"Ozero Beloye","fclName":"stream, lake, ...","countryName":"Russia","fcodeName":"lake","adminName1":"Leningrad","lat":"59.8222","fcode":"LK"},{"adminCode1":"88","lng":"37.9881","geonameId":7591279,"toponymName":"Ozero Beloye","countryId":"2017370","fcl":"H","population":0,"countryCode":"RU","name":"Ozero Beloye","fclName":"stream, lake, ...","countryName":"Russia","fcodeName":"lake","adminName1":"Jaroslavl","lat":"58.563","fcode":"LK"},{"adminCode1":"85","lng":"36.828","geonameId":7592076,"toponymName":"Ozero Beloye","countryId":"2017370","fcl":"H","population":0,"countryCode":"RU","name":"Ozero Beloye","fclName":"stream, lake, ...","countryName":"Russia","fcodeName":"lake","adminName1":"Vologda","lat":"59.8684","fcode":"LK"},{"adminCode1":"60","lng":"29.5136","geonameId":7598747,"toponymName":"Ozero Beloye","countryId":"2017370","fcl":"H","population":0,"countryCode":"RU","name":"Ozero Beloye","fclName":"stream, lake, ...","countryName":"Russia","fcodeName":"lake","adminName1":"Pskov","lat":"56.5347","fcode":"LK"},{"adminCode1":"60","lng":"29.0341","geonameId":7598838,"toponymName":"Ozero Beloye","countryId":"2017370","fcl":"H","population":0,"countryCode":"RU","name":"Ozero Beloye","fclName":"stream, lake, ...","countryName":"Russia","fcodeName":"lake","adminName1":"Pskov","lat":"56.4406","fcode":"LK"},{"adminCode1":"60","lng":"29.4352","geonameId":7599035,"toponymName":"Ozero Beloye","countryId":"2017370","fcl":"H","population":0,"countryCode":"RU","name":"Ozero Beloye","fclName":"stream, lake, ...","countryName":"Russia","fcodeName":"lake","adminName1":"Pskov","lat":"56.2499","fcode":"LK"},{"adminCode1":"60","lng":"29.8302","geonameId":7599052,"toponymName":"Ozero Beloye","countryId":"2017370","fcl":"H","population":0,"countryCode":"RU","name":"Ozero Beloye","fclName":"stream, lake, ...","countryName":"Russia","fcodeName":"lake","adminName1":"Pskov","lat":"56.2178","fcode":"LK"},{"adminCode1":"60","lng":"29.4075","geonameId":7599161,"toponymName":"Ozero Beloye","countryId":"2017370","fcl":"H","population":0,"countryCode":"RU","name":"Ozero Beloye","fclName":"stream, lake, ...","countryName":"Russia","fcodeName":"lake","adminName1":"Pskov","lat":"56.1437","fcode":"LK"},{"adminCode1":"60","lng":"29.1578","geonameId":7599247,"toponymName":"Ozero Beloye","countryId":"2017370","fcl":"H","population":0,"countryCode":"RU","name":"Ozero Beloye","fclName":"stream, lake, ...","countryName":"Russia","fcodeName":"lake","adminName1":"Pskov","lat":"56.0494","fcode":"LK"},{"adminCode1":"78","lng":"72.4947","geonameId":7575737,"toponymName":"Ozero Beloye","countryId":"2017370","fcl":"H","population":0,"countryCode":"RU","name":"Ozero Beloye","fclName":"stream, lake, ...","countryName":"Russia","fcodeName":"lake","adminName1":"Tjumen","lat":"58.7518","fcode":"LK"},{"adminCode1":"52","lng":"35.12541","geonameId":7415374,"toponymName":"Ozero Beloye","countryId":"2017370","fcl":"H","population":0,"countryCode":"RU","name":"Ozero Beloye","fclName":"stream, lake, ...","countryName":"Russia","fcodeName":"lake","adminName1":"Novgorod","lat":"58.39393","fcode":"LK"},{"adminCode1":"00","lng":"69.20525","geonameId":1525477,"toponymName":"Beloye","countryId":"1522867","fcl":"P","population":0,"countryCode":"KZ","name":"Beloye","fclName":"city, village,...","countryName":"Kazakhstan","fcodeName":"populated place","adminName1":"","lat":"54.93611","fcode":"PPL"},{"adminCode1":"14","lng":"39.05051","geonameId":712515,"toponymName":"Bile","countryId":"690791","fcl":"P","population":6775,"countryCode":"UA","name":"Beloye","fclName":"city, village,...","countryName":"Ukraine","fcodeName":"populated place","adminName1":"Luhansk","lat":"48.49523","fcode":"PPL"},{"adminCode1":"06","lng":"38.05","geonameId":577800,"toponymName":"Beloye","countryId":"2017370","fcl":"P","population":0,"countryCode":"RU","name":"Beloye","fclName":"city, village,...","countryName":"Russia","fcodeName":"populated place","adminName1":"Arkhangelskaya","lat":"64.53333","fcode":"PPL"},{"adminCode1":"42","lng":"32.99217","geonameId":577802,"toponymName":"Beloye","countryId":"2017370","fcl":"P","population":0,"countryCode":"RU","name":"Beloye","fclName":"city, village,...","countryName":"Russia","fcodeName":"populated place","adminName1":"Leningrad","lat":"59.85118","fcode":"PPL"},{"adminCode1":"85","lng":"39.36777","geonameId":577803,"toponymName":"Beloye","countryId":"2017370","fcl":"P","population":0,"countryCode":"RU","name":"Beloye","fclName":"city, village,...","countryName":"Russia","fcodeName":"populated place","adminName1":"Vologda","lat":"59.07297","fcode":"PPL"},{"adminCode1":"85","lng":"39.8326","geonameId":577804,"toponymName":"Beloye","countryId":"2017370","fcl":"P","population":0,"countryCode":"RU","name":"Beloye","fclName":"city, village,...","countryName":"Russia","fcodeName":"populated place","adminName1":"Vologda","lat":"59.0487","fcode":"PPL"},{"adminCode1":"62","lng":"42.43333","geonameId":577811,"toponymName":"Beloye","countryId":"2017370","fcl":"P","population":0,"countryCode":"RU","name":"Beloye","fclName":"city, village,...","countryName":"Russia","fcodeName":"populated place","adminName1":"Rjazan","lat":"54.58333","fcode":"PPL"},{"adminCode1":"76","lng":"36.3546","geonameId":577812,"toponymName":"Beloye","countryId":"2017370","fcl":"P","population":0,"countryCode":"RU","name":"Beloye","fclName":"city, village,...","countryName":"Russia","fcodeName":"populated place","adminName1":"Tula","lat":"54.05074","fcode":"PPL"},{"adminCode1":"56","lng":"37.04631","geonameId":577813,"toponymName":"Beloye","countryId":"2017370","fcl":"P","population":0,"countryCode":"RU","name":"Beloye","fclName":"city, village,...","countryName":"Russia","fcodeName":"populated place","adminName1":"Orjol","lat":"52.12864","fcode":"PPL"},{"adminCode1":"56","lng":"37.13333","geonameId":577814,"toponymName":"Beloye","countryId":"2017370","fcl":"P","population":0,"countryCode":"RU","name":"Beloye","fclName":"city, village,...","countryName":"Russia","fcodeName":"populated place","adminName1":"Orjol","lat":"52.11667","fcode":"PPL"},{"adminCode1":"07","lng":"29.8695","geonameId":630338,"toponymName":"Beloye","countryId":"630336","fcl":"P","population":0,"countryCode":"BY","name":"Beloye","fclName":"city, village,...","countryName":"Belarus","fcodeName":"populated place","adminName1":"Vitsyebskaya Voblastsʼ","lat":"55.1647","fcode":"PPL"},{"adminCode1":"78","lng":"67.84778","geonameId":1543647,"toponymName":"Ozero Maloye Beloye","countryId":"2017370","fcl":"H","population":0,"countryCode":"RU","name":"Ozero Maloye Beloye","fclName":"stream, lake, ...","countryName":"Russia","fcodeName":"lake","adminName1":"Tjumen","lat":"55.72444","fcode":"LK"},{"adminCode1":"75","lng":"81.78333","geonameId":1499724,"toponymName":"Ozero Maloye Beloye","countryId":"2017370","fcl":"H","population":0,"countryCode":"RU","name":"Ozero Maloye Beloye","fclName":"stream, lake, ...","countryName":"Russia","fcodeName":"lake","adminName1":"Tomsk","lat":"56.3","fcode":"LK"},{"adminCode1":"40","lng":"64.42083","geonameId":1499762,"toponymName":"Maloye Beloye","countryId":"2017370","fcl":"P","population":0,"countryCode":"RU","name":"Maloye Beloye","fclName":"city, village,...","countryName":"Russia","fcodeName":"populated place","adminName1":"Kurgan","lat":"55.42556","fcode":"PPL"},{"adminCode1":"00","lng":"38","geonameId":577742,"toponymName":"White Sea","countryId":"2017370","fcl":"H","population":0,"countryCode":"RU","name":"White Sea","fclName":"stream, lake, ...","countryName":"Russia","fcodeName":"sea","adminName1":"","lat":"65.5","fcode":"SEA"},{"adminCode1":"08","lng":"56.27361","geonameId":577795,"toponymName":"Ozero Beloye","countryId":"2017370","fcl":"H","population":0,"countryCode":"RU","name":"Ozero Beloye","fclName":"stream, lake, ...","countryName":"Russia","fcodeName":"lake","adminName1":"Bashkortostan","lat":"54.02972","fcode":"LK"},{"adminCode1":"81","lng":"47.5925","geonameId":577933,"toponymName":"Ozero Beloye","countryId":"2017370","fcl":"H","population":0,"countryCode":"RU","name":"Ozero Beloye","fclName":"stream, lake, ...","countryName":"Russia","fcodeName":"lake","adminName1":"Ulyanovsk","lat":"53.8495","fcode":"LK"},{"adminCode1":"06","lng":"40.4459","geonameId":6267804,"toponymName":"Ozero Beloye","countryId":"2017370","fcl":"H","population":0,"countryCode":"RU","name":"Ozero Beloye","fclName":"stream, lake, ...","countryName":"Russia","fcodeName":"lake","adminName1":"Arkhangelskaya","lat":"62.581","fcode":"LK"},{"adminCode1":"06","lng":"39.9265","geonameId":6315309,"toponymName":"Ozero Beloye","countryId":"2017370","fcl":"H","population":0,"countryCode":"RU","name":"Ozero Beloye","fclName":"stream, lake, ...","countryName":"Russia","fcodeName":"lake","adminName1":"Arkhangelskaya","lat":"64.4798","fcode":"LK"},{"adminCode1":"53","lng":"84.1392","geonameId":6315574,"toponymName":"Ozero Beloye","countryId":"2017370","fcl":"H","population":0,"countryCode":"RU","name":"Ozero Beloye","fclName":"stream, lake, ...","countryName":"Russia","fcodeName":"lake","adminName1":"Novosibirsk","lat":"55.8718","fcode":"LK"},{"adminCode1":"53","lng":"82.6982","geonameId":6284353,"toponymName":"Ozero Beloye","countryId":"2017370","fcl":"H","population":0,"countryCode":"RU","name":"Ozero Beloye","fclName":"stream, lake, ...","countryName":"Russia","fcodeName":"lake","adminName1":"Novosibirsk","lat":"55.3882","fcode":"LK"},{"adminCode1":"06","lng":"39.9775","geonameId":6315270,"toponymName":"Ozero Beloye","countryId":"2017370","fcl":"H","population":0,"countryCode":"RU","name":"Ozero Beloye","fclName":"stream, lake, ...","countryName":"Russia","fcodeName":"lake","adminName1":"Arkhangelskaya","lat":"64.3071","fcode":"LK"},{"adminCode1":"53","lng":"82.5947","geonameId":1510433,"toponymName":"Ozero Beloye","countryId":"2017370","fcl":"H","population":0,"countryCode":"RU","name":"Ozero Beloye","fclName":"stream, lake, ...","countryName":"Russia","fcodeName":"lake","adminName1":"Novosibirsk","lat":"55.2312","fcode":"LK"},{"adminCode1":"40","lng":"62.82917","geonameId":1510435,"toponymName":"Ozero Beloye","countryId":"2017370","fcl":"H","population":0,"countryCode":"RU","name":"Ozero Beloye","fclName":"stream, lake, ...","countryName":"Russia","fcodeName":"lake","adminName1":"Kurgan","lat":"55.03306","fcode":"LK"},{"adminCode1":"04","lng":"80.3583","geonameId":1510439,"toponymName":"Ozero Beloye","countryId":"2017370","fcl":"H","population":0,"countryCode":"RU","name":"Ozero Beloye","fclName":"stream, lake, ...","countryName":"Russia","fcodeName":"lake","adminName1":"Altai Krai","lat":"51.8146","fcode":"LK"},{"adminCode1":"04","lng":"84.7324","geonameId":1510444,"toponymName":"Beloye","countryId":"2017370","fcl":"P","population":0,"countryCode":"RU","name":"Beloye","fclName":"city, village,...","countryName":"Russia","fcodeName":"populated place","adminName1":"Altai Krai","lat":"52.9179","fcode":"PPL"},{"adminCode1":"42","lng":"30.11667","geonameId":577741,"toponymName":"Beloye Ozero","countryId":"2017370","fcl":"H","population":0,"countryCode":"RU","name":"Beloye Ozero","fclName":"stream, lake, ...","countryName":"Russia","fcodeName":"lake","adminName1":"Leningrad","lat":"59.56667","fcode":"LK"},{"adminCode1":"06","lng":"39.1839","geonameId":577752,"toponymName":"Ozero Beloye","countryId":"2017370","fcl":"H","population":0,"countryCode":"RU","name":"Ozero Beloye","fclName":"stream, lake, ...","countryName":"Russia","fcodeName":"lake","adminName1":"Arkhangelskaya","lat":"64.176","fcode":"LK"},{"adminCode1":"85","lng":"36.4015","geonameId":577756,"toponymName":"Ozero Beloye","countryId":"2017370","fcl":"H","population":0,"countryCode":"RU","name":"Ozero Beloye","fclName":"stream, lake, ...","countryName":"Russia","fcodeName":"lake","adminName1":"Vologda","lat":"60.4645","fcode":"LK"},{"adminCode1":"60","lng":"28.771","geonameId":577781,"toponymName":"Ozero Beloye","countryId":"2017370","fcl":"H","population":0,"countryCode":"RU","name":"Ozero Beloye","fclName":"stream, lake, ...","countryName":"Russia","fcodeName":"lake","adminName1":"Pskov","lat":"56.335","fcode":"LK"},{"adminCode1":"60","lng":"28.452","geonameId":577782,"toponymName":"Ozero Beloye","countryId":"2017370","fcl":"H","population":0,"countryCode":"RU","name":"Ozero Beloye","fclName":"stream, lake, ...","countryName":"Russia","fcodeName":"lake","adminName1":"Pskov","lat":"56.2092","fcode":"LK"},{"adminCode1":"62","lng":"41.84729","geonameId":577793,"toponymName":"Ozero Beloye","countryId":"2017370","fcl":"H","population":0,"countryCode":"RU","name":"Ozero Beloye","fclName":"stream, lake, ...","countryName":"Russia","fcodeName":"lake","adminName1":"Rjazan","lat":"55.01123","fcode":"LK"},{"adminCode1":"08","lng":"59.4362","geonameId":577794,"toponymName":"Ozero Beloye","countryId":"2017370","fcl":"H","population":0,"countryCode":"RU","name":"Ozero Beloye","fclName":"stream, lake, ...","countryName":"Russia","fcodeName":"lake","adminName1":"Bashkortostan","lat":"54.5377","fcode":"LK"},{"adminCode1":"41","lng":"36.07812","geonameId":577816,"toponymName":"Beloye","countryId":"2017370","fcl":"P","population":0,"countryCode":"RU","name":"Beloye","fclName":"city, village,...","countryName":"Russia","fcodeName":"populated place","adminName1":"Kursk","lat":"51.15454","fcode":"PPL"},{"adminCode1":"07","lng":"29.8957","geonameId":630263,"toponymName":"Ozero Beloye","countryId":"630336","fcl":"H","population":0,"countryCode":"BY","name":"Ozero Beloye","fclName":"stream, lake, ...","countryName":"Belarus","fcodeName":"lake","adminName1":"Vitsyebskaya Voblastsʼ","lat":"55.8276","fcode":"LK"},{"adminCode1":"07","lng":"28.6278","geonameId":630264,"toponymName":"Ozero Beloye","countryId":"630336","fcl":"H","population":0,"countryCode":"BY","name":"Ozero Beloye","fclName":"stream, lake, ...","countryName":"Belarus","fcodeName":"lake","adminName1":"Vitsyebskaya Voblastsʼ","lat":"55.6221","fcode":"LK"},{"adminCode1":"03","lng":"24.1953","geonameId":630265,"toponymName":"Vozyera Byeloye","countryId":"630336","fcl":"H","population":0,"countryCode":"BY","name":"Vozyera Byeloye","fclName":"stream, lake, ...","countryName":"Belarus","fcodeName":"lake","adminName1":"Grodnenskaya","lat":"53.7698","fcode":"LK"},{"adminCode1":"02","lng":"27.6966","geonameId":630267,"toponymName":"Ozero Beloye","countryId":"630336","fcl":"H","population":0,"countryCode":"BY","name":"Ozero Beloye","fclName":"stream, lake, ...","countryName":"Belarus","fcodeName":"lake","adminName1":"Gomel","lat":"52.3372","fcode":"LK"},{"adminCode1":"07","lng":"28.8619","geonameId":630269,"toponymName":"Beloye","countryId":"630336","fcl":"P","population":0,"countryCode":"BY","name":"Beloye","fclName":"city, village,...","countryName":"Belarus","fcodeName":"populated place","adminName1":"Vitsyebskaya Voblastsʼ","lat":"55.1089","fcode":"PPL"},{"adminCode1":"02","lng":"27.6953","geonameId":630270,"toponymName":"Beloye","countryId":"630336","fcl":"P","population":0,"countryCode":"BY","name":"Beloye","fclName":"city, village,...","countryName":"Belarus","fcodeName":"populated place","adminName1":"Gomel","lat":"52.3258","fcode":"PPL"},{"adminCode1":"07","lng":"29.5653","geonameId":630319,"toponymName":"Beloye","countryId":"630336","fcl":"P","population":0,"countryCode":"BY","name":"Beloye","fclName":"city, village,...","countryName":"Belarus","fcodeName":"populated place","adminName1":"Vitsyebskaya Voblastsʼ","lat":"55.7015","fcode":"PPL"},{"adminCode1":"69","lng":"33.2727","geonameId":578228,"toponymName":"Beloye","countryId":"2017370","fcl":"P","population":0,"countryCode":"RU","name":"Beloye","fclName":"city, village,...","countryName":"Russia","fcodeName":"populated place","adminName1":"Smolensk","lat":"53.9025","fcode":"PPL"},{"adminCode1":"56","lng":"37.28744","geonameId":578229,"toponymName":"Beloye","countryId":"2017370","fcl":"P","population":0,"countryCode":"RU","name":"Beloye","fclName":"city, village,...","countryName":"Russia","fcodeName":"populated place","adminName1":"Orjol","lat":"52.13326","fcode":"PPL"},{"adminCode1":"77","lng":"32.19726","geonameId":815571,"toponymName":"Ozero Beloye","countryId":"2017370","fcl":"H","population":0,"countryCode":"RU","name":"Ozero Beloye","fclName":"stream, lake, ...","countryName":"Russia","fcodeName":"lake","adminName1":"Tverskaya","lat":"55.92644","fcode":"LK"},{"adminCode1":"05","lng":"27.9996","geonameId":8020030,"toponymName":"Beloye","countryId":"630336","fcl":"P","population":0,"countryCode":"BY","name":"Beloye","fclName":"city, village,...","countryName":"Belarus","fcodeName":"populated place","adminName1":"Minskaja Voblasts’","lat":"53.5953","fcode":"PPL"},{"adminCode1":"55","lng":"59.6154","geonameId":8061258,"toponymName":"Ozero Beloye","countryId":"2017370","fcl":"H","population":0,"countryCode":"RU","name":"Ozero Beloye","fclName":"stream, lake, ...","countryName":"Russia","fcodeName":"lake","adminName1":"Orenburg","lat":"52.2792","fcode":"LK"},{"adminCode1":"01","lng":"26.6444","geonameId":8161532,"toponymName":"Ozero Beloye","countryId":"630336","fcl":"H","population":0,"countryCode":"BY","name":"Ozero Beloye","fclName":"stream, lake, ...","countryName":"Belarus","fcodeName":"lake","adminName1":"Brestskaya Voblastsʼ","lat":"52.3832","fcode":"LK"},{"adminCode1":"15","lng":"104.5602","geonameId":7862081,"toponymName":"Belu","countryId":"1643084","fcl":"P","population":0,"countryCode":"ID","name":"Belu","fclName":"city, village,...","countryName":"Indonesia","fcodeName":"populated place","adminName1":"Lampung","lat":"-5.48425","fcode":"PPL"},{"adminCode1":"01","lng":"23.7081","geonameId":7865169,"toponymName":"Ozero Beloye","countryId":"630336","fcl":"H","population":0,"countryCode":"BY","name":"Ozero Beloye","fclName":"stream, lake, ...","countryName":"Belarus","fcodeName":"lake","adminName1":"Brestskaya Voblastsʼ","lat":"51.8178","fcode":"LK"},{"adminCode1":"93","lng":"117.28459","geonameId":7842557,"toponymName":"Ozero Beloye","countryId":"2017370","fcl":"H","population":0,"countryCode":"RU","name":"Ozero Beloye","fclName":"stream, lake, ...","countryName":"Russia","fcodeName":"lake","adminName1":"Zabaykalsky","lat":"52.09517","fcode":"LK"},{"adminCode1":"06","lng":"47.0771","geonameId":8254190,"toponymName":"Ozero Beloye","countryId":"2017370","fcl":"H","population":0,"countryCode":"RU","name":"Ozero Beloye","fclName":"stream, lake, ...","countryName":"Russia","fcodeName":"lake","adminName1":"Arkhangelskaya","lat":"64.9017","fcode":"LK"},{"adminCode1":"07","lng":"29.7419","geonameId":8232722,"toponymName":"Ozero Beloye","countryId":"630336","fcl":"H","population":0,"countryCode":"BY","name":"Ozero Beloye","fclName":"stream, lake, ...","countryName":"Belarus","fcodeName":"lake","adminName1":"Vitsyebskaya Voblastsʼ","lat":"55.0137","fcode":"LK"},{"adminCode1":"07","lng":"29.8765","geonameId":8232858,"toponymName":"Ozero Beloye","countryId":"630336","fcl":"H","population":0,"countryCode":"BY","name":"Ozero Beloye","fclName":"stream, lake, ...","countryName":"Belarus","fcodeName":"lake","adminName1":"Vitsyebskaya Voblastsʼ","lat":"55.166","fcode":"LK"},{"adminCode1":"07","lng":"29.3651","geonameId":8232947,"toponymName":"Ozero Beloye","countryId":"630336","fcl":"H","population":0,"countryCode":"BY","name":"Ozero Beloye","fclName":"stream, lake, ...","countryName":"Belarus","fcodeName":"lake","adminName1":"Vitsyebskaya Voblastsʼ","lat":"54.7272","fcode":"LK"},{"adminCode1":"07","lng":"26.8485","geonameId":8217734,"toponymName":"Ozero Beloye","countryId":"630336","fcl":"H","population":0,"countryCode":"BY","name":"Ozero Beloye","fclName":"stream, lake, ...","countryName":"Belarus","fcodeName":"lake","adminName1":"Vitsyebskaya Voblastsʼ","lat":"55.1582","fcode":"LK"},{"adminCode1":"03","lng":"26.1622","geonameId":8217887,"toponymName":"Ozero Beloye","countryId":"630336","fcl":"H","population":0,"countryCode":"BY","name":"Ozero Beloye","fclName":"stream, lake, ...","countryName":"Belarus","fcodeName":"lake","adminName1":"Grodnenskaya","lat":"54.8992","fcode":"LK"}]}