{"totalResultsCount":5,"geonames":[{"adminCode1":"55","lng":"59.6561","geonameId":577897,"toponymName":"Belopol’ye","countryId":"2017370","fcl":"P","population":0,"countryCode":"RU","name":"Belopol'ye","fclName":"city, village,...","countryName":"Russia","fcodeName":"populated place","adminName1":"Orenburg","lat":"51.5593","fcode":"PPL"},{"adminCode1":"21","lng":"34.31287","geonameId":712559,"toponymName":"Bilopillya","countryId":"690791","fcl":"P","population":17824,"countryCode":"UA","name":"Bilopillya","fclName":"city, village,...","countryName":"Ukraine","fcodeName":"populated place","adminName1":"Sumy","lat":"51.15016","fcode":"PPL"},{"adminCode1":"33","lng":"47.7269","geonameId":7512671,"toponymName":"Belopol’ye","countryId":"2017370","fcl":"P","population":0,"countryCode":"RU","name":"Belopol’ye","fclName":"city, village,...","countryName":"Russia","fcodeName":"abandoned populated place","adminName1":"Kirov","lat":"60.7729","fcode":"PPLQ"},{"adminCode1":"76","lng":"37.57614","geonameId":577896,"toponymName":"Belopol’ye","countryId":"2017370","fcl":"P","population":0,"countryCode":"RU","name":"Belopol’ye","fclName":"city, village,...","countryName":"Russia","fcodeName":"populated place","adminName1":"Tula","lat":"54.35223","fcode":"PPL"},{"adminCode1":"67","lng":"47.04783","geonameId":577898,"toponymName":"Belopol’ye","countryId":"2017370","fcl":"P","population":0,"countryCode":"RU","name":"Belopol’ye","fclName":"city, village,...","countryName":"Russia","fcodeName":"populated place","adminName1":"Saratov","lat":"51.4445","fcode":"PPL"}]}