{"totalResultsCount":16,"geonames":[{"countryId":"2017370","adminCode1":"88","countryName":"Russia","fclName":"city, village,...","countryCode":"RU","lng":"39.3917","fcodeName":"populated place","toponymName":"Beloye","fcl":"P","name":"Beloye","fcode":"PPL","geonameId":577806,"lat":"58.3822","adminName1":"Jaroslavl","population":0},{"countryId":"2017370","adminCode1":"77","countryName":"Russia","fclName":"city, village,...","countryCode":"RU","lng":"36.87806","fcodeName":"populated place","toponymName":"Beloye","fcl":"P","name":"Beloye","fcode":"PPL","geonameId":577807,"lat":"57.57361","adminName1":"Tverskaya","population":0},{"countryId":"2017370","adminCode1":"51","countryName":"Russia","fclName":"city, village,...","countryCode":"RU","lng":"42.99299","fcodeName":"populated place","toponymName":"Beloye","fcl":"P","name":"Beloye","fcode":"PPL","geonameId":577808,"lat":"56.79285","adminName1":"Nizjnij Novgorod","population":0},{"countryId":"2017370","adminCode1":"62","countryName":"Russia","fclName":"city, village,...","countryCode":"RU","lng":"40.24036","fcodeName":"populated place","toponymName":"Beloye","fcl":"P","name":"Beloye","fcode":"PPL","geonameId":577810,"lat":"55.28318","adminName1":"Rjazan","population":0},{"countryId":"2017370","adminCode1":"85","countryName":"Russia","fclName":"city, village,...","countryCode":"RU","lng":"38.9359","fcodeName":"populated place","toponymName":"Beloye","fcl":"P","name":"Beloye","fcode":"PPL","geonameId":7494235,"lat":"59.08818","adminName1":"Vologda","population":0},{"countryId":"2017370","adminCode1":"85","countryName":"Russia","fclName":"city, village,...","countryCode":"RU","lng":"39.63053","fcodeName":"populated place","toponymName":"Beloye","fcl":"P","name":"Beloye","fcode":"PPL","geonameId":7495088,"lat":"59.27145","adminName1":"Vologda","population":0},{"countryId":"2017370","adminCode1":"85","countryName":"Russia","fclName":"city, village,...","countryCode":"RU","lng":"39.36777","fcodeName":"populated place","toponymName":"Beloye","fcl":"P","name":"Beloye","fcode":"PPL","geonameId":577803,"lat":"59.07297","adminName1":"Vologda","population":0},{"countryId":"2017370","adminCode1":"85","countryName":"Russia","fclName":"city, village,...","countryCode":"RU","lng":"39.8326","fcodeName":"populated place","toponymName":"Beloye","fcl":"P","name":"Beloye","fcode":"PPL","geonameId":577804,"lat":"59.0487","adminName1":"Vologda","population":0},{"countryId":"2017370","adminCode1":"62","countryName":"Russia","fclName":"city, village,...","countryCode":"RU","lng":"42.43333","fcodeName":"populated place","toponymName":"Beloye","fcl":"P","name":"Beloye","fcode":"PPL","geonameId":577811,"lat":"54.58333","adminName1":"Rjazan","population":0},{"countryId":"2017370","adminCode1":"76","countryName":"Russia","fclName":"city, village,...","countryCode":"RU","lng":"36.3546","fcodeName":"populated place","toponymName":"Beloye","fcl":"P","name":"Beloye","fcode":"PPL","geonameId":577812,"lat":"54.05074","adminName1":"Tula","population":0},{"countryId":"2017370","adminCode1":"56","countryName":"Russia","fclName":"city, village,...","countryCode":"RU","lng":"37.04632","fcodeName":"populated place","toponymName":"Beloye","fcl":"P","name":"Beloye","fcode":"PPL","geonameId":577813,"lat":"52.12864","adminName1":"Orjol","population":0},{"countryId":"2017370","adminCode1":"56","countryName":"Russia","fclName":"city, village,...","countryCode":"RU","lng":"37.13333","fcodeName":"populated place","toponymName":"Beloye","fcl":"P","name":"Beloye","fcode":"PPL","geonameId":577814,"lat":"52.11667","adminName1":"Orjol","population":0},{"countryId":"2017370","adminCode1":"56","countryName":"Russia","fclName":"city, village,...","countryCode":"RU","lng":"37.28744","fcodeName":"populated place","toponymName":"Beloye","fcl":"P","name":"Beloye","fcode":"PPL","geonameId":578229,"lat":"52.13326","adminName1":"Orjol","population":0},{"countryId":"2017370","adminCode1":"06","countryName":"Russia","fclName":"city, village,...","countryCode":"RU","lng":"40.4614","fcodeName":"populated place","toponymName":"Beloye Ozero","fcl":"P","name":"Beloye Ozero","fcode":"PPL","geonameId":6267472,"lat":"62.6008","adminName1":"Arkhangelskaya","population":0},{"countryId":"2017370","adminCode1":"47","countryName":"Russia","fclName":"city, village,...","countryCode":"RU","lng":"38.4852","fcodeName":"populated place","toponymName":"Beloye Ozero","fcl":"P","name":"Beloye Ozero","fcode":"PPL","geonameId":873860,"lat":"55.45258","adminName1":"Moskovskaya","population":0},{"countryId":"2017370","adminCode1":"67","countryName":"Russia","fclName":"city, village,...","countryCode":"RU","lng":"45.21667","fcodeName":"populated place","toponymName":"Beloye Ozero","fcl":"P","name":"Beloye Ozero","fcode":"PPL","geonameId":577738,"lat":"52.03333","adminName1":"Saratov","population":0}]}