{"totalResultsCount":65,"geonames":[{"countryId":"1522867","adminCode1":"15","countryName":"Kazakhstan","fclName":"city, village,...","countryCode":"KZ","lng":"82.97524","fcodeName":"populated place","toponymName":"Beloe","fcl":"P","name":"Beloe","fcode":"PPL","geonameId":1525479,"lat":"48.85756","adminName1":"East Kazakhstan","population":0},{"countryId":"2017370","adminCode1":"01","countryName":"Russia","fclName":"city, village,...","countryCode":"RU","lng":"39.65143","fcodeName":"populated place","toponymName":"Beloye","fcl":"P","name":"Beloye","fcode":"PPL","geonameId":577817,"lat":"45.04832","adminName1":"Adygeya","population":3067},{"countryId":"1522867","adminCode1":"16","countryName":"Kazakhstan","fclName":"city, village,...","countryCode":"KZ","lng":"68.47609","fcodeName":"populated place","toponymName":"Beloye","fcl":"P","name":"Beloe","fcode":"PPL","geonameId":1525476,"lat":"55.06103","adminName1":"Soltüstik Qazaqstan","population":0},{"countryId":"2017370","adminCode1":"63","countryName":"Russia","fclName":"city, village,...","countryCode":"RU","lng":"122.60524","fcodeName":"populated place","toponymName":"Beloye","fcl":"P","name":"Beloye","fcode":"PPL","geonameId":2026883,"lat":"60.5588","adminName1":"Sakha","population":0},{"countryId":"2017370","adminCode1":"40","countryName":"Russia","fclName":"city, village,...","countryCode":"RU","lng":"63.4647","fcodeName":"populated place","toponymName":"Beloye","fcl":"P","name":"Beloye","fcode":"PPL","geonameId":1510441,"lat":"56.4241","adminName1":"Kurgan","population":0},{"countryId":"2017370","adminCode1":"40","countryName":"Russia","fclName":"city, village,...","countryCode":"RU","lng":"64.97417","fcodeName":"populated place","toponymName":"Beloye","fcl":"P","name":"Beloye","fcode":"PPL","geonameId":1510442,"lat":"54.72611","adminName1":"Kurgan","population":0},{"countryId":"2017370","adminCode1":"53","countryName":"Russia","fclName":"city, village,...","countryCode":"RU","lng":"78.46689","fcodeName":"populated place","toponymName":"Beloye","fcl":"P","name":"Beloye","fcode":"PPL","geonameId":1510443,"lat":"53.94066","adminName1":"Novosibirsk","population":0},{"countryId":"2017370","adminCode1":"04","countryName":"Russia","fclName":"city, village,...","countryCode":"RU","lng":"85.33833","fcodeName":"populated place","toponymName":"Beloye","fcl":"P","name":"Beloye","fcode":"PPL","geonameId":1484881,"lat":"51.62333","adminName1":"Altai Krai","population":350},{"countryId":"2017370","adminCode1":"42","countryName":"Russia","fclName":"city, village,...","countryCode":"RU","lng":"30.46145","fcodeName":"populated place","toponymName":"Beloye","fcl":"P","name":"Beloye","fcode":"PPL","geonameId":577805,"lat":"58.80577","adminName1":"Leningrad","population":0},{"countryId":"2017370","adminCode1":"88","countryName":"Russia","fclName":"city, village,...","countryCode":"RU","lng":"39.3917","fcodeName":"populated place","toponymName":"Beloye","fcl":"P","name":"Beloye","fcode":"PPL","geonameId":577806,"lat":"58.3822","adminName1":"Jaroslavl","population":0},{"countryId":"2017370","adminCode1":"77","countryName":"Russia","fclName":"city, village,...","countryCode":"RU","lng":"36.87806","fcodeName":"populated place","toponymName":"Beloye","fcl":"P","name":"Beloye","fcode":"PPL","geonameId":577807,"lat":"57.57361","adminName1":"Tverskaya","population":0},{"countryId":"2017370","adminCode1":"51","countryName":"Russia","fclName":"city, village,...","countryCode":"RU","lng":"42.99299","fcodeName":"populated place","toponymName":"Beloye","fcl":"P","name":"Beloye","fcode":"PPL","geonameId":577808,"lat":"56.79285","adminName1":"Nizjnij Novgorod","population":0},{"countryId":"2017370","adminCode1":"62","countryName":"Russia","fclName":"city, village,...","countryCode":"RU","lng":"40.24036","fcodeName":"populated place","toponymName":"Beloye","fcl":"P","name":"Beloye","fcode":"PPL","geonameId":577810,"lat":"55.28318","adminName1":"Rjazan","population":0},{"countryId":"1522867","adminCode1":"15","countryName":"Kazakhstan","fclName":"city, village,...","countryCode":"KZ","lng":"85.41438","fcodeName":"populated place","toponymName":"Beloe","fcl":"P","name":"Beloe","fcode":"PPL","geonameId":1525478,"lat":"49.36548","adminName1":"East Kazakhstan","population":0},{"countryId":"2017370","adminCode1":"85","countryName":"Russia","fclName":"city, village,...","countryCode":"RU","lng":"38.9359","fcodeName":"populated place","toponymName":"Beloye","fcl":"P","name":"Beloye","fcode":"PPL","geonameId":7494235,"lat":"59.08818","adminName1":"Vologda","population":0},{"countryId":"2017370","adminCode1":"85","countryName":"Russia","fclName":"city, village,...","countryCode":"RU","lng":"39.63053","fcodeName":"populated place","toponymName":"Beloye","fcl":"P","name":"Beloye","fcode":"PPL","geonameId":7495088,"lat":"59.27145","adminName1":"Vologda","population":0},{"countryId":"2017370","adminCode1":"60","countryName":"Russia","fclName":"city, village,...","countryCode":"RU","lng":"29.4466","fcodeName":"populated place","toponymName":"Beloye","fcl":"P","name":"Beloye","fcode":"PPL","geonameId":7599010,"lat":"56.2544","adminName1":"Pskov","population":0},{"countryId":"2017370","adminCode1":"60","countryName":"Russia","fclName":"city, village,...","countryCode":"RU","lng":"29.8225","fcodeName":"populated place","toponymName":"Beloye","fcl":"P","name":"Beloye","fcode":"PPL","geonameId":7599051,"lat":"56.2235","adminName1":"Pskov","population":0},{"countryId":"2017370","adminCode1":"64","countryName":"Russia","fclName":"city, village,...","countryCode":"RU","lng":"142.62383","fcodeName":"populated place","toponymName":"Beloye","fcl":"P","name":"Beloye","fcode":"PPL","geonameId":2126796,"lat":"50.75299","adminName1":"Sakhalin","population":0},{"countryId":"690791","adminCode1":"14","countryName":"Ukraine","fclName":"city, village,...","countryCode":"UA","lng":"39.05051","fcodeName":"populated place","toponymName":"Bile","fcl":"P","name":"Beloye","fcode":"PPL","geonameId":712515,"lat":"48.49523","adminName1":"Luhansk","population":6775},{"countryId":"1522867","adminCode1":"00","countryName":"Kazakhstan","fclName":"city, village,...","countryCode":"KZ","lng":"69.20525","fcodeName":"populated place","toponymName":"Beloye","fcl":"P","name":"Beloye","fcode":"PPL","geonameId":1525477,"lat":"54.93611","adminName1":"","population":0},{"countryId":"2017370","adminCode1":"06","countryName":"Russia","fclName":"city, village,...","countryCode":"RU","lng":"38.05","fcodeName":"populated place","toponymName":"Beloye","fcl":"P","name":"Beloye","fcode":"PPL","geonameId":577800,"lat":"64.53333","adminName1":"Arkhangelskaya","population":0},{"countryId":"2017370","adminCode1":"42","countryName":"Russia","fclName":"city, village,...","countryCode":"RU","lng":"32.99217","fcodeName":"populated place","toponymName":"Beloye","fcl":"P","name":"Beloye","fcode":"PPL","geonameId":577802,"lat":"59.85118","adminName1":"Leningrad","population":0},{"countryId":"2017370","adminCode1":"85","countryName":"Russia","fclName":"city, village,...","countryCode":"RU","lng":"39.36777","fcodeName":"populated place","toponymName":"Beloye","fcl":"P","name":"Beloye","fcode":"PPL","geonameId":577803,"lat":"59.07297","adminName1":"Vologda","population":0},{"countryId":"2017370","adminCode1":"85","countryName":"Russia","fclName":"city, village,...","countryCode":"RU","lng":"39.8326","fcodeName":"populated place","toponymName":"Beloye","fcl":"P","name":"Beloye","fcode":"PPL","geonameId":577804,"lat":"59.0487","adminName1":"Vologda","population":0},{"countryId":"2017370","adminCode1":"62","countryName":"Russia","fclName":"city, village,...","countryCode":"RU","lng":"42.43333","fcodeName":"populated place","toponymName":"Beloye","fcl":"P","name":"Beloye","fcode":"PPL","geonameId":577811,"lat":"54.58333","adminName1":"Rjazan","population":0},{"countryId":"2017370","adminCode1":"76","countryName":"Russia","fclName":"city, village,...","countryCode":"RU","lng":"36.3546","fcodeName":"populated place","toponymName":"Beloye","fcl":"P","name":"Beloye","fcode":"PPL","geonameId":577812,"lat":"54.05074","adminName1":"Tula","population":0},{"countryId":"2017370","adminCode1":"56","countryName":"Russia","fclName":"city, village,...","countryCode":"RU","lng":"37.04632","fcodeName":"populated place","toponymName":"Beloye","fcl":"P","name":"Beloye","fcode":"PPL","geonameId":577813,"lat":"52.12864","adminName1":"Orjol","population":0},{"countryId":"2017370","adminCode1":"56","countryName":"Russia","fclName":"city, village,...","countryCode":"RU","lng":"37.13333","fcodeName":"populated place","toponymName":"Beloye","fcl":"P","name":"Beloye","fcode":"PPL","geonameId":577814,"lat":"52.11667","adminName1":"Orjol","population":0},{"countryId":"630336","adminCode1":"07","countryName":"Belarus","fclName":"city, village,...","countryCode":"BY","lng":"29.8695","fcodeName":"populated place","toponymName":"Beloye","fcl":"P","name":"Beloye","fcode":"PPL","geonameId":630338,"lat":"55.1647","adminName1":"Vitsyebskaya Voblastsʼ","population":0},{"countryId":"2017370","adminCode1":"40","countryName":"Russia","fclName":"city, village,...","countryCode":"RU","lng":"64.42083","fcodeName":"populated place","toponymName":"Maloye Beloye","fcl":"P","name":"Maloye Beloye","fcode":"PPL","geonameId":1499762,"lat":"55.42556","adminName1":"Kurgan","population":0},{"countryId":"2017370","adminCode1":"04","countryName":"Russia","fclName":"city, village,...","countryCode":"RU","lng":"84.7324","fcodeName":"populated place","toponymName":"Beloye","fcl":"P","name":"Beloye","fcode":"PPL","geonameId":1510444,"lat":"52.9179","adminName1":"Altai Krai","population":0},{"countryId":"2017370","adminCode1":"41","countryName":"Russia","fclName":"city, village,...","countryCode":"RU","lng":"36.07812","fcodeName":"populated place","toponymName":"Beloye","fcl":"P","name":"Beloye","fcode":"PPL","geonameId":577816,"lat":"51.15454","adminName1":"Kursk","population":0},{"countryId":"630336","adminCode1":"07","countryName":"Belarus","fclName":"city, village,...","countryCode":"BY","lng":"29.5653","fcodeName":"populated place","toponymName":"Beloye","fcl":"P","name":"Beloye","fcode":"PPL","geonameId":630319,"lat":"55.7015","adminName1":"Vitsyebskaya Voblastsʼ","population":0},{"countryId":"2017370","adminCode1":"69","countryName":"Russia","fclName":"city, village,...","countryCode":"RU","lng":"33.2727","fcodeName":"populated place","toponymName":"Beloye","fcl":"P","name":"Beloye","fcode":"PPL","geonameId":578228,"lat":"53.9025","adminName1":"Smolensk","population":0},{"countryId":"2017370","adminCode1":"56","countryName":"Russia","fclName":"city, village,...","countryCode":"RU","lng":"37.28744","fcodeName":"populated place","toponymName":"Beloye","fcl":"P","name":"Beloye","fcode":"PPL","geonameId":578229,"lat":"52.13326","adminName1":"Orjol","population":0},{"countryId":"630336","adminCode1":"07","countryName":"Belarus","fclName":"city, village,...","countryCode":"BY","lng":"28.8619","fcodeName":"populated place","toponymName":"Beloye","fcl":"P","name":"Beloye","fcode":"PPL","geonameId":630269,"lat":"55.1089","adminName1":"Vitsyebskaya Voblastsʼ","population":0},{"countryId":"630336","adminCode1":"02","countryName":"Belarus","fclName":"city, village,...","countryCode":"BY","lng":"27.6953","fcodeName":"populated place","toponymName":"Beloye","fcl":"P","name":"Beloye","fcode":"PPL","geonameId":630270,"lat":"52.3258","adminName1":"Gomel","population":0},{"countryId":"630336","adminCode1":"05","countryName":"Belarus","fclName":"city, village,...","countryCode":"BY","lng":"27.9996","fcodeName":"populated place","toponymName":"Beloye","fcl":"P","name":"Beloye","fcode":"PPL","geonameId":8020030,"lat":"53.5953","adminName1":"Minskaja Voblasts’","population":0},{"countryId":"630336","adminCode1":"07","countryName":"Belarus","fclName":"city, village,...","countryCode":"BY","lng":"27.2575","fcodeName":"populated place","toponymName":"Beloye","fcl":"P","name":"Beloye","fcode":"PPL","geonameId":8221693,"lat":"55.1519","adminName1":"Vitsyebskaya Voblastsʼ","population":0},{"countryId":"630336","adminCode1":"05","countryName":"Belarus","fclName":"city, village,...","countryCode":"BY","lng":"27.5874","fcodeName":"populated place","toponymName":"Beloye","fcl":"P","name":"Beloye","fcode":"PPL","geonameId":8247071,"lat":"54.4629","adminName1":"Minskaja Voblasts’","population":0},{"countryId":"630336","adminCode1":"05","countryName":"Belarus","fclName":"city, village,...","countryCode":"BY","lng":"28.8052","fcodeName":"populated place","toponymName":"Beloye","fcl":"P","name":"Beloye","fcode":"PPL","geonameId":8248039,"lat":"54.3976","adminName1":"Minskaja Voblasts’","population":0},{"countryId":"630336","adminCode1":"05","countryName":"Belarus","fclName":"city, village,...","countryCode":"BY","lng":"28.8153","fcodeName":"populated place","toponymName":"Beloye","fcl":"P","name":"Beloye","fcode":"PPL","geonameId":8248040,"lat":"54.4084","adminName1":"Minskaja Voblasts’","population":0},{"countryId":"2017370","adminCode1":"69","countryName":"Russia","fclName":"city, village,...","countryCode":"RU","lng":"32.47422","fcodeName":"populated place","toponymName":"Beloye","fcl":"P","name":"Beloye","fcode":"PPL","geonameId":7092519,"lat":"54.4362","adminName1":"Smolensk","population":0},{"countryId":"2017370","adminCode1":"06","countryName":"Russia","fclName":"city, village,...","countryCode":"RU","lng":"40.4614","fcodeName":"populated place","toponymName":"Beloye Ozero","fcl":"P","name":"Beloye Ozero","fcode":"PPL","geonameId":6267472,"lat":"62.6008","adminName1":"Arkhangelskaya","population":0},{"countryId":"2017370","adminCode1":"49","countryName":"Russia","fclName":"city, village,...","countryCode":"RU","lng":"32.265","fcodeName":"populated place","toponymName":"Beloye More","fcl":"P","name":"Beloye More","fcode":"PPL","geonameId":871270,"lat":"67.07944","adminName1":"Murmansk","population":0},{"countryId":"2017370","adminCode1":"06","countryName":"Russia","fclName":"city, village,...","countryCode":"RU","lng":"39.8455","fcodeName":"populated place","toponymName":"Beloye Ozero","fcl":"P","name":"Beloye Ozero","fcode":"PPL","geonameId":577734,"lat":"64.2655","adminName1":"Arkhangelskaya","population":0},{"countryId":"2017370","adminCode1":"67","countryName":"Russia","fclName":"city, village,...","countryCode":"RU","lng":"45.00283","fcodeName":"populated place","toponymName":"Beloye Ozero","fcl":"P","name":"Beloye Ozero","fcode":"PPL","geonameId":577739,"lat":"51.24781","adminName1":"Saratov","population":0},{"countryId":"2017370","adminCode1":"08","countryName":"Russia","fclName":"city, village,...","countryCode":"RU","lng":"56.23401","fcodeName":"populated place","toponymName":"Beloye Ozero","fcl":"P","name":"Beloye Ozero","fcode":"PPL","geonameId":865513,"lat":"53.99178","adminName1":"Bashkortostan","population":0},{"countryId":"2017370","adminCode1":"13","countryName":"Russia","fclName":"city, village,...","countryCode":"RU","lng":"60.3752","fcodeName":"populated place","toponymName":"Beloye Ozero","fcl":"P","name":"Beloye Ozero","fcode":"PPL","geonameId":1545398,"lat":"55.6219","adminName1":"Chelyabinsk","population":0},{"countryId":"2017370","adminCode1":"40","countryName":"Russia","fclName":"city, village,...","countryCode":"RU","lng":"62.7297","fcodeName":"populated place","toponymName":"Beloye Ozero","fcl":"P","name":"Beloye Ozero","fcode":"PPL","geonameId":1541013,"lat":"55.0581","adminName1":"Kurgan","population":0},{"countryId":"2017370","adminCode1":"53","countryName":"Russia","fclName":"city, village,...","countryCode":"RU","lng":"84.13333","fcodeName":"populated place","toponymName":"Beloye Ozero","fcl":"P","name":"Beloye Ozero","fcode":"PPL","geonameId":1510426,"lat":"55.88333","adminName1":"Novosibirsk","population":0},{"countryId":"2017370","adminCode1":"40","countryName":"Russia","fclName":"city, village,...","countryCode":"RU","lng":"62.7","fcodeName":"populated place","toponymName":"Beloye Ozero","fcl":"P","name":"Beloye Ozero","fcode":"PPL","geonameId":1510427,"lat":"54.96667","adminName1":"Kurgan","population":0},{"countryId":"2017370","adminCode1":"47","countryName":"Russia","fclName":"city, village,...","countryCode":"RU","lng":"38.4852","fcodeName":"populated place","toponymName":"Beloye Ozero","fcl":"P","name":"Beloye Ozero","fcode":"PPL","geonameId":873860,"lat":"55.45258","adminName1":"Moskovskaya","population":0},{"countryId":"2017370","adminCode1":"90","countryName":"Russia","fclName":"city, village,...","countryCode":"RU","lng":"56.93088","fcodeName":"populated place","toponymName":"Beloye Ozero","fcl":"P","name":"Beloye Ozero","fcode":"PPL","geonameId":874994,"lat":"57.1086","adminName1":"Perm","population":0},{"countryId":"2017370","adminCode1":"25","countryName":"Russia","fclName":"city, village,...","countryCode":"RU","lng":"33.84389","fcodeName":"populated place","toponymName":"Beloye Pole","fcl":"P","name":"Beloye Pole","fcode":"PPL","geonameId":577731,"lat":"53.99194","adminName1":"Kaluga","population":0},{"countryId":"2017370","adminCode1":"16","countryName":"Russia","fclName":"city, village,...","countryCode":"RU","lng":"47.73799","fcodeName":"populated place","toponymName":"Beloye Ozero","fcl":"P","name":"Beloye Ozero","fcode":"PPL","geonameId":577735,"lat":"55.17455","adminName1":"Chuvashia","population":0},{"countryId":"2017370","adminCode1":"10","countryName":"Russia","fclName":"city, village,...","countryCode":"RU","lng":"33.55583","fcodeName":"populated place","toponymName":"Beloye Ozero","fcl":"P","name":"Beloye Ozero","fcode":"PPL","geonameId":577737,"lat":"53.23944","adminName1":"Brjansk","population":0},{"countryId":"2017370","adminCode1":"67","countryName":"Russia","fclName":"city, village,...","countryCode":"RU","lng":"45.21667","fcodeName":"populated place","toponymName":"Beloye Ozero","fcl":"P","name":"Beloye Ozero","fcode":"PPL","geonameId":577738,"lat":"52.03333","adminName1":"Saratov","population":0},{"countryId":"2017370","adminCode1":"24","countryName":"Russia","fclName":"city, village,...","countryCode":"RU","lng":"46.76775","fcodeName":"populated place","toponymName":"Beloye Ozero","fcl":"P","name":"Beloye Ozero","fcode":"PPL","geonameId":577740,"lat":"45.21084","adminName1":"Kalmykiya","population":0},{"countryId":"2017370","adminCode1":"04","countryName":"Russia","fclName":"city, village,...","countryCode":"RU","lng":"82.93441","fcodeName":"populated place","toponymName":"Ust’-Beloye","fcl":"P","name":"Ust'-Beloye","fcode":"PPL","geonameId":1488247,"lat":"51.46372","adminName1":"Altai Krai","population":0},{"countryId":"2017370","adminCode1":"81","countryName":"Russia","fclName":"city, village,...","countryCode":"RU","lng":"47.57715","fcodeName":"populated place","toponymName":"Beloye Ozero","fcl":"P","name":"Beloye Ozero","fcode":"PPL","geonameId":577736,"lat":"53.85773","adminName1":"Ulyanovsk","population":0},{"countryId":"630336","adminCode1":"07","countryName":"Belarus","fclName":"city, village,...","countryCode":"BY","lng":"28.6331","fcodeName":"populated place","toponymName":"Sel’tso-Beloye","fcl":"P","name":"Sel’tso-Beloye","fcode":"PPL","geonameId":622308,"lat":"55.6627","adminName1":"Vitsyebskaya Voblastsʼ","population":0},{"countryId":"630336","adminCode1":"05","countryName":"Belarus","fclName":"city, village,...","countryCode":"BY","lng":"27.2382","fcodeName":"populated place","toponymName":"Beloye Boloto","fcl":"P","name":"Beloye Boloto","fcode":"PPL","geonameId":8146493,"lat":"52.9344","adminName1":"Minskaja Voblasts’","population":0},{"countryId":"2017370","adminCode1":"81","countryName":"Russia","fclName":"city, village,...","countryCode":"RU","lng":"46.9806","fcodeName":"populated place","toponymName":"Beloye Ozero","fcl":"P","name":"Beloye Ozero","fcode":"PPL","geonameId":8304150,"lat":"53.0217","adminName1":"Ulyanovsk","population":0}]}