{"totalResultsCount":5,"geonames":[{"adminCode1":"86","lng":"42.08494","geonameId":572525,"toponymName":"Borisoglebsk","countryId":"2017370","fcl":"P","population":68597,"countryCode":"RU","name":"Borisoglebsk","fclName":"city, village,...","countryName":"Russia","fcodeName":"populated place","adminName1":"Voronezj","lat":"51.36713","fcode":"PPL"},{"adminCode1":"88","lng":"37.81667","geonameId":572524,"toponymName":"Borisoglebsk","countryId":"2017370","fcl":"P","population":0,"countryCode":"RU","name":"Borisoglebsk","fclName":"city, village,...","countryName":"Russia","fcodeName":"populated place","adminName1":"Jaroslavl","lat":"58.36667","fcode":"PPL"},{"adminCode1":"49","lng":"30.14418","geonameId":572523,"toponymName":"Borisoglebsk","countryId":"2017370","fcl":"P","population":0,"countryCode":"RU","name":"Borisoglebsk","fclName":"city, village,...","countryName":"Russia","fcodeName":"populated place","adminName1":"Murmansk","lat":"69.65044","fcode":"PPL"},{"adminCode1":"88","lng":"39.5406","geonameId":480122,"toponymName":"Tutayev","countryId":"2017370","fcl":"P","population":43828,"countryCode":"RU","name":"Tutayev","fclName":"city, village,...","countryName":"Russia","fcodeName":"populated place","adminName1":"Jaroslavl","lat":"57.88529","fcode":"PPL"},{"adminCode1":"86","lng":"42.10778","geonameId":797434,"toponymName":"Stantsiya Borisoglebsk","countryId":"2017370","fcl":"S","population":0,"countryCode":"RU","name":"Stantsiya Borisoglebsk","fclName":"spot, building, farm","countryName":"Russia","fcodeName":"railroad station","adminName1":"Voronezj","lat":"51.35472","fcode":"RSTN"}]}