{"totalResultsCount":208,"geonames":[{"adminCode1":"27","lng":"-50.49252","geonameId":6322147,"toponymName":"Borá","countryId":"3469034","fcl":"A","population":805,"countryCode":"BR","name":"Borá","fclName":"country, state, region,...","countryName":"Brazil","fcodeName":"second-order administrative division","adminName1":"São Paulo","lat":"-22.23881","fcode":"ADM2"},{"adminCode1":"02","lng":"-151.74067","geonameId":4034582,"toponymName":"Bora-Bora","countryId":"4030656","fcl":"T","population":0,"countryCode":"PF","name":"Bora Bora","fclName":"mountain,hill,rock,... ","countryName":"French Polynesia","fcodeName":"island","adminName1":"Îles Sous-le-Vent","lat":"-16.49667","fcode":"ISL"},{"adminCode1":"02","lng":"-151.75129","geonameId":6299965,"toponymName":"Bora-Bora Airport","countryId":"4030656","fcl":"S","population":0,"countryCode":"PF","name":"Bora Bora Airport","fclName":"spot, building, farm","countryName":"French Polynesia","fcodeName":"airport","adminName1":"Îles Sous-le-Vent","lat":"-16.44438","fcode":"AIRP"},{"adminCode1":"53","lng":"39.28333","geonameId":341714,"toponymName":"Bora","countryId":"337996","fcl":"T","population":0,"countryCode":"ET","name":"Bora","fclName":"mountain,hill,rock,... ","countryName":"Ethiopia","fcodeName":"mountain","adminName1":"Tigray","lat":"12.95","fcode":"MT"},{"adminCode1":"79","lng":"91.13333","geonameId":1509003,"toponymName":"Bora-Tayga","countryId":"2017370","fcl":"P","population":0,"countryCode":"RU","name":"Bora-Tayga","fclName":"city, village,...","countryName":"Russia","fcodeName":"populated place","adminName1":"Tyva","lat":"51.4","fcode":"PPL"},{"adminCode1":"21","lng":"23.6644","geonameId":8394174,"toponymName":"Bora","countryId":"798549","fcl":"T","population":0,"countryCode":"RO","name":"Bora","fclName":"mountain,hill,rock,... ","countryName":"Romania","fcodeName":"peak","adminName1":"Hunedoara","lat":"45.39515","fcode":"PK"},{"adminCode1":"01","lng":"69.99444","geonameId":1452955,"toponymName":"Bora","countryId":"1168579","fcl":"L","population":0,"countryCode":"PK","name":"Bora","fclName":"parks,area, ...","countryName":"Pakistan","fcodeName":"tribal area","adminName1":"Federally Administered Tribal Areas","lat":"33.13417","fcode":"TRB"},{"adminCode1":"09","lng":"13.1457","geonameId":9237065,"toponymName":"Børa","countryId":"3144096","fcl":"T","population":0,"countryCode":"NO","name":"Børa","fclName":"mountain,hill,rock,... ","countryName":"Norway","fcodeName":"hill","adminName1":"Nordland","lat":"68.08048","fcode":"HLL"},{"adminCode1":"79","lng":"91.83333","geonameId":1509006,"toponymName":"Bora-Khol’","countryId":"2017370","fcl":"P","population":0,"countryCode":"RU","name":"Bora-Khol'","fclName":"city, village,...","countryName":"Russia","fcodeName":"populated place","adminName1":"Tyva","lat":"51.33333","fcode":"PPL"},{"adminCode1":"03","lng":"120.63222","geonameId":8356076,"toponymName":"Bora","countryId":"1694008","fcl":"P","population":0,"countryCode":"PH","name":"Bora","fclName":"city, village,...","countryName":"Philippines","fcodeName":"populated place","adminName1":"Central Luzon","lat":"15.49723","fcode":"PPL"},{"adminCode1":"24","lng":"45.62806","geonameId":498679,"toponymName":"Sarasyn-Bora","countryId":"2017370","fcl":"P","population":0,"countryCode":"RU","name":"Sarasyn-Bora","fclName":"city, village,...","countryName":"Russia","fcodeName":"populated place","adminName1":"Kalmykiya","lat":"47.14417","fcode":"PPL"},{"adminCode1":"79","lng":"91.7","geonameId":1509004,"toponymName":"Bora-Shay","countryId":"2017370","fcl":"P","population":0,"countryCode":"RU","name":"Bora-Shay","fclName":"city, village,...","countryName":"Russia","fcodeName":"populated place","adminName1":"Tyva","lat":"50.75","fcode":"PPL"},{"adminCode1":"51","lng":"38.35","geonameId":341717,"toponymName":"Bora","countryId":"337996","fcl":"P","population":0,"countryCode":"ET","name":"Bora","fclName":"city, village,...","countryName":"Ethiopia","fcodeName":"populated place","adminName1":"Oromiya","lat":"9.1","fcode":"PPL"},{"adminCode1":"00","lng":"-0.13333","geonameId":2302693,"toponymName":"Bora","countryId":"2300660","fcl":"P","population":0,"countryCode":"GH","name":"Bora","fclName":"city, village,...","countryName":"Ghana","fcodeName":"populated place","adminName1":"","lat":"8.31667","fcode":"PPL"},{"adminCode1":"01","lng":"70.01771","geonameId":1340506,"toponymName":"Bora Khel","countryId":"1168579","fcl":"L","population":0,"countryCode":"PK","name":"Bora Khel","fclName":"parks,area, ...","countryName":"Pakistan","fcodeName":"tribal area","adminName1":"Federally Administered Tribal Areas","lat":"33.01315","fcode":"TRB"},{"adminCode1":"13","lng":"77.64028","geonameId":1281609,"toponymName":"Bora","countryId":"1814991","fcl":"P","population":0,"countryCode":"CN","name":"Bora","fclName":"city, village,...","countryName":"China","fcodeName":"populated place","adminName1":"Xinjiang Uygur Zizhiqu","lat":"37.60889","fcode":"PPL"},{"adminCode1":"07","lng":"5.16542","geonameId":9152597,"toponymName":"Børa","countryId":"3144096","fcl":"T","population":0,"countryCode":"NO","name":"Børa","fclName":"mountain,hill,rock,... ","countryName":"Norway","fcodeName":"cliff(s)","adminName1":"Hordaland","lat":"60.52208","fcode":"CLF"},{"adminCode1":"15","lng":"5.31188","geonameId":9208348,"toponymName":"Børa","countryId":"3144096","fcl":"T","population":0,"countryCode":"NO","name":"Børa","fclName":"mountain,hill,rock,... ","countryName":"Norway","fcodeName":"hill","adminName1":"Sogn og Fjordane","lat":"61.66122","fcode":"HLL"},{"adminCode1":"09","lng":"14.64952","geonameId":9237778,"toponymName":"Børa","countryId":"3144096","fcl":"T","population":0,"countryCode":"NO","name":"Børa","fclName":"mountain,hill,rock,... ","countryName":"Norway","fcodeName":"hill","adminName1":"Nordland","lat":"68.24602","fcode":"HLL"},{"adminCode1":"14","lng":"6.71045","geonameId":9247883,"toponymName":"Børa","countryId":"3144096","fcl":"T","population":0,"countryCode":"NO","name":"Børa","fclName":"mountain,hill,rock,... ","countryName":"Norway","fcodeName":"hill","adminName1":"Rogaland","lat":"59.54426","fcode":"HLL"},{"adminCode1":"09","lng":"15.57312","geonameId":9242444,"toponymName":"Børa","countryId":"3144096","fcl":"T","population":0,"countryCode":"NO","name":"Børa","fclName":"mountain,hill,rock,... ","countryName":"Norway","fcodeName":"hill","adminName1":"Nordland","lat":"69.09999","fcode":"HLL"},{"adminCode1":"05","lng":"22.74992","geonameId":9245235,"toponymName":"Børa","countryId":"3144096","fcl":"T","population":0,"countryCode":"NO","name":"Børa","fclName":"mountain,hill,rock,... ","countryName":"Norway","fcodeName":"hill","adminName1":"Finnmark","lat":"70.62951","fcode":"HLL"},{"adminCode1":"08","lng":"5.53731","geonameId":9350917,"toponymName":"Børa","countryId":"3144096","fcl":"T","population":0,"countryCode":"NO","name":"Børa","fclName":"mountain,hill,rock,... ","countryName":"Norway","fcodeName":"hill","adminName1":"Møre og Romsdal","lat":"62.37062","fcode":"HLL"},{"adminCode1":"09","lng":"14.78685","geonameId":9398533,"toponymName":"Børa","countryId":"3144096","fcl":"T","population":0,"countryCode":"NO","name":"Børa","fclName":"mountain,hill,rock,... ","countryName":"Norway","fcodeName":"hill","adminName1":"Nordland","lat":"67.15953","fcode":"HLL"},{"adminCode1":"07","lng":"5.05149","geonameId":9365724,"toponymName":"Børa","countryId":"3144096","fcl":"T","population":0,"countryCode":"NO","name":"Børa","fclName":"mountain,hill,rock,... ","countryName":"Norway","fcodeName":"hill","adminName1":"Hordaland","lat":"59.99033","fcode":"HLL"},{"adminCode1":"53","lng":"39.4","geonameId":341715,"toponymName":"Bora","countryId":"337996","fcl":"L","population":0,"countryCode":"ET","name":"Bora","fclName":"parks,area, ...","countryName":"Ethiopia","fcodeName":"locality","adminName1":"Tigray","lat":"12.96667","fcode":"LCTY"},{"adminCode1":"46","lng":"40.05","geonameId":341716,"toponymName":"Bora","countryId":"337996","fcl":"P","population":0,"countryCode":"ET","name":"Bora","fclName":"city, village,...","countryName":"Ethiopia","fcodeName":"populated place","adminName1":"Amhara","lat":"10.73333","fcode":"PPL"},{"adminCode1":"51","lng":"39.13333","geonameId":341718,"toponymName":"Bora","countryId":"337996","fcl":"P","population":0,"countryCode":"ET","name":"Bora","fclName":"city, village,...","countryName":"Ethiopia","fcodeName":"populated place","adminName1":"Oromiya","lat":"8.4","fcode":"PPL"},{"adminCode1":"09","lng":"26.1804","geonameId":377238,"toponymName":"Bora","countryId":"7909807","fcl":"P","population":0,"countryCode":"SS","name":"Bora","fclName":"city, village,...","countryName":"South Sudan","fcodeName":"populated place","adminName1":"Western Bahr al Ghazal","lat":"8.81819","fcode":"PPL"},{"adminCode1":"01","lng":"30.73972","geonameId":377239,"toponymName":"Bora","countryId":"7909807","fcl":"P","population":0,"countryCode":"SS","name":"Bora","fclName":"city, village,...","countryName":"South Sudan","fcodeName":"populated place","adminName1":"Central Equatoria","lat":"3.89898","fcode":"PPL"},{"adminCode1":"09","lng":"41.2","geonameId":63985,"toponymName":"Bora","countryId":"51537","fcl":"P","population":0,"countryCode":"SO","name":"Bora","fclName":"city, village,...","countryName":"Somalia","fcodeName":"populated place","adminName1":"Lower Juba","lat":"-0.98333","fcode":"PPL"},{"adminCode1":"K","lng":"-10.08333","geonameId":2422787,"toponymName":"Bora","countryId":"2420477","fcl":"P","population":0,"countryCode":"GN","name":"Bora","fclName":"city, village,...","countryName":"Guinea","fcodeName":"populated place","adminName1":"Kankan","lat":"10.23333","fcode":"PPL"},{"adminCode1":"00","lng":"-14.66667","geonameId":2374648,"toponymName":"Borá","countryId":"2372248","fcl":"P","population":0,"countryCode":"GW","name":"Borá","fclName":"city, village,...","countryName":"Guinea-Bissau","fcodeName":"populated place","adminName1":"","lat":"11.91667","fcode":"PPL"},{"adminCode1":"13","lng":"13.05","geonameId":2233628,"toponymName":"Bora","countryId":"2233387","fcl":"P","population":0,"countryCode":"CM","name":"Bora","fclName":"city, village,...","countryName":"Cameroon","fcodeName":"populated place","adminName1":"North Province","lat":"8.61667","fcode":"PPL"},{"adminCode1":"06","lng":"15.21495","geonameId":2434889,"toponymName":"Bora","countryId":"2434508","fcl":"P","population":0,"countryCode":"TD","name":"Bora","fclName":"city, village,...","countryName":"Chad","fcodeName":"populated place","adminName1":"Kanem","lat":"14.07242","fcode":"PPL"},{"adminCode1":"02","lng":"143.93333","geonameId":2099138,"toponymName":"Bora","countryId":"2088628","fcl":"P","population":0,"countryCode":"PG","name":"Bora","fclName":"city, village,...","countryName":"Papua New Guinea","fcodeName":"populated place","adminName1":"Gulf","lat":"-7.93333","fcode":"PPL"},{"adminCode1":"04","lng":"74.09572","geonameId":1412783,"toponymName":"Bora","countryId":"1168579","fcl":"P","population":0,"countryCode":"PK","name":"Bora","fclName":"city, village,...","countryName":"Pakistan","fcodeName":"populated place","adminName1":"Punjab","lat":"32.64149","fcode":"PPL"},{"adminCode1":"04","lng":"72.51365","geonameId":1341519,"toponymName":"Bora","countryId":"1168579","fcl":"P","population":0,"countryCode":"PK","name":"Bora","fclName":"city, village,...","countryName":"Pakistan","fcodeName":"populated place","adminName1":"Punjab","lat":"33.25295","fcode":"PPL"},{"adminCode1":"35","lng":"76.81175","geonameId":1275314,"toponymName":"Bora","countryId":"1269750","fcl":"P","population":0,"countryCode":"IN","name":"Bora","fclName":"city, village,...","countryName":"India","fcodeName":"populated place","adminName1":"Madhya Pradesh","lat":"23.65834","fcode":"PPL"},{"adminCode1":"03","lng":"48.23333","geonameId":1065644,"toponymName":"Bora","countryId":"1062947","fcl":"T","population":0,"countryCode":"MG","name":"Bora","fclName":"mountain,hill,rock,... ","countryName":"Madagascar","fcodeName":"mountain","adminName1":"MG.03","lat":"-14.9","fcode":"MT"},{"adminCode1":"02","lng":"21.2","geonameId":244801,"toponymName":"Bora","countryId":"2434508","fcl":"P","population":0,"countryCode":"TD","name":"Bora","fclName":"city, village,...","countryName":"Chad","fcodeName":"populated place","adminName1":"Biltine","lat":"14.46667","fcode":"PPL"},{"adminCode1":"27","lng":"-50.53444","geonameId":3469189,"toponymName":"Borá","countryId":"3469034","fcl":"P","population":0,"countryCode":"BR","name":"Borá","fclName":"city, village,...","countryName":"Brazil","fcodeName":"populated place","adminName1":"São Paulo","lat":"-22.26972","fcode":"PPL"},{"adminCode1":"13","lng":"-46.1","geonameId":3405052,"toponymName":"Borá","countryId":"3469034","fcl":"P","population":0,"countryCode":"BR","name":"Borá","fclName":"city, village,...","countryName":"Brazil","fcodeName":"populated place","adminName1":"Maranhão","lat":"-9.83333","fcode":"PPL"},{"adminCode1":"04","lng":"74.99745","geonameId":7465535,"toponymName":"Bora","countryId":"1168579","fcl":"P","population":0,"countryCode":"PK","name":"Bora","fclName":"city, village,...","countryName":"Pakistan","fcodeName":"populated place","adminName1":"Punjab","lat":"32.31792","fcode":"PPL"},{"adminCode1":"24","lng":"7.61429","geonameId":6998425,"toponymName":"Bora","countryId":"2328926","fcl":"P","population":0,"countryCode":"NG","name":"Bora","fclName":"city, village,...","countryName":"Nigeria","fcodeName":"populated place","adminName1":"Katsina","lat":"12.81398","fcode":"PPL"},{"adminCode1":"47","lng":"125.42458","geonameId":1864687,"toponymName":"Bora","countryId":"1861060","fcl":"P","population":0,"countryCode":"JP","name":"Bora","fclName":"city, village,...","countryName":"Japan","fcodeName":"populated locality","adminName1":"Okinawa","lat":"24.73341","fcode":"PPLL"},{"adminCode1":"21","lng":"119.9434","geonameId":1648165,"toponymName":"Bora","countryId":"1643084","fcl":"P","population":0,"countryCode":"ID","name":"Bora","fclName":"city, village,...","countryName":"Indonesia","fcodeName":"populated place","adminName1":"Central Sulawesi","lat":"-1.0487","fcode":"PPL"},{"adminCode1":"30","lng":"40.86667","geonameId":200280,"toponymName":"Bora Imani","countryId":"192950","fcl":"P","population":0,"countryCode":"KE","name":"Bora Imani","fclName":"city, village,...","countryName":"Kenya","fcodeName":"populated place","adminName1":"Lamu","lat":"-2.2","fcode":"PPL"},{"adminCode1":"58","lng":"-8.58333","geonameId":3127825,"toponymName":"Bora","countryId":"2510769","fcl":"P","population":0,"countryCode":"ES","name":"Bora","fclName":"city, village,...","countryName":"Spain","fcodeName":"populated place","adminName1":"Galicia","lat":"42.43333","fcode":"PPL"},{"adminCode1":"21","lng":"119.921","geonameId":7385407,"toponymName":"Bora","countryId":"1643084","fcl":"P","population":0,"countryCode":"ID","name":"Bora","fclName":"city, village,...","countryName":"Indonesia","fcodeName":"populated place","adminName1":"Central Sulawesi","lat":"-1.2311","fcode":"PPL"},{"adminCode1":"18","lng":"122.3637","geonameId":7574383,"toponymName":"Bora","countryId":"1643084","fcl":"P","population":0,"countryCode":"ID","name":"Bora","fclName":"city, village,...","countryName":"Indonesia","fcodeName":"populated place","adminName1":"East Nusa Tenggara","lat":"-8.7145","fcode":"PPL"},{"adminCode1":"18","lng":"122.2482","geonameId":7429835,"toponymName":"Bora","countryId":"1643084","fcl":"P","population":0,"countryCode":"ID","name":"Bora","fclName":"city, village,...","countryName":"Indonesia","fcodeName":"populated place","adminName1":"East Nusa Tenggara","lat":"-8.7364","fcode":"PPL"},{"adminCode1":"18","lng":"123.8273","geonameId":8423469,"toponymName":"Bora","countryId":"1643084","fcl":"P","population":0,"countryCode":"ID","name":"Bora","fclName":"city, village,...","countryName":"Indonesia","fcodeName":"populated place","adminName1":"East Nusa Tenggara","lat":"-8.1978","fcode":"PPL"},{"adminCode1":"18","lng":"121.843","geonameId":8377960,"toponymName":"Bora","countryId":"1643084","fcl":"P","population":0,"countryCode":"ID","name":"Bora","fclName":"city, village,...","countryName":"Indonesia","fcodeName":"populated place","adminName1":"East Nusa Tenggara","lat":"-10.4928","fcode":"PPL"},{"adminCode1":"27","lng":"129.7643","geonameId":1864686,"toponymName":"Bora Zaki","countryId":"1861060","fcl":"T","population":0,"countryCode":"JP","name":"Bora Zaki","fclName":"mountain,hill,rock,... ","countryName":"Japan","fcodeName":"point","adminName1":"Nagasaki","lat":"33.02124","fcode":"PT"},{"adminCode1":"04","lng":"42.97972","geonameId":223045,"toponymName":"Gôma Bôra","countryId":"223816","fcl":"T","population":0,"countryCode":"DJ","name":"Gôma Bôra","fclName":"mountain,hill,rock,... ","countryName":"Djibouti","fcodeName":"mountain","adminName1":"Obock","lat":"11.895","fcode":"MT"},{"adminCode1":"05","lng":"25.67258","geonameId":778413,"toponymName":"Duottar-Fáhccun","countryId":"3144096","fcl":"T","population":0,"countryCode":"NO","name":"Duottar-Fáhccun","fclName":"mountain,hill,rock,... ","countryName":"Norway","fcodeName":"mountain","adminName1":"Finnmark","lat":"70.80184","fcode":"MT"},{"adminCode1":"D8","lng":"21.19528","geonameId":8621912,"toponymName":"Bora Kika","countryId":"718075","fcl":"T","population":0,"countryCode":"MK","name":"Bora Kika","fclName":"mountain,hill,rock,... ","countryName":"Macedonia","fcodeName":"mountain","adminName1":"Makedonski Brod","lat":"41.66638","fcode":"MT"},{"adminCode1":"64","lng":"143.75113","geonameId":2126505,"toponymName":"Bora","countryId":"2017370","fcl":"H","population":0,"countryCode":"RU","name":"Bora","fclName":"stream, lake, ...","countryName":"Russia","fcodeName":"stream","adminName1":"Sakhalin","lat":"50.41709","fcode":"STM"},{"adminCode1":"D8","lng":"21.32504","geonameId":8609669,"toponymName":"Bora Strana","countryId":"718075","fcl":"T","population":0,"countryCode":"MK","name":"Bora Strana","fclName":"mountain,hill,rock,... ","countryName":"Macedonia","fcodeName":"slope(s)","adminName1":"Makedonski Brod","lat":"41.62543","fcode":"SLP"},{"adminCode1":"51","lng":"38.46667","geonameId":339545,"toponymName":"Deka Bora","countryId":"337996","fcl":"P","population":0,"countryCode":"ET","name":"Deka Bora","fclName":"city, village,...","countryName":"Ethiopia","fcodeName":"populated place","adminName1":"Oromiya","lat":"9.71667","fcode":"PPL"},{"adminCode1":"51","lng":"38.3","geonameId":339547,"toponymName":"Deka Bora","countryId":"337996","fcl":"P","population":0,"countryCode":"ET","name":"Deka Bora","fclName":"city, village,...","countryName":"Ethiopia","fcodeName":"populated place","adminName1":"Oromiya","lat":"9.21667","fcode":"PPL"},{"adminCode1":"01","lng":"69.98722","geonameId":1452959,"toponymName":"Bora Khel","countryId":"1168579","fcl":"L","population":0,"countryCode":"PK","name":"Bora Khel","fclName":"parks,area, ...","countryName":"Pakistan","fcodeName":"tribal area","adminName1":"Federally Administered Tribal Areas","lat":"33.06083","fcode":"TRB"},{"adminCode1":"01","lng":"69.97889","geonameId":1453032,"toponymName":"Bora Khel","countryId":"1168579","fcl":"L","population":0,"countryCode":"PK","name":"Bora Khel","fclName":"parks,area, ...","countryName":"Pakistan","fcodeName":"tribal area","adminName1":"Federally Administered Tribal Areas","lat":"32.76667","fcode":"TRB"},{"adminCode1":"01","lng":"69.84333","geonameId":1453034,"toponymName":"Bora Khel","countryId":"1168579","fcl":"L","population":0,"countryCode":"PK","name":"Bora Khel","fclName":"parks,area, ...","countryName":"Pakistan","fcodeName":"tribal area","adminName1":"Federally Administered Tribal Areas","lat":"32.75361","fcode":"TRB"},{"adminCode1":"34","lng":"37.62099","geonameId":198990,"toponymName":"Dida Duka Bora","countryId":"192950","fcl":"L","population":0,"countryCode":"KE","name":"Dida Duka Bora","fclName":"parks,area, ...","countryName":"Kenya","fcodeName":"area","adminName1":"Marsabit","lat":"3.86137","fcode":"AREA"},{"adminCode1":"05","lng":"12.18066","geonameId":8949337,"toponymName":"Bora Bassa","countryId":"3175395","fcl":"P","population":1115,"countryCode":"IT","name":"Bora Bassa","fclName":"city, village,...","countryName":"Italy","fcodeName":"populated place","adminName1":"Emilia-Romagna","lat":"44.04636","fcode":"PPL"},{"adminCode1":"15","lng":"5.3","geonameId":3159567,"toponymName":"Byrda","countryId":"3144096","fcl":"T","population":0,"countryCode":"NO","name":"Byrda","fclName":"mountain,hill,rock,... ","countryName":"Norway","fcodeName":"peak","adminName1":"Sogn og Fjordane","lat":"61.66667","fcode":"PK"},{"adminCode1":"10","lng":"-9.03333","geonameId":2273798,"toponymName":"South Point","countryId":"2275384","fcl":"T","population":0,"countryCode":"LR","name":"South Point","fclName":"mountain,hill,rock,... ","countryName":"Liberia","fcodeName":"point","adminName1":"Sinoe","lat":"4.98333","fcode":"PT"},{"adminCode1":"13","lng":"13.65553","geonameId":8668984,"toponymName":"Kermbo-Bora","countryId":"2233387","fcl":"P","population":0,"countryCode":"CM","name":"Kermbo-Bora","fclName":"city, village,...","countryName":"Cameroon","fcodeName":"populated place","adminName1":"North Province","lat":"9.85511","fcode":"PPL"},{"adminCode1":"37","lng":"54.45","geonameId":112654,"toponymName":"Tongū Borā","countryId":"130758","fcl":"L","population":0,"countryCode":"IR","name":"Tongū Borā","fclName":"parks,area, ...","countryName":"Iran","fcodeName":"area","adminName1":"Golestān","lat":"37.25","fcode":"AREA"},{"adminCode1":"06","lng":"-2.6","geonameId":2362353,"toponymName":"Boara","countryId":"2361809","fcl":"P","population":0,"countryCode":"BF","name":"Boara","fclName":"city, village,...","countryName":"Burkina Faso","fcodeName":"populated place","adminName1":"Centre-Ouest","lat":"11.03333","fcode":"PPL"},{"adminCode1":"00","lng":"-12.88642","geonameId":2380923,"toponymName":"Guelb el Bôra","countryId":"2378080","fcl":"T","population":0,"countryCode":"MR","name":"Guelb el Bôra","fclName":"mountain,hill,rock,... ","countryName":"Mauritania","fcodeName":"hills","adminName1":"","lat":"21.8362","fcode":"HLLS"},{"adminCode1":"13","lng":"80.99907","geonameId":1538359,"toponymName":"Qong Bora","countryId":"1814991","fcl":"P","population":0,"countryCode":"CN","name":"Qong Bora","fclName":"city, village,...","countryName":"China","fcodeName":"seat of a fourth-order administrative division","adminName1":"Xinjiang Uygur Zizhiqu","lat":"43.54534","fcode":"PPLA4"},{"adminCode1":"00","lng":"21.63694","geonameId":851473,"toponymName":"Šugava Bora","countryId":"6290252","fcl":"L","population":0,"countryCode":"RS","name":"Šugava Bora","fclName":"parks,area, ...","countryName":"Serbia","fcodeName":"locality","adminName1":"","lat":"43.55194","fcode":"LCTY"},{"adminCode1":"83","lng":"89.42545","geonameId":7892049,"toponymName":"Bora Khodāpur","countryId":"1210997","fcl":"P","population":0,"countryCode":"BD","name":"Bora Khodāpur","fclName":"city, village,...","countryName":"Bangladesh","fcodeName":"populated place","adminName1":"Rājshāhi","lat":"25.1431","fcode":"PPL"},{"adminCode1":"82","lng":"89.226","geonameId":7634265,"toponymName":"Dāuti Bora","countryId":"1210997","fcl":"P","population":0,"countryCode":"BD","name":"Dāuti Bora","fclName":"city, village,...","countryName":"Bangladesh","fcodeName":"populated place","adminName1":"Khulna","lat":"23.42441","fcode":"PPL"},{"adminCode1":"82","lng":"89.51952","geonameId":7480291,"toponymName":"Bora Bādura","countryId":"1210997","fcl":"P","population":0,"countryCode":"BD","name":"Bora Bādura","fclName":"city, village,...","countryName":"Bangladesh","fcodeName":"populated place","adminName1":"Khulna","lat":"23.17609","fcode":"PPL"},{"adminCode1":"51","lng":"38.71667","geonameId":339539,"toponymName":"Deke Bora","countryId":"337996","fcl":"P","population":0,"countryCode":"ET","name":"Deke Bora","fclName":"city, village,...","countryName":"Ethiopia","fcodeName":"populated place","adminName1":"Oromiya","lat":"9.7","fcode":"PPL"},{"adminCode1":"51","lng":"39.10478","geonameId":339546,"toponymName":"Deka Bora","countryId":"337996","fcl":"P","population":0,"countryCode":"ET","name":"Deka Bora","fclName":"city, village,...","countryName":"Ethiopia","fcodeName":"populated place","adminName1":"Oromiya","lat":"9.33612","fcode":"PPL"},{"adminCode1":"51","lng":"36.88333","geonameId":341700,"toponymName":"Bora Terara","countryId":"337996","fcl":"T","population":0,"countryCode":"ET","name":"Bora Terara","fclName":"mountain,hill,rock,... ","countryName":"Ethiopia","fcodeName":"mountain","adminName1":"Oromiya","lat":"9.93333","fcode":"MT"},{"adminCode1":"45","lng":"40.05952","geonameId":341705,"toponymName":"Bora Mēda","countryId":"337996","fcl":"T","population":0,"countryCode":"ET","name":"Bora Mēda","fclName":"mountain,hill,rock,... ","countryName":"Ethiopia","fcodeName":"plain(s)","adminName1":"Āfar","lat":"11.75324","fcode":"PLN"},{"adminCode1":"51","lng":"40.15","geonameId":341712,"toponymName":"Bora Bota","countryId":"337996","fcl":"L","population":0,"countryCode":"ET","name":"Bora Bota","fclName":"parks,area, ...","countryName":"Ethiopia","fcodeName":"locality","adminName1":"Oromiya","lat":"7.05","fcode":"LCTY"},{"adminCode1":"51","lng":"37.81667","geonameId":327232,"toponymName":"Tulu Bora","countryId":"337996","fcl":"P","population":0,"countryCode":"ET","name":"Tulu Bora","fclName":"city, village,...","countryName":"Ethiopia","fcodeName":"populated place","adminName1":"Oromiya","lat":"9.48333","fcode":"PPL"},{"adminCode1":"03","lng":"-14.83333","geonameId":2411945,"toponymName":"Sinchu Bora","countryId":"2413451","fcl":"P","population":250,"countryCode":"GM","name":"Sinchu Bora","fclName":"city, village,...","countryName":"Gambia","fcodeName":"populated place","adminName1":"Central River","lat":"13.5","fcode":"PPL"},{"adminCode1":"00","lng":"-14.66667","geonameId":2374647,"toponymName":"Borá","countryId":"2372248","fcl":"P","population":0,"countryCode":"GW","name":"Borá","fclName":"city, village,...","countryName":"Guinea-Bissau","fcodeName":"abandoned populated place","adminName1":"","lat":"11.93333","fcode":"PPLQ"},{"adminCode1":"04","lng":"73.20163","geonameId":1413644,"toponymName":"Mohra Bora","countryId":"1168579","fcl":"P","population":0,"countryCode":"PK","name":"Mohra Bora","fclName":"city, village,...","countryName":"Pakistan","fcodeName":"populated place","adminName1":"Punjab","lat":"33.23663","fcode":"PPL"},{"adminCode1":"00","lng":"90.64306","geonameId":1208175,"toponymName":"Bora Char","countryId":"1210997","fcl":"P","population":0,"countryCode":"BD","name":"Bora Char","fclName":"city, village,...","countryName":"Bangladesh","fcodeName":"populated place","adminName1":"","lat":"23.50063","fcode":"PPL"},{"adminCode1":"02","lng":"66.83917","geonameId":1342081,"toponymName":"Bora Shah","countryId":"1168579","fcl":"P","population":0,"countryCode":"PK","name":"Bora Shah","fclName":"city, village,...","countryName":"Pakistan","fcodeName":"populated place","adminName1":"Balochistān","lat":"30.64333","fcode":"PPL"},{"adminCode1":"02","lng":"67.0655","geonameId":1407436,"toponymName":"Bora Banj","countryId":"1168579","fcl":"T","population":0,"countryCode":"PK","name":"Bora Banj","fclName":"mountain,hill,rock,... ","countryName":"Pakistan","fcodeName":"ridge(s)","adminName1":"Balochistān","lat":"28.8174","fcode":"RDGE"},{"adminCode1":"04","lng":"73.66944","geonameId":1419874,"toponymName":"Bora Khu","countryId":"1168579","fcl":"P","population":0,"countryCode":"PK","name":"Bora Khu","fclName":"city, village,...","countryName":"Pakistan","fcodeName":"populated place","adminName1":"Punjab","lat":"31.32778","fcode":"PPL"},{"adminCode1":"12","lng":"74.25","geonameId":1429984,"toponymName":"Bora Chhari","countryId":"1269750","fcl":"P","population":0,"countryCode":"IN","name":"Bora Chhari","fclName":"city, village,...","countryName":"India","fcodeName":"populated place","adminName1":"Kashmir","lat":"33.84444","fcode":"PPL"},{"adminCode1":"23","lng":"65.34674","geonameId":1146258,"toponymName":"Bōrah Kanah","countryId":"1149361","fcl":"L","population":0,"countryCode":"AF","name":"Bōrah Kanah","fclName":"parks,area, ...","countryName":"Afghanistan","fcodeName":"locality","adminName1":"Kandahār","lat":"32.26705","fcode":"LCTY"},{"adminCode1":"22","lng":"27.38926","geonameId":684235,"toponymName":"Bora","countryId":"798549","fcl":"P","population":0,"countryCode":"RO","name":"Bora","fclName":"city, village,...","countryName":"Romania","fcodeName":"section of populated place","adminName1":"Ialomiţa","lat":"44.55794","fcode":"PPLX"},{"adminCode1":"24","lng":"45.04889","geonameId":803834,"toponymName":"Sukhur Bora","countryId":"2017370","fcl":"P","population":0,"countryCode":"RU","name":"Sukhur Bora","fclName":"city, village,...","countryName":"Russia","fcodeName":"populated place","adminName1":"Kalmykiya","lat":"47.28556","fcode":"PPL"},{"adminCode1":"04","lng":"149.33194","geonameId":2174635,"toponymName":"Mount Bora","countryId":"2077456","fcl":"T","population":0,"countryCode":"AU","name":"Mount Bora","fclName":"mountain,hill,rock,... ","countryName":"Australia","fcodeName":"mountain","adminName1":"Queensland","lat":"-22.72778","fcode":"MT"},{"adminCode1":"ER","lng":"86.89069","geonameId":7964690,"toponymName":"Bora","countryId":"1282988","fcl":"P","population":0,"countryCode":"NP","name":"Bora","fclName":"city, village,...","countryName":"Nepal","fcodeName":"populated locality","adminName1":"Eastern Region","lat":"27.12377","fcode":"PPLL"},{"adminCode1":"ER","lng":"86.89505","geonameId":7964705,"toponymName":"Bora","countryId":"1282988","fcl":"P","population":0,"countryCode":"NP","name":"Bora","fclName":"city, village,...","countryName":"Nepal","fcodeName":"populated locality","adminName1":"Eastern Region","lat":"27.12765","fcode":"PPLL"},{"adminCode1":"06","lng":"29.19271","geonameId":7428791,"toponymName":"Twok Bora","countryId":"7909807","fcl":"P","population":0,"countryCode":"SS","name":"Twok Bora","fclName":"city, village,...","countryName":"South Sudan","fcodeName":"populated place","adminName1":"Unity","lat":"9.28029","fcode":"PPL"},{"adminCode1":"35","lng":"79.34572","geonameId":7018553,"toponymName":"Bora Ghāt","countryId":"1269750","fcl":"T","population":0,"countryCode":"IN","name":"Bora Ghāt","fclName":"mountain,hill,rock,... ","countryName":"India","fcodeName":"ford","adminName1":"Madhya Pradesh","lat":"24.91072","fcode":"FORD"}]}