{"totalResultsCount":200,"geonames":[{"countryId":"3469034","adminCode1":"27","countryName":"Brazil","fclName":"country, state, region,...","countryCode":"BR","lng":"-50.49252","fcodeName":"second-order administrative division","toponymName":"Borá","fcl":"A","name":"Borá","fcode":"ADM2","geonameId":6322147,"lat":"-22.23881","adminName1":"São Paulo","population":805},{"countryId":"4030656","adminCode1":"02","countryName":"French Polynesia","fclName":"mountain,hill,rock,... ","countryCode":"PF","lng":"-151.74067","fcodeName":"island","toponymName":"Bora-Bora","fcl":"T","name":"Bora Bora","fcode":"ISL","geonameId":4034582,"lat":"-16.49667","adminName1":"Îles Sous-le-Vent","population":0},{"countryId":"4030656","adminCode1":"02","countryName":"French Polynesia","fclName":"spot, building, farm","countryCode":"PF","lng":"-151.75129","fcodeName":"airport","toponymName":"Bora-Bora Airport","fcl":"S","name":"Bora Bora Airport","fcode":"AIRP","geonameId":6299965,"lat":"-16.44438","adminName1":"Îles Sous-le-Vent","population":0},{"countryId":"337996","adminCode1":"53","countryName":"Ethiopia","fclName":"mountain,hill,rock,... ","countryCode":"ET","lng":"39.28333","fcodeName":"mountain","toponymName":"Bora","fcl":"T","name":"Bora","fcode":"MT","geonameId":341714,"lat":"12.95","adminName1":"Tigray","population":0},{"countryId":"2017370","adminCode1":"79","countryName":"Russia","fclName":"city, village,...","countryCode":"RU","lng":"91.13333","fcodeName":"populated place","toponymName":"Bora-Tayga","fcl":"P","name":"Bora-Tayga","fcode":"PPL","geonameId":1509003,"lat":"51.4","adminName1":"Tyva","population":0},{"countryId":"798549","adminCode1":"21","countryName":"Romania","fclName":"mountain,hill,rock,... ","countryCode":"RO","lng":"23.6644","fcodeName":"peak","toponymName":"Bora","fcl":"T","name":"Bora","fcode":"PK","geonameId":8394174,"lat":"45.39515","adminName1":"Hunedoara","population":0},{"countryId":"1168579","adminCode1":"01","countryName":"Pakistan","fclName":"parks,area, ...","countryCode":"PK","lng":"69.99444","fcodeName":"tribal area","toponymName":"Bora","fcl":"L","name":"Bora","fcode":"TRB","geonameId":1452955,"lat":"33.13417","adminName1":"Federally Administered Tribal Areas","population":0},{"countryId":"3144096","adminCode1":"09","countryName":"Norway","fclName":"mountain,hill,rock,... ","countryCode":"NO","lng":"13.1457","fcodeName":"hill","toponymName":"Børa","fcl":"T","name":"Børa","fcode":"HLL","geonameId":9237065,"lat":"68.08048","adminName1":"Nordland","population":0},{"countryId":"2017370","adminCode1":"79","countryName":"Russia","fclName":"city, village,...","countryCode":"RU","lng":"91.83333","fcodeName":"populated place","toponymName":"Bora-Khol’","fcl":"P","name":"Bora-Khol'","fcode":"PPL","geonameId":1509006,"lat":"51.33333","adminName1":"Tyva","population":0},{"countryId":"1694008","adminCode1":"03","countryName":"Philippines","fclName":"city, village,...","countryCode":"PH","lng":"120.63222","fcodeName":"populated place","toponymName":"Bora","fcl":"P","name":"Bora","fcode":"PPL","geonameId":8356076,"lat":"15.49723","adminName1":"Central Luzon","population":0},{"countryId":"2017370","adminCode1":"24","countryName":"Russia","fclName":"city, village,...","countryCode":"RU","lng":"45.62806","fcodeName":"populated place","toponymName":"Sarasyn-Bora","fcl":"P","name":"Sarasyn-Bora","fcode":"PPL","geonameId":498679,"lat":"47.14417","adminName1":"Kalmykiya","population":0},{"countryId":"2017370","adminCode1":"79","countryName":"Russia","fclName":"city, village,...","countryCode":"RU","lng":"91.7","fcodeName":"populated place","toponymName":"Bora-Shay","fcl":"P","name":"Bora-Shay","fcode":"PPL","geonameId":1509004,"lat":"50.75","adminName1":"Tyva","population":0},{"countryId":"2300660","adminCode1":"00","countryName":"Ghana","fclName":"city, village,...","countryCode":"GH","lng":"-0.13333","fcodeName":"populated place","toponymName":"Bora","fcl":"P","name":"Bora","fcode":"PPL","geonameId":2302693,"lat":"8.31667","adminName1":"","population":0},{"countryId":"337996","adminCode1":"51","countryName":"Ethiopia","fclName":"city, village,...","countryCode":"ET","lng":"38.35","fcodeName":"populated place","toponymName":"Bora","fcl":"P","name":"Bora","fcode":"PPL","geonameId":341717,"lat":"9.1","adminName1":"Oromiya","population":0},{"countryId":"1814991","adminCode1":"13","countryName":"China","fclName":"city, village,...","countryCode":"CN","lng":"77.64028","fcodeName":"populated place","toponymName":"Bora","fcl":"P","name":"Bora","fcode":"PPL","geonameId":1281609,"lat":"37.60889","adminName1":"Xinjiang Uygur Zizhiqu","population":0},{"countryId":"1168579","adminCode1":"01","countryName":"Pakistan","fclName":"parks,area, ...","countryCode":"PK","lng":"70.01771","fcodeName":"tribal area","toponymName":"Bora Khel","fcl":"L","name":"Bora Khel","fcode":"TRB","geonameId":1340506,"lat":"33.01315","adminName1":"Federally Administered Tribal Areas","population":0},{"countryId":"3144096","adminCode1":"15","countryName":"Norway","fclName":"mountain,hill,rock,... ","countryCode":"NO","lng":"5.31188","fcodeName":"hill","toponymName":"Børa","fcl":"T","name":"Børa","fcode":"HLL","geonameId":9208348,"lat":"61.66122","adminName1":"Sogn og Fjordane","population":0},{"countryId":"3144096","adminCode1":"07","countryName":"Norway","fclName":"mountain,hill,rock,... ","countryCode":"NO","lng":"5.16542","fcodeName":"cliff(s)","toponymName":"Børa","fcl":"T","name":"Børa","fcode":"CLF","geonameId":9152597,"lat":"60.52208","adminName1":"Hordaland","population":0},{"countryId":"3144096","adminCode1":"09","countryName":"Norway","fclName":"mountain,hill,rock,... ","countryCode":"NO","lng":"14.64952","fcodeName":"hill","toponymName":"Børa","fcl":"T","name":"Børa","fcode":"HLL","geonameId":9237778,"lat":"68.24602","adminName1":"Nordland","population":0},{"countryId":"3144096","adminCode1":"09","countryName":"Norway","fclName":"mountain,hill,rock,... ","countryCode":"NO","lng":"15.57312","fcodeName":"hill","toponymName":"Børa","fcl":"T","name":"Børa","fcode":"HLL","geonameId":9242444,"lat":"69.09999","adminName1":"Nordland","population":0},{"countryId":"3144096","adminCode1":"05","countryName":"Norway","fclName":"mountain,hill,rock,... ","countryCode":"NO","lng":"22.74992","fcodeName":"hill","toponymName":"Børa","fcl":"T","name":"Børa","fcode":"HLL","geonameId":9245235,"lat":"70.62951","adminName1":"Finnmark","population":0},{"countryId":"3144096","adminCode1":"14","countryName":"Norway","fclName":"mountain,hill,rock,... ","countryCode":"NO","lng":"6.71045","fcodeName":"hill","toponymName":"Børa","fcl":"T","name":"Børa","fcode":"HLL","geonameId":9247883,"lat":"59.54426","adminName1":"Rogaland","population":0},{"countryId":"7909807","adminCode1":"09","countryName":"South Sudan","fclName":"city, village,...","countryCode":"SS","lng":"26.1804","fcodeName":"populated place","toponymName":"Bora","fcl":"P","name":"Bora","fcode":"PPL","geonameId":377238,"lat":"8.81819","adminName1":"Western Bahr al Ghazal","population":0},{"countryId":"7909807","adminCode1":"01","countryName":"South Sudan","fclName":"city, village,...","countryCode":"SS","lng":"30.73972","fcodeName":"populated place","toponymName":"Bora","fcl":"P","name":"Bora","fcode":"PPL","geonameId":377239,"lat":"3.89898","adminName1":"Central Equatoria","population":0},{"countryId":"51537","adminCode1":"09","countryName":"Somalia","fclName":"city, village,...","countryCode":"SO","lng":"41.2","fcodeName":"populated place","toponymName":"Bora","fcl":"P","name":"Bora","fcode":"PPL","geonameId":63985,"lat":"-0.98333","adminName1":"Lower Juba","population":0},{"countryId":"2233387","adminCode1":"13","countryName":"Cameroon","fclName":"city, village,...","countryCode":"CM","lng":"13.05","fcodeName":"populated place","toponymName":"Bora","fcl":"P","name":"Bora","fcode":"PPL","geonameId":2233628,"lat":"8.61667","adminName1":"North Province","population":0},{"countryId":"2088628","adminCode1":"02","countryName":"Papua New Guinea","fclName":"city, village,...","countryCode":"PG","lng":"143.93333","fcodeName":"populated place","toponymName":"Bora","fcl":"P","name":"Bora","fcode":"PPL","geonameId":2099138,"lat":"-7.93333","adminName1":"Gulf","population":0},{"countryId":"2434508","adminCode1":"06","countryName":"Chad","fclName":"city, village,...","countryCode":"TD","lng":"15.21495","fcodeName":"populated place","toponymName":"Bora","fcl":"P","name":"Bora","fcode":"PPL","geonameId":2434889,"lat":"14.07242","adminName1":"Kanem","population":0},{"countryId":"1269750","adminCode1":"35","countryName":"India","fclName":"city, village,...","countryCode":"IN","lng":"76.81174","fcodeName":"populated place","toponymName":"Bora","fcl":"P","name":"Bora","fcode":"PPL","geonameId":1275314,"lat":"23.65834","adminName1":"Madhya Pradesh","population":0},{"countryId":"2434508","adminCode1":"02","countryName":"Chad","fclName":"city, village,...","countryCode":"TD","lng":"21.2","fcodeName":"populated place","toponymName":"Bora","fcl":"P","name":"Bora","fcode":"PPL","geonameId":244801,"lat":"14.46667","adminName1":"Biltine","population":0},{"countryId":"337996","adminCode1":"53","countryName":"Ethiopia","fclName":"parks,area, ...","countryCode":"ET","lng":"39.4","fcodeName":"locality","toponymName":"Bora","fcl":"L","name":"Bora","fcode":"LCTY","geonameId":341715,"lat":"12.96667","adminName1":"Tigray","population":0},{"countryId":"337996","adminCode1":"46","countryName":"Ethiopia","fclName":"city, village,...","countryCode":"ET","lng":"40.05","fcodeName":"populated place","toponymName":"Bora","fcl":"P","name":"Bora","fcode":"PPL","geonameId":341716,"lat":"10.73333","adminName1":"Amhara","population":0},{"countryId":"337996","adminCode1":"51","countryName":"Ethiopia","fclName":"city, village,...","countryCode":"ET","lng":"39.13333","fcodeName":"populated place","toponymName":"Bora","fcl":"P","name":"Bora","fcode":"PPL","geonameId":341718,"lat":"8.4","adminName1":"Oromiya","population":0},{"countryId":"1168579","adminCode1":"04","countryName":"Pakistan","fclName":"city, village,...","countryCode":"PK","lng":"74.99745","fcodeName":"populated place","toponymName":"Bora","fcl":"P","name":"Bora","fcode":"PPL","geonameId":7465535,"lat":"32.31792","adminName1":"Punjab","population":0},{"countryId":"2328926","adminCode1":"24","countryName":"Nigeria","fclName":"city, village,...","countryCode":"NG","lng":"7.61429","fcodeName":"populated place","toponymName":"Bora","fcl":"P","name":"Bora","fcode":"PPL","geonameId":6998425,"lat":"12.81398","adminName1":"Katsina","population":0},{"countryId":"3469034","adminCode1":"27","countryName":"Brazil","fclName":"city, village,...","countryCode":"BR","lng":"-50.53444","fcodeName":"populated place","toponymName":"Borá","fcl":"P","name":"Borá","fcode":"PPL","geonameId":3469189,"lat":"-22.26972","adminName1":"São Paulo","population":0},{"countryId":"3469034","adminCode1":"13","countryName":"Brazil","fclName":"city, village,...","countryCode":"BR","lng":"-46.1","fcodeName":"populated place","toponymName":"Borá","fcl":"P","name":"Borá","fcode":"PPL","geonameId":3405052,"lat":"-9.83333","adminName1":"Maranhão","population":0},{"countryId":"1168579","adminCode1":"04","countryName":"Pakistan","fclName":"city, village,...","countryCode":"PK","lng":"74.09572","fcodeName":"populated place","toponymName":"Bora","fcl":"P","name":"Bora","fcode":"PPL","geonameId":1412783,"lat":"32.64149","adminName1":"Punjab","population":0},{"countryId":"1062947","adminCode1":"03","countryName":"Madagascar","fclName":"mountain,hill,rock,... ","countryCode":"MG","lng":"48.23333","fcodeName":"mountain","toponymName":"Bora","fcl":"T","name":"Bora","fcode":"MT","geonameId":1065644,"lat":"-14.9","adminName1":"MG.03","population":0},{"countryId":"1168579","adminCode1":"04","countryName":"Pakistan","fclName":"city, village,...","countryCode":"PK","lng":"72.51365","fcodeName":"populated place","toponymName":"Bora","fcl":"P","name":"Bora","fcode":"PPL","geonameId":1341519,"lat":"33.25295","adminName1":"Punjab","population":0},{"countryId":"2372248","adminCode1":"00","countryName":"Guinea-Bissau","fclName":"city, village,...","countryCode":"GW","lng":"-14.66667","fcodeName":"populated place","toponymName":"Borá","fcl":"P","name":"Borá","fcode":"PPL","geonameId":2374648,"lat":"11.91667","adminName1":"","population":0},{"countryId":"2420477","adminCode1":"K","countryName":"Guinea","fclName":"city, village,...","countryCode":"GN","lng":"-10.08333","fcodeName":"populated place","toponymName":"Bora","fcl":"P","name":"Bora","fcode":"PPL","geonameId":2422787,"lat":"10.23333","adminName1":"Kankan","population":0},{"countryId":"1861060","adminCode1":"47","countryName":"Japan","fclName":"city, village,...","countryCode":"JP","lng":"125.42458","fcodeName":"populated locality","toponymName":"Bora","fcl":"P","name":"Bora","fcode":"PPLL","geonameId":1864687,"lat":"24.73341","adminName1":"Okinawa","population":0},{"countryId":"192950","adminCode1":"30","countryName":"Kenya","fclName":"city, village,...","countryCode":"KE","lng":"40.86667","fcodeName":"populated place","toponymName":"Bora Imani","fcl":"P","name":"Bora Imani","fcode":"PPL","geonameId":200280,"lat":"-2.2","adminName1":"Lamu","population":0},{"countryId":"1643084","adminCode1":"21","countryName":"Indonesia","fclName":"city, village,...","countryCode":"ID","lng":"119.921","fcodeName":"populated place","toponymName":"Bora","fcl":"P","name":"Bora","fcode":"PPL","geonameId":7385407,"lat":"-1.2311","adminName1":"Central Sulawesi","population":0},{"countryId":"1643084","adminCode1":"18","countryName":"Indonesia","fclName":"city, village,...","countryCode":"ID","lng":"122.2482","fcodeName":"populated place","toponymName":"Bora","fcl":"P","name":"Bora","fcode":"PPL","geonameId":7429835,"lat":"-8.7364","adminName1":"East Nusa Tenggara","population":0},{"countryId":"2510769","adminCode1":"58","countryName":"Spain","fclName":"city, village,...","countryCode":"ES","lng":"-8.58333","fcodeName":"populated place","toponymName":"Bora","fcl":"P","name":"Bora","fcode":"PPL","geonameId":3127825,"lat":"42.43333","adminName1":"Galicia","population":0},{"countryId":"1643084","adminCode1":"21","countryName":"Indonesia","fclName":"city, village,...","countryCode":"ID","lng":"119.9434","fcodeName":"populated place","toponymName":"Bora","fcl":"P","name":"Bora","fcode":"PPL","geonameId":1648165,"lat":"-1.0487","adminName1":"Central Sulawesi","population":0},{"countryId":"1643084","adminCode1":"18","countryName":"Indonesia","fclName":"city, village,...","countryCode":"ID","lng":"122.3637","fcodeName":"populated place","toponymName":"Bora","fcl":"P","name":"Bora","fcode":"PPL","geonameId":7574383,"lat":"-8.7145","adminName1":"East Nusa Tenggara","population":0},{"countryId":"1643084","adminCode1":"18","countryName":"Indonesia","fclName":"city, village,...","countryCode":"ID","lng":"121.843","fcodeName":"populated place","toponymName":"Bora","fcl":"P","name":"Bora","fcode":"PPL","geonameId":8377960,"lat":"-10.4928","adminName1":"East Nusa Tenggara","population":0},{"countryId":"1643084","adminCode1":"18","countryName":"Indonesia","fclName":"city, village,...","countryCode":"ID","lng":"123.8273","fcodeName":"populated place","toponymName":"Bora","fcl":"P","name":"Bora","fcode":"PPL","geonameId":8423469,"lat":"-8.1978","adminName1":"East Nusa Tenggara","population":0},{"countryId":"1861060","adminCode1":"27","countryName":"Japan","fclName":"mountain,hill,rock,... ","countryCode":"JP","lng":"129.7643","fcodeName":"point","toponymName":"Bora Zaki","fcl":"T","name":"Bora Zaki","fcode":"PT","geonameId":1864686,"lat":"33.02124","adminName1":"Nagasaki","population":0},{"countryId":"223816","adminCode1":"04","countryName":"Djibouti","fclName":"mountain,hill,rock,... ","countryCode":"DJ","lng":"42.97972","fcodeName":"mountain","toponymName":"Gôma Bôra","fcl":"T","name":"Gôma Bôra","fcode":"MT","geonameId":223045,"lat":"11.895","adminName1":"Obock","population":0},{"countryId":"3144096","adminCode1":"05","countryName":"Norway","fclName":"mountain,hill,rock,... ","countryCode":"NO","lng":"25.67258","fcodeName":"mountain","toponymName":"Duottar-Fáhccun","fcl":"T","name":"Duottar-Fáhccun","fcode":"MT","geonameId":778413,"lat":"70.80184","adminName1":"Finnmark","population":0},{"countryId":"718075","adminCode1":"D8","countryName":"Macedonia","fclName":"mountain,hill,rock,... ","countryCode":"MK","lng":"21.19528","fcodeName":"mountain","toponymName":"Bora Kika","fcl":"T","name":"Bora Kika","fcode":"MT","geonameId":8621912,"lat":"41.66638","adminName1":"Makedonski Brod","population":0},{"countryId":"2017370","adminCode1":"64","countryName":"Russia","fclName":"stream, lake, ...","countryCode":"RU","lng":"143.75113","fcodeName":"stream","toponymName":"Bora","fcl":"H","name":"Bora","fcode":"STM","geonameId":2126505,"lat":"50.41709","adminName1":"Sakhalin","population":0},{"countryId":"2378080","adminCode1":"00","countryName":"Mauritania","fclName":"mountain,hill,rock,... ","countryCode":"MR","lng":"-12.88642","fcodeName":"hills","toponymName":"Guelb el Bôra","fcl":"T","name":"Guelb el Bôra","fcode":"HLLS","geonameId":2380923,"lat":"21.8362","adminName1":"","population":0},{"countryId":"718075","adminCode1":"D8","countryName":"Macedonia","fclName":"mountain,hill,rock,... ","countryCode":"MK","lng":"21.32504","fcodeName":"slope(s)","toponymName":"Bora Strana","fcl":"T","name":"Bora Strana","fcode":"SLP","geonameId":8609669,"lat":"41.62543","adminName1":"Makedonski Brod","population":0},{"countryId":"1168579","adminCode1":"01","countryName":"Pakistan","fclName":"parks,area, ...","countryCode":"PK","lng":"69.98722","fcodeName":"tribal area","toponymName":"Bora Khel","fcl":"L","name":"Bora Khel","fcode":"TRB","geonameId":1452959,"lat":"33.06083","adminName1":"Federally Administered Tribal Areas","population":0},{"countryId":"1168579","adminCode1":"01","countryName":"Pakistan","fclName":"parks,area, ...","countryCode":"PK","lng":"69.97889","fcodeName":"tribal area","toponymName":"Bora Khel","fcl":"L","name":"Bora Khel","fcode":"TRB","geonameId":1453032,"lat":"32.76667","adminName1":"Federally Administered Tribal Areas","population":0},{"countryId":"1168579","adminCode1":"01","countryName":"Pakistan","fclName":"parks,area, ...","countryCode":"PK","lng":"69.84333","fcodeName":"tribal area","toponymName":"Bora Khel","fcl":"L","name":"Bora Khel","fcode":"TRB","geonameId":1453034,"lat":"32.75361","adminName1":"Federally Administered Tribal Areas","population":0},{"countryId":"192950","adminCode1":"34","countryName":"Kenya","fclName":"parks,area, ...","countryCode":"KE","lng":"37.62099","fcodeName":"area","toponymName":"Dida Duka Bora","fcl":"L","name":"Dida Duka Bora","fcode":"AREA","geonameId":198990,"lat":"3.86137","adminName1":"Marsabit","population":0},{"countryId":"337996","adminCode1":"51","countryName":"Ethiopia","fclName":"city, village,...","countryCode":"ET","lng":"38.46667","fcodeName":"populated place","toponymName":"Deka Bora","fcl":"P","name":"Deka Bora","fcode":"PPL","geonameId":339545,"lat":"9.71667","adminName1":"Oromiya","population":0},{"countryId":"337996","adminCode1":"51","countryName":"Ethiopia","fclName":"city, village,...","countryCode":"ET","lng":"38.3","fcodeName":"populated place","toponymName":"Deka Bora","fcl":"P","name":"Deka Bora","fcode":"PPL","geonameId":339547,"lat":"9.21667","adminName1":"Oromiya","population":0},{"countryId":"3175395","adminCode1":"05","countryName":"Italy","fclName":"city, village,...","countryCode":"IT","lng":"12.18066","fcodeName":"populated place","toponymName":"Bora Bassa","fcl":"P","name":"Bora Bassa","fcode":"PPL","geonameId":8949337,"lat":"44.04636","adminName1":"Emilia-Romagna","population":1115},{"countryId":"2275384","adminCode1":"10","countryName":"Liberia","fclName":"mountain,hill,rock,... ","countryCode":"LR","lng":"-9.03333","fcodeName":"point","toponymName":"South Point","fcl":"T","name":"South Point","fcode":"PT","geonameId":2273798,"lat":"4.98333","adminName1":"Sinoe","population":0},{"countryId":"3144096","adminCode1":"15","countryName":"Norway","fclName":"mountain,hill,rock,... ","countryCode":"NO","lng":"5.3","fcodeName":"peak","toponymName":"Byrda","fcl":"T","name":"Byrda","fcode":"PK","geonameId":3159567,"lat":"61.66667","adminName1":"Sogn og Fjordane","population":0},{"countryId":"2233387","adminCode1":"13","countryName":"Cameroon","fclName":"city, village,...","countryCode":"CM","lng":"13.65553","fcodeName":"populated place","toponymName":"Kermbo-Bora","fcl":"P","name":"Kermbo-Bora","fcode":"PPL","geonameId":8668984,"lat":"9.85511","adminName1":"North Province","population":0},{"countryId":"130758","adminCode1":"37","countryName":"Iran","fclName":"parks,area, ...","countryCode":"IR","lng":"54.45","fcodeName":"area","toponymName":"Tongū Borā","fcl":"L","name":"Tongū Borā","fcode":"AREA","geonameId":112654,"lat":"37.25","adminName1":"Golestān","population":0},{"countryId":"1210997","adminCode1":"83","countryName":"Bangladesh","fclName":"city, village,...","countryCode":"BD","lng":"89.42546","fcodeName":"populated place","toponymName":"Bora Khodāpur","fcl":"P","name":"Bora Khodāpur","fcode":"PPL","geonameId":7892049,"lat":"25.1431","adminName1":"Rājshāhi","population":0},{"countryId":"1210997","adminCode1":"82","countryName":"Bangladesh","fclName":"city, village,...","countryCode":"BD","lng":"89.226","fcodeName":"populated place","toponymName":"Dāuti Bora","fcl":"P","name":"Dāuti Bora","fcode":"PPL","geonameId":7634265,"lat":"23.42442","adminName1":"Khulna","population":0},{"countryId":"6290252","adminCode1":"00","countryName":"Serbia","fclName":"parks,area, ...","countryCode":"RS","lng":"21.63694","fcodeName":"locality","toponymName":"Šugava Bora","fcl":"L","name":"Šugava Bora","fcode":"LCTY","geonameId":851473,"lat":"43.55194","adminName1":"","population":0},{"countryId":"1210997","adminCode1":"82","countryName":"Bangladesh","fclName":"city, village,...","countryCode":"BD","lng":"89.51952","fcodeName":"populated place","toponymName":"Bora Bādura","fcl":"P","name":"Bora Bādura","fcode":"PPL","geonameId":7480291,"lat":"23.17608","adminName1":"Khulna","population":0},{"countryId":"1814991","adminCode1":"13","countryName":"China","fclName":"city, village,...","countryCode":"CN","lng":"80.99907","fcodeName":"seat of a fourth-order administrative division","toponymName":"Qong Bora","fcl":"P","name":"Qong Bora","fcode":"PPLA4","geonameId":1538359,"lat":"43.54534","adminName1":"Xinjiang Uygur Zizhiqu","population":0},{"countryId":"2361809","adminCode1":"06","countryName":"Burkina Faso","fclName":"city, village,...","countryCode":"BF","lng":"-2.6","fcodeName":"populated place","toponymName":"Boara","fcl":"P","name":"Boara","fcode":"PPL","geonameId":2362353,"lat":"11.03333","adminName1":"Centre-Ouest","population":0},{"countryId":"1282988","adminCode1":"ER","countryName":"Nepal","fclName":"city, village,...","countryCode":"NP","lng":"86.89069","fcodeName":"populated locality","toponymName":"Bora","fcl":"P","name":"Bora","fcode":"PPLL","geonameId":7964690,"lat":"27.12377","adminName1":"Eastern Region","population":0},{"countryId":"1282988","adminCode1":"ER","countryName":"Nepal","fclName":"city, village,...","countryCode":"NP","lng":"86.89505","fcodeName":"populated locality","toponymName":"Bora","fcl":"P","name":"Bora","fcode":"PPLL","geonameId":7964705,"lat":"27.12765","adminName1":"Eastern Region","population":0},{"countryId":"1168579","adminCode1":"04","countryName":"Pakistan","fclName":"city, village,...","countryCode":"PK","lng":"73.66944","fcodeName":"populated place","toponymName":"Bora Khu","fcl":"P","name":"Bora Khu","fcode":"PPL","geonameId":1419874,"lat":"31.32778","adminName1":"Punjab","population":0},{"countryId":"1269750","adminCode1":"12","countryName":"India","fclName":"city, village,...","countryCode":"IN","lng":"74.25","fcodeName":"populated place","toponymName":"Bora Chhari","fcl":"P","name":"Bora Chhari","fcode":"PPL","geonameId":1429984,"lat":"33.84444","adminName1":"Kashmir","population":0},{"countryId":"337996","adminCode1":"51","countryName":"Ethiopia","fclName":"city, village,...","countryCode":"ET","lng":"38.71667","fcodeName":"populated place","toponymName":"Deke Bora","fcl":"P","name":"Deke Bora","fcode":"PPL","geonameId":339539,"lat":"9.7","adminName1":"Oromiya","population":0},{"countryId":"337996","adminCode1":"51","countryName":"Ethiopia","fclName":"city, village,...","countryCode":"ET","lng":"39.10478","fcodeName":"populated place","toponymName":"Deka Bora","fcl":"P","name":"Deka Bora","fcode":"PPL","geonameId":339546,"lat":"9.33612","adminName1":"Oromiya","population":0},{"countryId":"337996","adminCode1":"51","countryName":"Ethiopia","fclName":"mountain,hill,rock,... ","countryCode":"ET","lng":"36.88333","fcodeName":"mountain","toponymName":"Bora Terara","fcl":"T","name":"Bora Terara","fcode":"MT","geonameId":341700,"lat":"9.93333","adminName1":"Oromiya","population":0},{"countryId":"337996","adminCode1":"45","countryName":"Ethiopia","fclName":"mountain,hill,rock,... ","countryCode":"ET","lng":"40.05952","fcodeName":"plain(s)","toponymName":"Bora Mēda","fcl":"T","name":"Bora Mēda","fcode":"PLN","geonameId":341705,"lat":"11.75324","adminName1":"Āfar","population":0},{"countryId":"337996","adminCode1":"51","countryName":"Ethiopia","fclName":"parks,area, ...","countryCode":"ET","lng":"40.15","fcodeName":"locality","toponymName":"Bora Bota","fcl":"L","name":"Bora Bota","fcode":"LCTY","geonameId":341712,"lat":"7.05","adminName1":"Oromiya","population":0},{"countryId":"337996","adminCode1":"51","countryName":"Ethiopia","fclName":"city, village,...","countryCode":"ET","lng":"37.81667","fcodeName":"populated place","toponymName":"Tulu Bora","fcl":"P","name":"Tulu Bora","fcode":"PPL","geonameId":327232,"lat":"9.48333","adminName1":"Oromiya","population":0},{"countryId":"1210997","adminCode1":"00","countryName":"Bangladesh","fclName":"city, village,...","countryCode":"BD","lng":"90.64306","fcodeName":"populated place","toponymName":"Bora Char","fcl":"P","name":"Bora Char","fcode":"PPL","geonameId":1208175,"lat":"23.50063","adminName1":"","population":0},{"countryId":"798549","adminCode1":"22","countryName":"Romania","fclName":"city, village,...","countryCode":"RO","lng":"27.38926","fcodeName":"section of populated place","toponymName":"Bora","fcl":"P","name":"Bora","fcode":"PPLX","geonameId":684235,"lat":"44.55794","adminName1":"Ialomiţa","population":0},{"countryId":"1149361","adminCode1":"23","countryName":"Afghanistan","fclName":"parks,area, ...","countryCode":"AF","lng":"65.34674","fcodeName":"locality","toponymName":"Bōrah Kanah","fcl":"L","name":"Bōrah Kanah","fcode":"LCTY","geonameId":1146258,"lat":"32.26705","adminName1":"Kandahār","population":0},{"countryId":"2017370","adminCode1":"24","countryName":"Russia","fclName":"city, village,...","countryCode":"RU","lng":"45.04889","fcodeName":"populated place","toponymName":"Sukhur Bora","fcl":"P","name":"Sukhur Bora","fcode":"PPL","geonameId":803834,"lat":"47.28556","adminName1":"Kalmykiya","population":0},{"countryId":"1269750","adminCode1":"35","countryName":"India","fclName":"mountain,hill,rock,... ","countryCode":"IN","lng":"79.34572","fcodeName":"ford","toponymName":"Bora Ghāt","fcl":"T","name":"Bora Ghāt","fcode":"FORD","geonameId":7018553,"lat":"24.91072","adminName1":"Madhya Pradesh","population":0},{"countryId":"7909807","adminCode1":"06","countryName":"South Sudan","fclName":"city, village,...","countryCode":"SS","lng":"29.19271","fcodeName":"populated place","toponymName":"Twok Bora","fcl":"P","name":"Twok Bora","fcode":"PPL","geonameId":7428791,"lat":"9.28029","adminName1":"Unity","population":0},{"countryId":"1168579","adminCode1":"04","countryName":"Pakistan","fclName":"city, village,...","countryCode":"PK","lng":"73.20163","fcodeName":"populated place","toponymName":"Mohra Bora","fcl":"P","name":"Mohra Bora","fcode":"PPL","geonameId":1413644,"lat":"33.23663","adminName1":"Punjab","population":0},{"countryId":"1168579","adminCode1":"02","countryName":"Pakistan","fclName":"city, village,...","countryCode":"PK","lng":"66.83917","fcodeName":"populated place","toponymName":"Bora Shah","fcl":"P","name":"Bora Shah","fcode":"PPL","geonameId":1342081,"lat":"30.64333","adminName1":"Balochistān","population":0},{"countryId":"1168579","adminCode1":"02","countryName":"Pakistan","fclName":"mountain,hill,rock,... ","countryCode":"PK","lng":"67.0655","fcodeName":"ridge(s)","toponymName":"Bora Banj","fcl":"T","name":"Bora Banj","fcode":"RDGE","geonameId":1407436,"lat":"28.8174","adminName1":"Balochistān","population":0},{"countryId":"2077456","adminCode1":"04","countryName":"Australia","fclName":"mountain,hill,rock,... ","countryCode":"AU","lng":"149.33194","fcodeName":"mountain","toponymName":"Mount Bora","fcl":"T","name":"Mount Bora","fcode":"MT","geonameId":2174635,"lat":"-22.72778","adminName1":"Queensland","population":0},{"countryId":"2413451","adminCode1":"03","countryName":"Gambia","fclName":"city, village,...","countryCode":"GM","lng":"-14.83333","fcodeName":"populated place","toponymName":"Sinchu Bora","fcl":"P","name":"Sinchu Bora","fcode":"PPL","geonameId":2411945,"lat":"13.5","adminName1":"Central River","population":250},{"countryId":"2372248","adminCode1":"00","countryName":"Guinea-Bissau","fclName":"city, village,...","countryCode":"GW","lng":"-14.66667","fcodeName":"abandoned populated place","toponymName":"Borá","fcl":"P","name":"Borá","fcode":"PPLQ","geonameId":2374647,"lat":"11.93333","adminName1":"","population":0},{"countryId":"338010","adminCode1":"06","countryName":"Eritrea","fclName":"parks,area, ...","countryCode":"ER","lng":"38.27845","fcodeName":"locality","toponymName":"Bora Aretta","fcl":"L","name":"Bora Aretta","fcode":"LCTY","geonameId":8385592,"lat":"15.88186","adminName1":"Semēnawī Kʼeyih Bahrī","population":0},{"countryId":"337996","adminCode1":"51","countryName":"Ethiopia","fclName":"parks,area, ...","countryCode":"ET","lng":"39.08593","fcodeName":"locality","toponymName":"Deka Bora","fcl":"L","name":"Deka Bora","fcode":"LCTY","geonameId":8606584,"lat":"9.35014","adminName1":"Oromiya","population":0},{"countryId":"2017370","adminCode1":"64","countryName":"Russia","fclName":"stream, lake, ...","countryCode":"RU","lng":"144.24237","fcodeName":"lake","toponymName":"Ozero Dolgoye","fcl":"H","name":"Ozero Dolgoye","fcode":"LK","geonameId":2125950,"lat":"49.32539","adminName1":"Sakhalin","population":0}]}