{"totalResultsCount":22,"geonames":[{"adminCode1":"64","lng":"142.56226","geonameId":2126359,"toponymName":"Bykov","countryId":"2017370","fcl":"P","population":4672,"countryCode":"RU","name":"Bykov","fclName":"city, village,...","countryName":"Russia","fcodeName":"populated place","adminName1":"Sakhalin","lat":"47.32099","fcode":"PPL"},{"adminCode1":"13","lng":"61.93333","geonameId":1508552,"toponymName":"Bykov","countryId":"2017370","fcl":"P","population":0,"countryCode":"RU","name":"Bykov","fclName":"city, village,...","countryName":"Russia","fcodeName":"populated place","adminName1":"Chelyabinsk","lat":"54.6","fcode":"PPL"},{"adminCode1":"09","lng":"36.445","geonameId":808988,"toponymName":"Bykov","countryId":"2017370","fcl":"P","population":0,"countryCode":"RU","name":"Bykov","fclName":"city, village,...","countryName":"Russia","fcodeName":"populated place","adminName1":"Belgorod","lat":"50.80583","fcode":"PPL"},{"adminCode1":"10","lng":"32.49083","geonameId":814227,"toponymName":"Bykov","countryId":"2017370","fcl":"P","population":0,"countryCode":"RU","name":"Bykov","fclName":"city, village,...","countryName":"Russia","fcodeName":"populated place","adminName1":"Brjansk","lat":"53.07306","fcode":"PPL"},{"adminCode1":"85","lng":"17.68877","geonameId":3078340,"toponymName":"Býkov","countryId":"3077311","fcl":"P","population":0,"countryCode":"CZ","name":"Býkov","fclName":"city, village,...","countryName":"Czech Republic","fcodeName":"populated place","adminName1":"Moravskoslezský","lat":"50.05286","fcode":"PPL"},{"adminCode1":"15","lng":"22.93739","geonameId":711025,"toponymName":"Bykov","countryId":"690791","fcl":"P","population":0,"countryCode":"UA","name":"Bykov","fclName":"city, village,...","countryName":"Ukraine","fcodeName":"populated place","adminName1":"Lviv","lat":"49.76696","fcode":"PPL"},{"adminCode1":"15","lng":"23.4751","geonameId":711026,"toponymName":"Bykov","countryId":"690791","fcl":"P","population":0,"countryCode":"UA","name":"Bykov","fclName":"city, village,...","countryName":"Ukraine","fcodeName":"populated place","adminName1":"Lviv","lat":"49.4666","fcode":"PPL"},{"adminCode1":"67","lng":"47.80787","geonameId":570258,"toponymName":"Bykov Otrog","countryId":"2017370","fcl":"P","population":0,"countryCode":"RU","name":"Bykov Otrog","fclName":"city, village,...","countryName":"Russia","fcodeName":"populated place","adminName1":"Saratov","lat":"51.93225","fcode":"PPL"},{"adminCode1":"51","lng":"44.29874","geonameId":570316,"toponymName":"Bykov Maydan","countryId":"2017370","fcl":"P","population":0,"countryCode":"RU","name":"Bykov Maydan","fclName":"city, village,...","countryName":"Russia","fcodeName":"populated place","adminName1":"Nizjnij Novgorod","lat":"55.2597","fcode":"PPL"},{"adminCode1":"00","lng":"50.71667","geonameId":610148,"toponymName":"Bykov","countryId":"1522867","fcl":"P","population":0,"countryCode":"KZ","name":"Bykov","fclName":"city, village,...","countryName":"Kazakhstan","fcodeName":"populated place","adminName1":"","lat":"50.4","fcode":"PPL"},{"adminCode1":"02","lng":"31.67231","geonameId":698950,"toponymName":"Novyy Bykiv","countryId":"690791","fcl":"P","population":0,"countryCode":"UA","name":"Novyy Bykiv","fclName":"city, village,...","countryName":"Ukraine","fcodeName":"populated place","adminName1":"Chernihiv","lat":"50.6006","fcode":"PPL"},{"adminCode1":"64","lng":"155.25833","geonameId":2118458,"toponymName":"Bykov","countryId":"2017370","fcl":"H","population":0,"countryCode":"RU","name":"Bykov","fclName":"stream, lake, ...","countryName":"Russia","fcodeName":"stream","adminName1":"Sakhalin","lat":"50.15833","fcode":"STM"},{"adminCode1":"23","lng":"22.19444","geonameId":868881,"toponymName":"Bykov","countryId":"2017370","fcl":"H","population":0,"countryCode":"RU","name":"Bykov","fclName":"stream, lake, ...","countryName":"Russia","fcodeName":"stream","adminName1":"Kaliningrad","lat":"54.89278","fcode":"STM"},{"adminCode1":"89","lng":"134.77341","geonameId":6417795,"toponymName":"Ostrov Bykov","countryId":"2017370","fcl":"T","population":0,"countryCode":"RU","name":"Ostrov Bykov","fclName":"mountain,hill,rock,... ","countryName":"Russia","fcodeName":"island","adminName1":"Jewish Autonomous","lat":"48.38156","fcode":"ISL"},{"adminCode1":"63","lng":"129.1135","geonameId":2025777,"toponymName":"Mys Bykov","countryId":"2017370","fcl":"T","population":0,"countryCode":"RU","name":"Mys Bykov","fclName":"mountain,hill,rock,... ","countryName":"Russia","fcodeName":"cape","adminName1":"Sakha","lat":"72.00607","fcode":"CAPE"},{"adminCode1":"01","lng":"19.66202","geonameId":3060870,"toponymName":"Bykovo","countryId":"3057568","fcl":"T","population":0,"countryCode":"SK","name":"Bykovo","fclName":"mountain,hill,rock,... ","countryName":"Slovakia","fcodeName":"mountain","adminName1":"Banskobystrický","lat":"48.58319","fcode":"MT"},{"adminCode1":"15","lng":"23.12772","geonameId":695023,"toponymName":"Rykov","countryId":"690791","fcl":"P","population":0,"countryCode":"UA","name":"Rykov","fclName":"city, village,...","countryName":"Ukraine","fcodeName":"populated place","adminName1":"Lviv","lat":"49.04607","fcode":"PPL"},{"adminCode1":"06","lng":"46.4898","geonameId":8249633,"toponymName":"Bykov","countryId":"2017370","fcl":"H","population":0,"countryCode":"RU","name":"Bykov","fclName":"stream, lake, ...","countryName":"Russia","fcodeName":"stream","adminName1":"Arkhangelskaya","lat":"63.6148","fcode":"STM"},{"adminCode1":"87","lng":"13.41667","geonameId":3078341,"toponymName":"Býkov","countryId":"3077311","fcl":"S","population":0,"countryCode":"CZ","name":"Býkov","fclName":"spot, building, farm","countryName":"Czech Republic","fcodeName":"farm","adminName1":"Plzeňský","lat":"49.85","fcode":"FRM"},{"adminCode1":"67","lng":"47.79955","geonameId":6843511,"toponymName":"Pristan’ Bykov Otrog","countryId":"2017370","fcl":"S","population":0,"countryCode":"RU","name":"Pristan’ Bykov Otrog","fclName":"spot, building, farm","countryName":"Russia","fcodeName":"landing","adminName1":"Saratov","lat":"51.93607","fcode":"LDNG"},{"adminCode1":"02","lng":"31.63808","geonameId":8527636,"toponymName":"Staryy Bykiv","countryId":"690791","fcl":"P","population":0,"countryCode":"UA","name":"Staryy Bykiv","fclName":"city, village,...","countryName":"Ukraine","fcodeName":"populated place","adminName1":"Chernihiv","lat":"50.59538","fcode":"PPL"},{"adminCode1":"64","lng":"155.26618","geonameId":2118457,"toponymName":"Vodopad Bykov","countryId":"2017370","fcl":"H","population":0,"countryCode":"RU","name":"Vodopad Bykov","fclName":"stream, lake, ...","countryName":"Russia","fcodeName":"waterfall(s)","adminName1":"Sakhalin","lat":"50.15785","fcode":"FLLS"}]}