{"totalResultsCount":9,"geonames":[{"countryId":"2017370","adminCode1":"64","countryName":"Russia","fclName":"city, village,...","countryCode":"RU","lng":"142.56226","fcodeName":"populated place","toponymName":"Bykov","fcl":"P","name":"Bykov","fcode":"PPL","geonameId":2126359,"lat":"47.32099","adminName1":"Sakhalin","population":4672},{"countryId":"2017370","adminCode1":"13","countryName":"Russia","fclName":"city, village,...","countryCode":"RU","lng":"61.93333","fcodeName":"populated place","toponymName":"Bykov","fcl":"P","name":"Bykov","fcode":"PPL","geonameId":1508552,"lat":"54.6","adminName1":"Chelyabinsk","population":0},{"countryId":"2017370","adminCode1":"09","countryName":"Russia","fclName":"city, village,...","countryCode":"RU","lng":"36.445","fcodeName":"populated place","toponymName":"Bykov","fcl":"P","name":"Bykov","fcode":"PPL","geonameId":808988,"lat":"50.80583","adminName1":"Belgorod","population":0},{"countryId":"2017370","adminCode1":"10","countryName":"Russia","fclName":"city, village,...","countryCode":"RU","lng":"32.49083","fcodeName":"populated place","toponymName":"Bykov","fcl":"P","name":"Bykov","fcode":"PPL","geonameId":814227,"lat":"53.07306","adminName1":"Brjansk","population":0},{"countryId":"2017370","adminCode1":"67","countryName":"Russia","fclName":"city, village,...","countryCode":"RU","lng":"47.80787","fcodeName":"populated place","toponymName":"Bykov Otrog","fcl":"P","name":"Bykov Otrog","fcode":"PPL","geonameId":570258,"lat":"51.93225","adminName1":"Saratov","population":0},{"countryId":"2017370","adminCode1":"51","countryName":"Russia","fclName":"city, village,...","countryCode":"RU","lng":"44.29874","fcodeName":"populated place","toponymName":"Bykov Maydan","fcl":"P","name":"Bykov Maydan","fcode":"PPL","geonameId":570316,"lat":"55.2597","adminName1":"Nizjnij Novgorod","population":0},{"countryId":"1522867","adminCode1":"00","countryName":"Kazakhstan","fclName":"city, village,...","countryCode":"KZ","lng":"50.71667","fcodeName":"populated place","toponymName":"Bykov","fcl":"P","name":"Bykov","fcode":"PPL","geonameId":610148,"lat":"50.4","adminName1":"","population":0},{"countryId":"690791","adminCode1":"02","countryName":"Ukraine","fclName":"city, village,...","countryCode":"UA","lng":"31.67231","fcodeName":"populated place","toponymName":"Novyy Bykiv","fcl":"P","name":"Novyy Bykiv","fcode":"PPL","geonameId":698950,"lat":"50.6006","adminName1":"Chernihiv","population":0},{"countryId":"690791","adminCode1":"02","countryName":"Ukraine","fclName":"city, village,...","countryCode":"UA","lng":"31.63808","fcodeName":"populated place","toponymName":"Staryy Bykiv","fcl":"P","name":"Staryy Bykiv","fcode":"PPL","geonameId":8527636,"lat":"50.59538","adminName1":"Chernihiv","population":0}]}