{"totalResultsCount":47,"geonames":[{"countryId":"2017370","adminCode1":"85","countryName":"Russia","fclName":"city, village,...","countryCode":"RU","lng":"39.48479","fcodeName":"populated place","toponymName":"Velikoye","fcl":"P","name":"Velikoye","fcode":"PPL","geonameId":476016,"lat":"59.39947","adminName1":"Vologda","population":0},{"countryId":"2017370","adminCode1":"37","countryName":"Russia","fclName":"city, village,...","countryCode":"RU","lng":"42.7055","fcodeName":"populated place","toponymName":"Velikoye","fcl":"P","name":"Velikoye","fcode":"PPL","geonameId":7460885,"lat":"58.1205","adminName1":"Kostroma","population":0},{"countryId":"2017370","adminCode1":"85","countryName":"Russia","fclName":"city, village,...","countryCode":"RU","lng":"38.9409","fcodeName":"populated place","toponymName":"Velikoye","fcl":"P","name":"Velikoye","fcode":"PPL","geonameId":7494196,"lat":"59.0683","adminName1":"Vologda","population":0},{"countryId":"2017370","adminCode1":"85","countryName":"Russia","fclName":"city, village,...","countryCode":"RU","lng":"39.9186","fcodeName":"populated place","toponymName":"Velikoye","fcl":"P","name":"Velikoye","fcode":"PPL","geonameId":7495021,"lat":"59.3269","adminName1":"Vologda","population":0},{"countryId":"2017370","adminCode1":"85","countryName":"Russia","fclName":"city, village,...","countryCode":"RU","lng":"37.01667","fcodeName":"populated place","toponymName":"Velikoye","fcl":"P","name":"Velikoye","fcode":"PPL","geonameId":476015,"lat":"59.53333","adminName1":"Vologda","population":0},{"countryId":"2017370","adminCode1":"88","countryName":"Russia","fclName":"city, village,...","countryCode":"RU","lng":"39.77492","fcodeName":"populated place","toponymName":"Velikoye","fcl":"P","name":"Velikoye","fcode":"PPL","geonameId":476019,"lat":"57.35072","adminName1":"Jaroslavl","population":0},{"countryId":"2017370","adminCode1":"06","countryName":"Russia","fclName":"city, village,...","countryCode":"RU","lng":"42.22167","fcodeName":"populated place","toponymName":"Velikoye","fcl":"P","name":"Velikoye","fcode":"PPL","geonameId":829256,"lat":"61.53222","adminName1":"Arkhangelskaya","population":0},{"countryId":"2017370","adminCode1":"06","countryName":"Russia","fclName":"city, village,...","countryCode":"RU","lng":"40.523","fcodeName":"populated place","toponymName":"Velikoye","fcl":"P","name":"Velikoye","fcode":"PPL","geonameId":8071802,"lat":"64.4678","adminName1":"Arkhangelskaya","population":0},{"countryId":"2017370","adminCode1":"52","countryName":"Russia","fclName":"city, village,...","countryCode":"RU","lng":"31.11422","fcodeName":"populated place","toponymName":"Velikoye Selo","fcl":"P","name":"Velikoye Selo","fcode":"PPL","geonameId":475984,"lat":"57.92141","adminName1":"Novgorod","population":0},{"countryId":"2017370","adminCode1":"52","countryName":"Russia","fclName":"city, village,...","countryCode":"RU","lng":"31.44505","fcodeName":"populated place","toponymName":"Velikoye Selo","fcl":"P","name":"Velikoye Selo","fcode":"PPL","geonameId":475985,"lat":"57.7934","adminName1":"Novgorod","population":0},{"countryId":"2017370","adminCode1":"52","countryName":"Russia","fclName":"city, village,...","countryCode":"RU","lng":"31.74077","fcodeName":"populated place","toponymName":"Velikoye Selo","fcl":"P","name":"Velikoye Selo","fcode":"PPL","geonameId":475986,"lat":"57.69144","adminName1":"Novgorod","population":0},{"countryId":"2017370","adminCode1":"52","countryName":"Russia","fclName":"city, village,...","countryCode":"RU","lng":"30.81853","fcodeName":"populated place","toponymName":"Velikoye Selo","fcl":"P","name":"Velikoye Selo","fcode":"PPL","geonameId":475987,"lat":"57.54444","adminName1":"Novgorod","population":0},{"countryId":"2017370","adminCode1":"77","countryName":"Russia","fclName":"city, village,...","countryCode":"RU","lng":"36.41012","fcodeName":"populated place","toponymName":"Velikoye Selo","fcl":"P","name":"Velikoye Selo","fcode":"PPL","geonameId":475988,"lat":"57.54271","adminName1":"Tverskaya","population":0},{"countryId":"2017370","adminCode1":"42","countryName":"Russia","fclName":"city, village,...","countryCode":"RU","lng":"28.3856","fcodeName":"populated place","toponymName":"Velikoye Selo","fcl":"P","name":"Velikoye Selo","fcode":"PPL","geonameId":7611411,"lat":"58.9142","adminName1":"Leningrad","population":0},{"countryId":"2017370","adminCode1":"60","countryName":"Russia","fclName":"city, village,...","countryCode":"RU","lng":"29.6818","fcodeName":"populated place","toponymName":"Velikoye Selo","fcl":"P","name":"Velikoye Selo","fcode":"PPL","geonameId":7599273,"lat":"56.0027","adminName1":"Pskov","population":0},{"countryId":"2017370","adminCode1":"88","countryName":"Russia","fclName":"city, village,...","countryCode":"RU","lng":"39.61348","fcodeName":"populated place","toponymName":"Velikoye Selo","fcl":"P","name":"Velikoye Selo","fcode":"PPL","geonameId":475983,"lat":"58.09509","adminName1":"Jaroslavl","population":0},{"countryId":"2017370","adminCode1":"06","countryName":"Russia","fclName":"city, village,...","countryCode":"RU","lng":"37.72096","fcodeName":"populated place","toponymName":"Velikoye Ozero","fcl":"P","name":"Velikoye Ozero","fcode":"PPL","geonameId":475995,"lat":"62.56502","adminName1":"Arkhangelskaya","population":0},{"countryId":"2017370","adminCode1":"85","countryName":"Russia","fclName":"city, village,...","countryCode":"RU","lng":"37.32739","fcodeName":"populated place","toponymName":"Velikoye Selo","fcl":"P","name":"Velikoye Selo","fcode":"PPL","geonameId":475978,"lat":"59.90362","adminName1":"Vologda","population":0},{"countryId":"2017370","adminCode1":"42","countryName":"Russia","fclName":"city, village,...","countryCode":"RU","lng":"30.04292","fcodeName":"populated place","toponymName":"Velikoye Selo","fcl":"P","name":"Velikoye Selo","fcode":"PPL","geonameId":475982,"lat":"58.51619","adminName1":"Leningrad","population":0},{"countryId":"2017370","adminCode1":"06","countryName":"Russia","fclName":"city, village,...","countryCode":"RU","lng":"41.0841","fcodeName":"populated place","toponymName":"Velikoye Pole","fcl":"P","name":"Velikoye Pole","fcode":"PPL","geonameId":476044,"lat":"60.8217","adminName1":"Arkhangelskaya","population":0},{"countryId":"630336","adminCode1":"05","countryName":"Belarus","fclName":"city, village,...","countryCode":"BY","lng":"26.6905","fcodeName":"populated place","toponymName":"Velikoye Selo","fcl":"P","name":"Velikoye Selo","fcode":"PPL","geonameId":620332,"lat":"54.2738","adminName1":"Minskaja Voblasts’","population":0},{"countryId":"630336","adminCode1":"07","countryName":"Belarus","fclName":"city, village,...","countryCode":"BY","lng":"27.8552","fcodeName":"populated place","toponymName":"Velikoye Pole","fcl":"P","name":"Velikoye Pole","fcode":"PPL","geonameId":620340,"lat":"54.6824","adminName1":"Vitsyebskaya Voblastsʼ","population":0},{"countryId":"630336","adminCode1":"05","countryName":"Belarus","fclName":"city, village,...","countryCode":"BY","lng":"27.9559","fcodeName":"populated place","toponymName":"Velikoye Zaluzh’ye","fcl":"P","name":"Velikoye Zaluzh’ye","fcode":"PPL","geonameId":629847,"lat":"54.0397","adminName1":"Minskaja Voblasts’","population":0},{"countryId":"630336","adminCode1":"07","countryName":"Belarus","fclName":"city, village,...","countryCode":"BY","lng":"27.6696","fcodeName":"populated place","toponymName":"Vyalikaye Syalo","fcl":"P","name":"Vel'ke Sëlo","fcode":"PPL","geonameId":620319,"lat":"55.3996","adminName1":"Vitsyebskaya Voblastsʼ","population":0},{"countryId":"630336","adminCode1":"01","countryName":"Belarus","fclName":"city, village,...","countryCode":"BY","lng":"25.9946","fcodeName":"populated place","toponymName":"Velikoye Selo","fcl":"P","name":"Velikoye Selo","fcode":"PPL","geonameId":620336,"lat":"53.3076","adminName1":"Brestskaya Voblastsʼ","population":0},{"countryId":"630336","adminCode1":"03","countryName":"Belarus","fclName":"city, village,...","countryCode":"BY","lng":"24.808","fcodeName":"populated place","toponymName":"Velikoye Selo","fcl":"P","name":"Velikoye Selo","fcode":"PPL","geonameId":629856,"lat":"53.6925","adminName1":"Grodnenskaya","population":0},{"countryId":"630336","adminCode1":"05","countryName":"Belarus","fclName":"city, village,...","countryCode":"BY","lng":"26.9023","fcodeName":"populated place","toponymName":"Velikoye Selo","fcl":"P","name":"Velikoye Selo","fcode":"PPL","geonameId":620331,"lat":"54.313","adminName1":"Minskaja Voblasts’","population":0},{"countryId":"630336","adminCode1":"03","countryName":"Belarus","fclName":"city, village,...","countryCode":"BY","lng":"26.5055","fcodeName":"populated place","toponymName":"Velikoye Selo","fcl":"P","name":"Velikoye Selo","fcode":"PPL","geonameId":620335,"lat":"53.4328","adminName1":"Grodnenskaya","population":0},{"countryId":"630336","adminCode1":"05","countryName":"Belarus","fclName":"city, village,...","countryCode":"BY","lng":"27.5162","fcodeName":"populated place","toponymName":"Velikoye Zhurovo","fcl":"P","name":"Velikoye Zhurovo","fcode":"PPL","geonameId":8146442,"lat":"52.992","adminName1":"Minskaja Voblasts’","population":0},{"countryId":"2017370","adminCode1":"60","countryName":"Russia","fclName":"city, village,...","countryCode":"RU","lng":"28.80228","fcodeName":"populated place","toponymName":"Velikoye Selo","fcl":"P","name":"Velikoye Selo","fcode":"PPL","geonameId":475989,"lat":"57.01749","adminName1":"Pskov","population":0},{"countryId":"2017370","adminCode1":"33","countryName":"Russia","fclName":"city, village,...","countryCode":"RU","lng":"50.88361","fcodeName":"populated place","toponymName":"Velikoye Pole","fcl":"P","name":"Velikoye Pole","fcode":"PPL","geonameId":475991,"lat":"58.85389","adminName1":"Kirov","population":0},{"countryId":"2017370","adminCode1":"76","countryName":"Russia","fclName":"city, village,...","countryCode":"RU","lng":"38.09166","fcodeName":"populated place","toponymName":"Velikoye Pole","fcl":"P","name":"Velikoye Pole","fcode":"PPL","geonameId":475993,"lat":"54.48265","adminName1":"Tula","population":0},{"countryId":"630336","adminCode1":"07","countryName":"Belarus","fclName":"city, village,...","countryCode":"BY","lng":"29.6772","fcodeName":"populated place","toponymName":"Velikoye Selo","fcl":"P","name":"Velikoye Selo","fcode":"PPL","geonameId":620330,"lat":"54.9458","adminName1":"Vitsyebskaya Voblastsʼ","population":0},{"countryId":"630336","adminCode1":"03","countryName":"Belarus","fclName":"city, village,...","countryCode":"BY","lng":"25.2194","fcodeName":"populated place","toponymName":"Velikoye Selo","fcl":"P","name":"Velikoye Selo","fcode":"PPL","geonameId":620333,"lat":"53.9943","adminName1":"Grodnenskaya","population":0},{"countryId":"630336","adminCode1":"03","countryName":"Belarus","fclName":"city, village,...","countryCode":"BY","lng":"25.1335","fcodeName":"populated place","toponymName":"Velikoye Selo","fcl":"P","name":"Velikoye Selo","fcode":"PPL","geonameId":620334,"lat":"53.6912","adminName1":"Grodnenskaya","population":0},{"countryId":"630336","adminCode1":"07","countryName":"Belarus","fclName":"city, village,...","countryCode":"BY","lng":"28.6023","fcodeName":"populated place","toponymName":"Velikoye Boloto","fcl":"P","name":"Velikoye Boloto","fcode":"PPL","geonameId":620341,"lat":"55.9353","adminName1":"Vitsyebskaya Voblastsʼ","population":0},{"countryId":"630336","adminCode1":"03","countryName":"Belarus","fclName":"city, village,...","countryCode":"BY","lng":"24.9088","fcodeName":"populated place","toponymName":"Velikoye Selo","fcl":"P","name":"Velikoye Selo","fcode":"PPL","geonameId":8077400,"lat":"53.5954","adminName1":"Grodnenskaya","population":0},{"countryId":"630336","adminCode1":"02","countryName":"Belarus","fclName":"city, village,...","countryCode":"BY","lng":"28.773","fcodeName":"populated place","toponymName":"Velikoye Pole","fcl":"P","name":"Velikoye Pole","fcode":"PPL","geonameId":8164826,"lat":"52.3844","adminName1":"Gomel","population":0},{"countryId":"630336","adminCode1":"02","countryName":"Belarus","fclName":"city, village,...","countryCode":"BY","lng":"29.8598","fcodeName":"populated place","toponymName":"Velikoye Lyado","fcl":"P","name":"Velikoye Lyado","fcode":"PPL","geonameId":8148948,"lat":"53.24","adminName1":"Gomel","population":0},{"countryId":"630336","adminCode1":"05","countryName":"Belarus","fclName":"city, village,...","countryCode":"BY","lng":"28.3986","fcodeName":"populated place","toponymName":"Velikoye Pole","fcl":"P","name":"Velikoye Pole","fcode":"PPL","geonameId":7931420,"lat":"53.4003","adminName1":"Minskaja Voblasts’","population":0},{"countryId":"630336","adminCode1":"07","countryName":"Belarus","fclName":"city, village,...","countryCode":"BY","lng":"29.9805","fcodeName":"populated place","toponymName":"Velikoye Selo","fcl":"P","name":"Velikoye Selo","fcode":"PPL","geonameId":8232967,"lat":"54.6917","adminName1":"Vitsyebskaya Voblastsʼ","population":0},{"countryId":"630336","adminCode1":"07","countryName":"Belarus","fclName":"city, village,...","countryCode":"BY","lng":"28.3608","fcodeName":"populated place","toponymName":"Velikoye Selo","fcl":"P","name":"Velikoye Selo","fcode":"PPL","geonameId":8222403,"lat":"55.3151","adminName1":"Vitsyebskaya Voblastsʼ","population":0},{"countryId":"630336","adminCode1":"07","countryName":"Belarus","fclName":"city, village,...","countryCode":"BY","lng":"28.7347","fcodeName":"populated place","toponymName":"Velikoye Pole","fcl":"P","name":"Velikoye Pole","fcode":"PPL","geonameId":8222613,"lat":"54.8569","adminName1":"Vitsyebskaya Voblastsʼ","population":0},{"countryId":"630336","adminCode1":"05","countryName":"Belarus","fclName":"city, village,...","countryCode":"BY","lng":"27.0598","fcodeName":"populated place","toponymName":"Velikoye Selo","fcl":"P","name":"Velikoye Selo","fcode":"PPL","geonameId":8019669,"lat":"53.936","adminName1":"Minskaja Voblasts’","population":0},{"countryId":"630336","adminCode1":"05","countryName":"Belarus","fclName":"city, village,...","countryCode":"BY","lng":"26.931","fcodeName":"populated place","toponymName":"Velikoye Selo","fcl":"P","name":"Velikoye Selo","fcode":"PPL","geonameId":8072196,"lat":"53.7422","adminName1":"Minskaja Voblasts’","population":0},{"countryId":"2017370","adminCode1":"60","countryName":"Russia","fclName":"city, village,...","countryCode":"RU","lng":"28.2897","fcodeName":"populated place","toponymName":"Velikoye Selo","fcl":"P","name":"Velikoye Selo","fcode":"PPL","geonameId":7093036,"lat":"57.8885","adminName1":"Pskov","population":0},{"countryId":"630336","adminCode1":"05","countryName":"Belarus","fclName":"city, village,...","countryCode":"BY","lng":"26.8164","fcodeName":"populated place","toponymName":"Velikoye Pole","fcl":"P","name":"Velikoye Pole","fcode":"PPL","geonameId":8282623,"lat":"54.0225","adminName1":"Minskaja Voblasts’","population":0}]}