{"totalResultsCount":32,"geonames":[{"adminCode1":"93","lng":"120.57305","geonameId":2019055,"toponymName":"Nizhnyaya Vereya","countryId":"2017370","fcl":"P","population":0,"countryCode":"RU","name":"Nizhnyaya Vereya","fclName":"city, village,...","countryName":"Russia","fcodeName":"populated place","adminName1":"Zabaykalsky","lat":"51.91059","fcode":"PPL"},{"adminCode1":"93","lng":"118.98333","geonameId":2013664,"toponymName":"Vereya","countryId":"2017370","fcl":"P","population":0,"countryCode":"RU","name":"Vereya","fclName":"city, village,...","countryName":"Russia","fcodeName":"populated place","adminName1":"Zabaykalsky","lat":"50.6","fcode":"PPL"},{"adminCode1":"59","lng":"25.55","geonameId":6460402,"toponymName":"Malka Vereja","countryId":"732800","fcl":"A","population":0,"countryCode":"BG","name":"Malka Vereja","fclName":"country, state, region,...","countryName":"Bulgaria","fcodeName":"third-order administrative division","adminName1":"Stara Zagora","lat":"42.4","fcode":"ADM3"},{"adminCode1":"47","lng":"39.09766","geonameId":475699,"toponymName":"Vereya","countryId":"2017370","fcl":"P","population":1973,"countryCode":"RU","name":"Vereya","fclName":"city, village,...","countryName":"Russia","fcodeName":"populated place","adminName1":"Moskovskaya","lat":"55.77373","fcode":"PPL"},{"adminCode1":"47","lng":"38.03917","geonameId":475700,"toponymName":"Vereya","countryId":"2017370","fcl":"P","population":3900,"countryCode":"RU","name":"Vereya","fclName":"city, village,...","countryName":"Russia","fcodeName":"populated place","adminName1":"Moskovskaya","lat":"55.61472","fcode":"PPL"},{"adminCode1":"47","lng":"36.17194","geonameId":475701,"toponymName":"Vereya","countryId":"2017370","fcl":"P","population":4916,"countryCode":"RU","name":"Vereya","fclName":"city, village,...","countryName":"Russia","fcodeName":"populated place","adminName1":"Moskovskaya","lat":"55.34472","fcode":"PPL"},{"adminCode1":"93","lng":"119.1183","geonameId":7841250,"toponymName":"Vereya","countryId":"2017370","fcl":"P","population":0,"countryCode":"RU","name":"Vereya","fclName":"city, village,...","countryName":"Russia","fcodeName":"populated place","adminName1":"Zabaykalsky","lat":"50.5905","fcode":"PPL"},{"adminCode1":"51","lng":"41.96243","geonameId":520190,"toponymName":"Nizhnyaya Vereya","countryId":"2017370","fcl":"P","population":0,"countryCode":"RU","name":"Nizhnyaya Vereya","fclName":"city, village,...","countryName":"Russia","fcodeName":"populated place","adminName1":"Nizjnij Novgorod","lat":"55.25116","fcode":"PPL"},{"adminCode1":"93","lng":"120.30361","geonameId":2047666,"toponymName":"Pad’ Pravaya Vereya","countryId":"2017370","fcl":"T","population":0,"countryCode":"RU","name":"Pad’ Pravaya Vereya","fclName":"mountain,hill,rock,... ","countryName":"Russia","fcodeName":"valley","adminName1":"Zabaykalsky","lat":"51.845","fcode":"VAL"},{"adminCode1":"93","lng":"120.53333","geonameId":2047678,"toponymName":"Pad’ Nizhnyaya Vereya","countryId":"2017370","fcl":"T","population":0,"countryCode":"RU","name":"Pad’ Nizhnyaya Vereya","fclName":"mountain,hill,rock,... ","countryName":"Russia","fcodeName":"valley","adminName1":"Zabaykalsky","lat":"51.94472","fcode":"VAL"},{"adminCode1":"51","lng":"42.1049","geonameId":474443,"toponymName":"Verkhnyaya Vereya","countryId":"2017370","fcl":"P","population":0,"countryCode":"RU","name":"Verkhnyaya Vereya","fclName":"city, village,...","countryName":"Russia","fcodeName":"populated place","adminName1":"Nizjnij Novgorod","lat":"55.2303","fcode":"PPL"},{"adminCode1":"59","lng":"25.55","geonameId":729356,"toponymName":"Malka Vereya","countryId":"732800","fcl":"P","population":0,"countryCode":"BG","name":"Malka Vereya","fclName":"city, village,...","countryName":"Bulgaria","fcodeName":"populated place","adminName1":"Stara Zagora","lat":"42.4","fcode":"PPL"},{"adminCode1":"93","lng":"119.086","geonameId":7841236,"toponymName":"Pad’ Vereya","countryId":"2017370","fcl":"T","population":0,"countryCode":"RU","name":"Pad’ Vereya","fclName":"mountain,hill,rock,... ","countryName":"Russia","fcodeName":"valley","adminName1":"Zabaykalsky","lat":"50.5293","fcode":"VAL"},{"adminCode1":"93","lng":"110.58997","geonameId":2047508,"toponymName":"Vereya","countryId":"2017370","fcl":"H","population":0,"countryCode":"RU","name":"Vereya","fclName":"stream, lake, ...","countryName":"Russia","fcodeName":"stream","adminName1":"Zabaykalsky","lat":"49.40731","fcode":"STM"},{"adminCode1":"20","lng":"103.9992","geonameId":7904041,"toponymName":"Vereya","countryId":"2017370","fcl":"H","population":0,"countryCode":"RU","name":"Vereya","fclName":"stream, lake, ...","countryName":"Russia","fcodeName":"stream","adminName1":"Irkutsk","lat":"55.2321","fcode":"STM"},{"adminCode1":"51","lng":"41.96832","geonameId":475698,"toponymName":"Vereya","countryId":"2017370","fcl":"H","population":0,"countryCode":"RU","name":"Vereya","fclName":"stream, lake, ...","countryName":"Russia","fcodeName":"stream","adminName1":"Nizjnij Novgorod","lat":"55.27166","fcode":"STM"},{"adminCode1":"93","lng":"117.5405","geonameId":7842176,"toponymName":"Vereya","countryId":"2017370","fcl":"H","population":0,"countryCode":"RU","name":"Vereya","fclName":"stream, lake, ...","countryName":"Russia","fcodeName":"stream","adminName1":"Zabaykalsky","lat":"51.2414","fcode":"STM"},{"adminCode1":"20","lng":"104.093","geonameId":8055293,"toponymName":"Vereya","countryId":"2017370","fcl":"H","population":0,"countryCode":"RU","name":"Vereya","fclName":"stream, lake, ...","countryName":"Russia","fcodeName":"stream","adminName1":"Irkutsk","lat":"56.0406","fcode":"STM"},{"adminCode1":"20","lng":"103.3235","geonameId":8054873,"toponymName":"Vereya","countryId":"2017370","fcl":"H","population":0,"countryCode":"RU","name":"Vereya","fclName":"stream, lake, ...","countryName":"Russia","fcodeName":"stream","adminName1":"Irkutsk","lat":"56.8147","fcode":"STM"},{"adminCode1":"20","lng":"104.7225","geonameId":7904843,"toponymName":"Vereya","countryId":"2017370","fcl":"H","population":0,"countryCode":"RU","name":"Vereya","fclName":"stream, lake, ...","countryName":"Russia","fcodeName":"stream","adminName1":"Irkutsk","lat":"54.1329","fcode":"STM"},{"adminCode1":"20","lng":"104.7512","geonameId":7904850,"toponymName":"Vereya","countryId":"2017370","fcl":"H","population":0,"countryCode":"RU","name":"Vereya","fclName":"stream, lake, ...","countryName":"Russia","fcodeName":"stream","adminName1":"Irkutsk","lat":"54.4653","fcode":"STM"},{"adminCode1":"20","lng":"104.5536","geonameId":7904882,"toponymName":"Vereya","countryId":"2017370","fcl":"H","population":0,"countryCode":"RU","name":"Vereya","fclName":"stream, lake, ...","countryName":"Russia","fcodeName":"stream","adminName1":"Irkutsk","lat":"53.8617","fcode":"STM"},{"adminCode1":"93","lng":"111.18595","geonameId":7899040,"toponymName":"Vereya","countryId":"2017370","fcl":"H","population":0,"countryCode":"RU","name":"Vereya","fclName":"stream, lake, ...","countryName":"Russia","fcodeName":"stream","adminName1":"Zabaykalsky","lat":"50.25448","fcode":"STM"},{"adminCode1":"93","lng":"108.08186","geonameId":7899211,"toponymName":"Vereya","countryId":"2017370","fcl":"H","population":0,"countryCode":"RU","name":"Vereya","fclName":"stream, lake, ...","countryName":"Russia","fcodeName":"stream","adminName1":"Zabaykalsky","lat":"49.76546","fcode":"STM"},{"adminCode1":"93","lng":"112.94139","geonameId":7502752,"toponymName":"Vereya","countryId":"2017370","fcl":"H","population":0,"countryCode":"RU","name":"Vereya","fclName":"stream, lake, ...","countryName":"Russia","fcodeName":"stream","adminName1":"Zabaykalsky","lat":"51.32614","fcode":"STM"},{"adminCode1":"20","lng":"101.941","geonameId":8253600,"toponymName":"Vereya","countryId":"2017370","fcl":"H","population":0,"countryCode":"RU","name":"Vereya","fclName":"stream, lake, ...","countryName":"Russia","fcodeName":"stream","adminName1":"Irkutsk","lat":"57.7888","fcode":"STM"},{"adminCode1":"51","lng":"42.1039","geonameId":7751159,"toponymName":"Stantsiya Verkhnyaya Vereya","countryId":"2017370","fcl":"S","population":0,"countryCode":"RU","name":"Stantsiya Verkhnyaya Vereya","fclName":"spot, building, farm","countryName":"Russia","fcodeName":"railroad station","adminName1":"Nizjnij Novgorod","lat":"55.2187","fcode":"RSTN"},{"adminCode1":"20","lng":"104.1123","geonameId":8055291,"toponymName":"Bol’shaya Vereya","countryId":"2017370","fcl":"H","population":0,"countryCode":"RU","name":"Bol’shaya Vereya","fclName":"stream, lake, ...","countryName":"Russia","fcodeName":"stream","adminName1":"Irkutsk","lat":"56.041","fcode":"STM"},{"adminCode1":"93","lng":"120.29717","geonameId":7840892,"toponymName":"Kochkovaya Vereya","countryId":"2017370","fcl":"H","population":0,"countryCode":"RU","name":"Kochkovaya Vereya","fclName":"stream, lake, ...","countryName":"Russia","fcodeName":"stream","adminName1":"Zabaykalsky","lat":"52.01322","fcode":"STM"},{"adminCode1":"93","lng":"119.88238","geonameId":7841271,"toponymName":"Orochskaya Vereya","countryId":"2017370","fcl":"H","population":0,"countryCode":"RU","name":"Orochskaya Vereya","fclName":"stream, lake, ...","countryName":"Russia","fcodeName":"stream","adminName1":"Zabaykalsky","lat":"51.98157","fcode":"STM"},{"adminCode1":"93","lng":"119.71409","geonameId":7841306,"toponymName":"Myzinskaya Vereya","countryId":"2017370","fcl":"H","population":0,"countryCode":"RU","name":"Myzinskaya Vereya","fclName":"stream, lake, ...","countryName":"Russia","fcodeName":"stream","adminName1":"Zabaykalsky","lat":"51.71375","fcode":"STM"},{"adminCode1":"20","lng":"104.1119","geonameId":8055292,"toponymName":"Malaya Vereya","countryId":"2017370","fcl":"H","population":0,"countryCode":"RU","name":"Malaya Vereya","fclName":"stream, lake, ...","countryName":"Russia","fcodeName":"stream","adminName1":"Irkutsk","lat":"56.0404","fcode":"STM"}]}