{"totalResultsCount":8,"geonames":[{"countryId":"630336","adminCode1":"06","countryName":"Belarus","fclName":"city, village,...","countryCode":"BY","lng":"29.8481","fcodeName":"populated place","toponymName":"Vetka","fcl":"P","name":"Vetka","fcode":"PPL","geonameId":8330905,"lat":"54.0545","adminName1":"Mahilyowskaya Voblastsʼ","population":0},{"countryId":"630336","adminCode1":"02","countryName":"Belarus","fclName":"city, village,...","countryCode":"BY","lng":"30.6303","fcodeName":"populated place","toponymName":"Vetka","fcl":"P","name":"Vetka","fcode":"PPL","geonameId":8194726,"lat":"52.6738","adminName1":"Gomel","population":0},{"countryId":"630336","adminCode1":"06","countryName":"Belarus","fclName":"city, village,...","countryCode":"BY","lng":"32.4079","fcodeName":"populated place","toponymName":"Vyetka","fcl":"P","name":"Vyetka","fcode":"PPL","geonameId":814648,"lat":"53.237","adminName1":"Mahilyowskaya Voblastsʼ","population":0},{"countryId":"630336","adminCode1":"02","countryName":"Belarus","fclName":"city, village,...","countryCode":"BY","lng":"31.1794","fcodeName":"seat of a second-order administrative division","toponymName":"Vyetka","fcl":"P","name":"Vyetka","fcode":"PPLA2","geonameId":620214,"lat":"52.5591","adminName1":"Gomel","population":8969},{"countryId":"630336","adminCode1":"02","countryName":"Belarus","fclName":"city, village,...","countryCode":"BY","lng":"30.0935","fcodeName":"section of populated place","toponymName":"Vetka Vir","fcl":"P","name":"Vetka Vir","fcode":"PPLX","geonameId":814526,"lat":"52.8833","adminName1":"Gomel","population":0},{"countryId":"630336","adminCode1":"00","countryName":"Belarus","fclName":"city, village,...","countryCode":"BY","lng":"30.16667","fcodeName":"populated place","toponymName":"Krasnaya Vetka","fcl":"P","name":"Krasnaya Vetka","fcode":"PPL","geonameId":626651,"lat":"53.78333","adminName1":"","population":0},{"countryId":"630336","adminCode1":"00","countryName":"Belarus","fclName":"city, village,...","countryCode":"BY","lng":"30.83333","fcodeName":"populated place","toponymName":"Krasnaya Vetka","fcl":"P","name":"Krasnaya Vetka","fcode":"PPL","geonameId":626652,"lat":"53.11667","adminName1":"","population":0},{"countryId":"630336","adminCode1":"02","countryName":"Belarus","fclName":"city, village,...","countryCode":"BY","lng":"30.1044","fcodeName":"populated place","toponymName":"Chervonaya Kvetka","fcl":"P","name":"Chervonaya Kvetka","fcode":"PPL","geonameId":814634,"lat":"52.3927","adminName1":"Gomel","population":0}]}