{"totalResultsCount":90,"geonames":[{"adminCode1":"85","lng":"39.48479","geonameId":476016,"toponymName":"Velikoye","countryId":"2017370","fcl":"P","population":0,"countryCode":"RU","name":"Velikoye","fclName":"city, village,...","countryName":"Russia","fcodeName":"populated place","adminName1":"Vologda","lat":"59.39947","fcode":"PPL"},{"adminCode1":"37","lng":"42.7055","geonameId":7460885,"toponymName":"Velikoye","countryId":"2017370","fcl":"P","population":0,"countryCode":"RU","name":"Velikoye","fclName":"city, village,...","countryName":"Russia","fcodeName":"populated place","adminName1":"Kostroma","lat":"58.1205","fcode":"PPL"},{"adminCode1":"85","lng":"38.9409","geonameId":7494196,"toponymName":"Velikoye","countryId":"2017370","fcl":"P","population":0,"countryCode":"RU","name":"Velikoye","fclName":"city, village,...","countryName":"Russia","fcodeName":"populated place","adminName1":"Vologda","lat":"59.0683","fcode":"PPL"},{"adminCode1":"85","lng":"39.9186","geonameId":7495021,"toponymName":"Velikoye","countryId":"2017370","fcl":"P","population":0,"countryCode":"RU","name":"Velikoye","fclName":"city, village,...","countryName":"Russia","fcodeName":"populated place","adminName1":"Vologda","lat":"59.3269","fcode":"PPL"},{"adminCode1":"77","lng":"36.58306","geonameId":475996,"toponymName":"Ozero Velikoye","countryId":"2017370","fcl":"H","population":0,"countryCode":"RU","name":"Ozero Velikoye","fclName":"stream, lake, ...","countryName":"Russia","fcodeName":"lake","adminName1":"Tverskaya","lat":"57.04194","fcode":"LK"},{"adminCode1":"42","lng":"35.1023","geonameId":476003,"toponymName":"Ozero Velikoye","countryId":"2017370","fcl":"H","population":0,"countryCode":"RU","name":"Ozero Velikoye","fclName":"stream, lake, ...","countryName":"Russia","fcodeName":"lake","adminName1":"Leningrad","lat":"59.4006","fcode":"LK"},{"adminCode1":"52","lng":"35.0069","geonameId":476004,"toponymName":"Ozero Velikoye","countryId":"2017370","fcl":"H","population":0,"countryCode":"RU","name":"Ozero Velikoye","fclName":"stream, lake, ...","countryName":"Russia","fcodeName":"lake","adminName1":"Novgorod","lat":"58.55492","fcode":"LK"},{"adminCode1":"85","lng":"37.01667","geonameId":476015,"toponymName":"Velikoye","countryId":"2017370","fcl":"P","population":0,"countryCode":"RU","name":"Velikoye","fclName":"city, village,...","countryName":"Russia","fcodeName":"populated place","adminName1":"Vologda","lat":"59.53333","fcode":"PPL"},{"adminCode1":"88","lng":"39.77492","geonameId":476019,"toponymName":"Velikoye","countryId":"2017370","fcl":"P","population":0,"countryCode":"RU","name":"Velikoye","fclName":"city, village,...","countryName":"Russia","fcodeName":"populated place","adminName1":"Jaroslavl","lat":"57.35072","fcode":"PPL"},{"adminCode1":"85","lng":"39.26261","geonameId":7495860,"toponymName":"Velikoye","countryId":"2017370","fcl":"P","population":0,"countryCode":"RU","name":"Velikoye","fclName":"city, village,...","countryName":"Russia","fcodeName":"abandoned populated place","adminName1":"Vologda","lat":"59.37486","fcode":"PPLQ"},{"adminCode1":"05","lng":"28.1495","geonameId":620342,"toponymName":"Ozero Velikoye","countryId":"630336","fcl":"H","population":0,"countryCode":"BY","name":"Ozero Velikoye","fclName":"stream, lake, ...","countryName":"Belarus","fcodeName":"lake","adminName1":"Minskaja Voblasts’","lat":"54.1597","fcode":"LK"},{"adminCode1":"06","lng":"42.1516","geonameId":476001,"toponymName":"Ozero Velikoye","countryId":"2017370","fcl":"H","population":0,"countryCode":"RU","name":"Ozero Velikoye","fclName":"stream, lake, ...","countryName":"Russia","fcodeName":"lake","adminName1":"Arkhangelskaya","lat":"62.7123","fcode":"LK"},{"adminCode1":"06","lng":"42.22167","geonameId":829256,"toponymName":"Velikoye","countryId":"2017370","fcl":"P","population":0,"countryCode":"RU","name":"Velikoye","fclName":"city, village,...","countryName":"Russia","fcodeName":"populated place","adminName1":"Arkhangelskaya","lat":"61.53222","fcode":"PPL"},{"adminCode1":"59","lng":"131.77961","geonameId":6419600,"toponymName":"Ozero Velikoye","countryId":"2017370","fcl":"H","population":0,"countryCode":"RU","name":"Ozero Velikoye","fclName":"stream, lake, ...","countryName":"Russia","fcodeName":"lake","adminName1":"Primorskiy","lat":"43.81642","fcode":"LK"},{"adminCode1":"07","lng":"27.6746","geonameId":8221676,"toponymName":"Ozero Velikoye","countryId":"630336","fcl":"H","population":0,"countryCode":"BY","name":"Ozero Velikoye","fclName":"stream, lake, ...","countryName":"Belarus","fcodeName":"lake","adminName1":"Vitsyebskaya Voblastsʼ","lat":"55.1559","fcode":"LK"},{"adminCode1":"06","lng":"40.523","geonameId":8071802,"toponymName":"Velikoye","countryId":"2017370","fcl":"P","population":0,"countryCode":"RU","name":"Velikoye","fclName":"city, village,...","countryName":"Russia","fcodeName":"populated place","adminName1":"Arkhangelskaya","lat":"64.4678","fcode":"PPL"},{"adminCode1":"83","lng":"40.98934","geonameId":7042509,"toponymName":"Ozero Velikoye","countryId":"2017370","fcl":"H","population":0,"countryCode":"RU","name":"Ozero Velikoye","fclName":"stream, lake, ...","countryName":"Russia","fcodeName":"lake","adminName1":"Vladimir","lat":"56.23311","fcode":"LK"},{"adminCode1":"51","lng":"42.2847","geonameId":7751269,"toponymName":"Ozero Velikoye","countryId":"2017370","fcl":"H","population":0,"countryCode":"RU","name":"Ozero Velikoye","fclName":"stream, lake, ...","countryName":"Russia","fcodeName":"lake","adminName1":"Nizjnij Novgorod","lat":"55.5159","fcode":"LK"},{"adminCode1":"06","lng":"45.2342","geonameId":8251694,"toponymName":"Ozero Velikoye","countryId":"2017370","fcl":"H","population":0,"countryCode":"RU","name":"Ozero Velikoye","fclName":"stream, lake, ...","countryName":"Russia","fcodeName":"lake","adminName1":"Arkhangelskaya","lat":"65.6997","fcode":"LK"},{"adminCode1":"52","lng":"31.11422","geonameId":475984,"toponymName":"Velikoye Selo","countryId":"2017370","fcl":"P","population":0,"countryCode":"RU","name":"Velikoye Selo","fclName":"city, village,...","countryName":"Russia","fcodeName":"populated place","adminName1":"Novgorod","lat":"57.92141","fcode":"PPL"},{"adminCode1":"52","lng":"31.44505","geonameId":475985,"toponymName":"Velikoye Selo","countryId":"2017370","fcl":"P","population":0,"countryCode":"RU","name":"Velikoye Selo","fclName":"city, village,...","countryName":"Russia","fcodeName":"populated place","adminName1":"Novgorod","lat":"57.7934","fcode":"PPL"},{"adminCode1":"52","lng":"31.74077","geonameId":475986,"toponymName":"Velikoye Selo","countryId":"2017370","fcl":"P","population":0,"countryCode":"RU","name":"Velikoye Selo","fclName":"city, village,...","countryName":"Russia","fcodeName":"populated place","adminName1":"Novgorod","lat":"57.69144","fcode":"PPL"},{"adminCode1":"52","lng":"30.81853","geonameId":475987,"toponymName":"Velikoye Selo","countryId":"2017370","fcl":"P","population":0,"countryCode":"RU","name":"Velikoye Selo","fclName":"city, village,...","countryName":"Russia","fcodeName":"populated place","adminName1":"Novgorod","lat":"57.54444","fcode":"PPL"},{"adminCode1":"77","lng":"36.41012","geonameId":475988,"toponymName":"Velikoye Selo","countryId":"2017370","fcl":"P","population":0,"countryCode":"RU","name":"Velikoye Selo","fclName":"city, village,...","countryName":"Russia","fcodeName":"populated place","adminName1":"Tverskaya","lat":"57.54271","fcode":"PPL"},{"adminCode1":"42","lng":"28.3856","geonameId":7611411,"toponymName":"Velikoye Selo","countryId":"2017370","fcl":"P","population":0,"countryCode":"RU","name":"Velikoye Selo","fclName":"city, village,...","countryName":"Russia","fcodeName":"populated place","adminName1":"Leningrad","lat":"58.9142","fcode":"PPL"},{"adminCode1":"60","lng":"29.6818","geonameId":7599273,"toponymName":"Velikoye Selo","countryId":"2017370","fcl":"P","population":0,"countryCode":"RU","name":"Velikoye Selo","fclName":"city, village,...","countryName":"Russia","fcodeName":"populated place","adminName1":"Pskov","lat":"56.0027","fcode":"PPL"},{"adminCode1":"88","lng":"39.61348","geonameId":475983,"toponymName":"Velikoye Selo","countryId":"2017370","fcl":"P","population":0,"countryCode":"RU","name":"Velikoye Selo","fclName":"city, village,...","countryName":"Russia","fcodeName":"populated place","adminName1":"Jaroslavl","lat":"58.09509","fcode":"PPL"},{"adminCode1":"07","lng":"26.5222","geonameId":8217780,"toponymName":"Ozero Velikoye Survilishskoye","countryId":"630336","fcl":"H","population":0,"countryCode":"BY","name":"Ozero Velikoye Survilishskoye","fclName":"stream, lake, ...","countryName":"Belarus","fcodeName":"lake","adminName1":"Vitsyebskaya Voblastsʼ","lat":"55.0829","fcode":"LK"},{"adminCode1":"06","lng":"42.3658","geonameId":8253015,"toponymName":"Ozero Velikoye Gachnoye","countryId":"2017370","fcl":"H","population":0,"countryCode":"RU","name":"Ozero Velikoye Gachnoye","fclName":"stream, lake, ...","countryName":"Russia","fcodeName":"lake","adminName1":"Arkhangelskaya","lat":"62.6847","fcode":"LK"},{"adminCode1":"05","lng":"26.6905","geonameId":620332,"toponymName":"Velikoye Selo","countryId":"630336","fcl":"P","population":0,"countryCode":"BY","name":"Velikoye Selo","fclName":"city, village,...","countryName":"Belarus","fcodeName":"populated place","adminName1":"Minskaja Voblasts’","lat":"54.2738","fcode":"PPL"},{"adminCode1":"07","lng":"27.8552","geonameId":620340,"toponymName":"Velikoye Pole","countryId":"630336","fcl":"P","population":0,"countryCode":"BY","name":"Velikoye Pole","fclName":"city, village,...","countryName":"Belarus","fcodeName":"populated place","adminName1":"Vitsyebskaya Voblastsʼ","lat":"54.6824","fcode":"PPL"},{"adminCode1":"85","lng":"37.32739","geonameId":475978,"toponymName":"Velikoye Selo","countryId":"2017370","fcl":"P","population":0,"countryCode":"RU","name":"Velikoye Selo","fclName":"city, village,...","countryName":"Russia","fcodeName":"populated place","adminName1":"Vologda","lat":"59.90362","fcode":"PPL"},{"adminCode1":"42","lng":"30.04292","geonameId":475982,"toponymName":"Velikoye Selo","countryId":"2017370","fcl":"P","population":0,"countryCode":"RU","name":"Velikoye Selo","fclName":"city, village,...","countryName":"Russia","fcodeName":"populated place","adminName1":"Leningrad","lat":"58.51619","fcode":"PPL"},{"adminCode1":"06","lng":"37.72096","geonameId":475995,"toponymName":"Velikoye Ozero","countryId":"2017370","fcl":"P","population":0,"countryCode":"RU","name":"Velikoye Ozero","fclName":"city, village,...","countryName":"Russia","fcodeName":"populated place","adminName1":"Arkhangelskaya","lat":"62.56502","fcode":"PPL"},{"adminCode1":"06","lng":"41.0841","geonameId":476044,"toponymName":"Velikoye Pole","countryId":"2017370","fcl":"P","population":0,"countryCode":"RU","name":"Velikoye Pole","fclName":"city, village,...","countryName":"Russia","fcodeName":"populated place","adminName1":"Arkhangelskaya","lat":"60.8217","fcode":"PPL"},{"adminCode1":"01","lng":"23.5925","geonameId":8021773,"toponymName":"Velikoye-Pole","countryId":"630336","fcl":"P","population":0,"countryCode":"BY","name":"Velikoye-Pole","fclName":"city, village,...","countryName":"Belarus","fcodeName":"populated place","adminName1":"Brestskaya Voblastsʼ","lat":"52.311","fcode":"PPL"},{"adminCode1":"85","lng":"36.3545","geonameId":7592102,"toponymName":"Velikoye Selo","countryId":"2017370","fcl":"P","population":0,"countryCode":"RU","name":"Velikoye Selo","fclName":"city, village,...","countryName":"Russia","fcodeName":"abandoned populated place","adminName1":"Vologda","lat":"59.9571","fcode":"PPLQ"},{"adminCode1":"05","lng":"27.9559","geonameId":629847,"toponymName":"Velikoye Zaluzh’ye","countryId":"630336","fcl":"P","population":0,"countryCode":"BY","name":"Velikoye Zaluzh’ye","fclName":"city, village,...","countryName":"Belarus","fcodeName":"populated place","adminName1":"Minskaja Voblasts’","lat":"54.0397","fcode":"PPL"},{"adminCode1":"07","lng":"27.6696","geonameId":620319,"toponymName":"Vyalikaye Syalo","countryId":"630336","fcl":"P","population":0,"countryCode":"BY","name":"Vel'ke Sëlo","fclName":"city, village,...","countryName":"Belarus","fcodeName":"populated place","adminName1":"Vitsyebskaya Voblastsʼ","lat":"55.3996","fcode":"PPL"},{"adminCode1":"07","lng":"29.6772","geonameId":620330,"toponymName":"Velikoye Selo","countryId":"630336","fcl":"P","population":0,"countryCode":"BY","name":"Velikoye Selo","fclName":"city, village,...","countryName":"Belarus","fcodeName":"populated place","adminName1":"Vitsyebskaya Voblastsʼ","lat":"54.9458","fcode":"PPL"},{"adminCode1":"05","lng":"26.9023","geonameId":620331,"toponymName":"Velikoye Selo","countryId":"630336","fcl":"P","population":0,"countryCode":"BY","name":"Velikoye Selo","fclName":"city, village,...","countryName":"Belarus","fcodeName":"populated place","adminName1":"Minskaja Voblasts’","lat":"54.313","fcode":"PPL"},{"adminCode1":"03","lng":"25.2194","geonameId":620333,"toponymName":"Velikoye Selo","countryId":"630336","fcl":"P","population":0,"countryCode":"BY","name":"Velikoye Selo","fclName":"city, village,...","countryName":"Belarus","fcodeName":"populated place","adminName1":"Grodnenskaya Oblast’","lat":"53.9943","fcode":"PPL"},{"adminCode1":"03","lng":"25.1335","geonameId":620334,"toponymName":"Velikoye Selo","countryId":"630336","fcl":"P","population":0,"countryCode":"BY","name":"Velikoye Selo","fclName":"city, village,...","countryName":"Belarus","fcodeName":"populated place","adminName1":"Grodnenskaya Oblast’","lat":"53.6912","fcode":"PPL"},{"adminCode1":"03","lng":"26.5055","geonameId":620335,"toponymName":"Velikoye Selo","countryId":"630336","fcl":"P","population":0,"countryCode":"BY","name":"Velikoye Selo","fclName":"city, village,...","countryName":"Belarus","fcodeName":"populated place","adminName1":"Grodnenskaya Oblast’","lat":"53.4328","fcode":"PPL"},{"adminCode1":"01","lng":"25.9946","geonameId":620336,"toponymName":"Velikoye Selo","countryId":"630336","fcl":"P","population":0,"countryCode":"BY","name":"Velikoye Selo","fclName":"city, village,...","countryName":"Belarus","fcodeName":"populated place","adminName1":"Brestskaya Voblastsʼ","lat":"53.3076","fcode":"PPL"},{"adminCode1":"03","lng":"24.6032","geonameId":620338,"toponymName":"Velikoye Selo","countryId":"630336","fcl":"P","population":0,"countryCode":"BY","name":"Velikoye Selo","fclName":"city, village,...","countryName":"Belarus","fcodeName":"populated place","adminName1":"Grodnenskaya Oblast’","lat":"52.993","fcode":"PPL"},{"adminCode1":"07","lng":"28.6023","geonameId":620341,"toponymName":"Velikoye Boloto","countryId":"630336","fcl":"P","population":0,"countryCode":"BY","name":"Velikoye Boloto","fclName":"city, village,...","countryName":"Belarus","fcodeName":"populated place","adminName1":"Vitsyebskaya Voblastsʼ","lat":"55.9353","fcode":"PPL"},{"adminCode1":"60","lng":"28.80228","geonameId":475989,"toponymName":"Velikoye Selo","countryId":"2017370","fcl":"P","population":0,"countryCode":"RU","name":"Velikoye Selo","fclName":"city, village,...","countryName":"Russia","fcodeName":"populated place","adminName1":"Pskov","lat":"57.01749","fcode":"PPL"},{"adminCode1":"33","lng":"50.88361","geonameId":475991,"toponymName":"Velikoye Pole","countryId":"2017370","fcl":"P","population":0,"countryCode":"RU","name":"Velikoye Pole","fclName":"city, village,...","countryName":"Russia","fcodeName":"populated place","adminName1":"Kirov","lat":"58.85389","fcode":"PPL"},{"adminCode1":"76","lng":"38.09166","geonameId":475993,"toponymName":"Velikoye Pole","countryId":"2017370","fcl":"P","population":0,"countryCode":"RU","name":"Velikoye Pole","fclName":"city, village,...","countryName":"Russia","fcodeName":"populated place","adminName1":"Tula","lat":"54.48265","fcode":"PPL"},{"adminCode1":"03","lng":"24.808","geonameId":629856,"toponymName":"Velikoye Selo","countryId":"630336","fcl":"P","population":0,"countryCode":"BY","name":"Velikoye Selo","fclName":"city, village,...","countryName":"Belarus","fcodeName":"populated place","adminName1":"Grodnenskaya Oblast’","lat":"53.6925","fcode":"PPL"},{"adminCode1":"02","lng":"28.2696","geonameId":8164648,"toponymName":"Urochishche Velikoye Pole","countryId":"630336","fcl":"L","population":0,"countryCode":"BY","name":"Urochishche Velikoye Pole","fclName":"parks,area, ...","countryName":"Belarus","fcodeName":"area","adminName1":"Gomel Region","lat":"52.4411","fcode":"AREA"},{"adminCode1":"02","lng":"28.8084","geonameId":8164716,"toponymName":"Urochishche Velikoye Pole","countryId":"630336","fcl":"L","population":0,"countryCode":"BY","name":"Urochishche Velikoye Pole","fclName":"parks,area, ...","countryName":"Belarus","fcodeName":"area","adminName1":"Gomel Region","lat":"52.016","fcode":"AREA"},{"adminCode1":"02","lng":"28.773","geonameId":8164826,"toponymName":"Velikoye Pole","countryId":"630336","fcl":"P","population":0,"countryCode":"BY","name":"Velikoye Pole","fclName":"city, village,...","countryName":"Belarus","fcodeName":"populated place","adminName1":"Gomel Region","lat":"52.3844","fcode":"PPL"},{"adminCode1":"02","lng":"29.8598","geonameId":8148948,"toponymName":"Velikoye Lyado","countryId":"630336","fcl":"P","population":0,"countryCode":"BY","name":"Velikoye Lyado","fclName":"city, village,...","countryName":"Belarus","fcodeName":"populated place","adminName1":"Gomel Region","lat":"53.24","fcode":"PPL"},{"adminCode1":"05","lng":"27.5162","geonameId":8146442,"toponymName":"Velikoye Zhurovo","countryId":"630336","fcl":"P","population":0,"countryCode":"BY","name":"Velikoye Zhurovo","fclName":"city, village,...","countryName":"Belarus","fcodeName":"populated place","adminName1":"Minskaja Voblasts’","lat":"52.992","fcode":"PPL"},{"adminCode1":"07","lng":"28.3608","geonameId":8222403,"toponymName":"Velikoye Selo","countryId":"630336","fcl":"P","population":0,"countryCode":"BY","name":"Velikoye Selo","fclName":"city, village,...","countryName":"Belarus","fcodeName":"populated place","adminName1":"Vitsyebskaya Voblastsʼ","lat":"55.3151","fcode":"PPL"},{"adminCode1":"07","lng":"28.7347","geonameId":8222613,"toponymName":"Velikoye Pole","countryId":"630336","fcl":"P","population":0,"countryCode":"BY","name":"Velikoye Pole","fclName":"city, village,...","countryName":"Belarus","fcodeName":"populated place","adminName1":"Vitsyebskaya Voblastsʼ","lat":"54.8569","fcode":"PPL"},{"adminCode1":"19","lng":"26.25598","geonameId":8075254,"toponymName":"Urochishche Velikoye Boloto","countryId":"690791","fcl":"L","population":0,"countryCode":"UA","name":"Urochishche Velikoye Boloto","fclName":"parks,area, ...","countryName":"Ukraine","fcodeName":"area","adminName1":"Rivne","lat":"51.53129","fcode":"AREA"},{"adminCode1":"03","lng":"24.9088","geonameId":8077400,"toponymName":"Velikoye Selo","countryId":"630336","fcl":"P","population":0,"countryCode":"BY","name":"Velikoye Selo","fclName":"city, village,...","countryName":"Belarus","fcodeName":"populated place","adminName1":"Grodnenskaya Oblast’","lat":"53.5954","fcode":"PPL"},{"adminCode1":"05","lng":"26.931","geonameId":8072196,"toponymName":"Velikoye Selo","countryId":"630336","fcl":"P","population":0,"countryCode":"BY","name":"Velikoye Selo","fclName":"city, village,...","countryName":"Belarus","fcodeName":"populated place","adminName1":"Minskaja Voblasts’","lat":"53.7422","fcode":"PPL"},{"adminCode1":"02","lng":"27.5754","geonameId":8073341,"toponymName":"Urochishche Boloto Velikoye","countryId":"630336","fcl":"L","population":0,"countryCode":"BY","name":"Urochishche Boloto Velikoye","fclName":"parks,area, ...","countryName":"Belarus","fcodeName":"area","adminName1":"Gomel Region","lat":"51.8547","fcode":"AREA"},{"adminCode1":"05","lng":"28.3986","geonameId":7931420,"toponymName":"Velikoye Pole","countryId":"630336","fcl":"P","population":0,"countryCode":"BY","name":"Velikoye Pole","fclName":"city, village,...","countryName":"Belarus","fcodeName":"populated place","adminName1":"Minskaja Voblasts’","lat":"53.4003","fcode":"PPL"},{"adminCode1":"05","lng":"27.0598","geonameId":8019669,"toponymName":"Velikoye Selo","countryId":"630336","fcl":"P","population":0,"countryCode":"BY","name":"Velikoye Selo","fclName":"city, village,...","countryName":"Belarus","fcodeName":"populated place","adminName1":"Minskaja Voblasts’","lat":"53.936","fcode":"PPL"},{"adminCode1":"60","lng":"28.2897","geonameId":7093036,"toponymName":"Velikoye Selo","countryId":"2017370","fcl":"P","population":0,"countryCode":"RU","name":"Velikoye Selo","fclName":"city, village,...","countryName":"Russia","fcodeName":"populated place","adminName1":"Pskov","lat":"57.8885","fcode":"PPL"},{"adminCode1":"05","lng":"29.1456","geonameId":8330536,"toponymName":"Urochishche Velikoye Boloto","countryId":"630336","fcl":"L","population":0,"countryCode":"BY","name":"Urochishche Velikoye Boloto","fclName":"parks,area, ...","countryName":"Belarus","fcodeName":"area","adminName1":"Minskaja Voblasts’","lat":"54.247","fcode":"AREA"},{"adminCode1":"05","lng":"29.0212","geonameId":8330569,"toponymName":"Urochishche Velikoye Boloto","countryId":"630336","fcl":"L","population":0,"countryCode":"BY","name":"Urochishche Velikoye Boloto","fclName":"parks,area, ...","countryName":"Belarus","fcodeName":"area","adminName1":"Minskaja Voblasts’","lat":"54.0218","fcode":"AREA"},{"adminCode1":"07","lng":"29.9805","geonameId":8232967,"toponymName":"Velikoye Selo","countryId":"630336","fcl":"P","population":0,"countryCode":"BY","name":"Velikoye Selo","fclName":"city, village,...","countryName":"Belarus","fcodeName":"populated place","adminName1":"Vitsyebskaya Voblastsʼ","lat":"54.6917","fcode":"PPL"},{"adminCode1":"06","lng":"29.6861","geonameId":8279906,"toponymName":"Urochishche Velikoye Boloto","countryId":"630336","fcl":"L","population":0,"countryCode":"BY","name":"Urochishche Velikoye Boloto","fclName":"parks,area, ...","countryName":"Belarus","fcodeName":"area","adminName1":"Mahilyowskaya Voblastsʼ","lat":"53.72","fcode":"AREA"},{"adminCode1":"05","lng":"26.8164","geonameId":8282623,"toponymName":"Velikoye Pole","countryId":"630336","fcl":"P","population":0,"countryCode":"BY","name":"Velikoye Pole","fclName":"city, village,...","countryName":"Belarus","fcodeName":"populated place","adminName1":"Minskaja Voblasts’","lat":"54.0225","fcode":"PPL"},{"adminCode1":"42","lng":"35.25","geonameId":476013,"toponymName":"Boloto Velikoye","countryId":"2017370","fcl":"H","population":0,"countryCode":"RU","name":"Boloto Velikoye","fclName":"stream, lake, ...","countryName":"Russia","fcodeName":"swamp","adminName1":"Leningrad","lat":"60.65","fcode":"SWMP"},{"adminCode1":"23","lng":"22.35167","geonameId":825608,"toponymName":"Boloto Velikoye","countryId":"2017370","fcl":"H","population":0,"countryCode":"RU","name":"Boloto Velikoye","fclName":"stream, lake, ...","countryName":"Russia","fcodeName":"marsh(es)","adminName1":"Kaliningrad","lat":"54.9375","fcode":"MRSH"},{"adminCode1":"85","lng":"46.9632","geonameId":7512958,"toponymName":"Boloto Velikoye","countryId":"2017370","fcl":"H","population":0,"countryCode":"RU","name":"Boloto Velikoye","fclName":"stream, lake, ...","countryName":"Russia","fcodeName":"swamp","adminName1":"Vologda","lat":"60.0213","fcode":"SWMP"},{"adminCode1":"06","lng":"41.17083","geonameId":6268132,"toponymName":"Boloto Velikoye","countryId":"2017370","fcl":"H","population":0,"countryCode":"RU","name":"Boloto Velikoye","fclName":"stream, lake, ...","countryName":"Russia","fcodeName":"swamp","adminName1":"Arkhangelskaya","lat":"62.90639","fcode":"SWMP"},{"adminCode1":"02","lng":"29.3247","geonameId":8175003,"toponymName":"Ozero Velikoye","countryId":"630336","fcl":"H","population":0,"countryCode":"BY","name":"Ozero Velikoye","fclName":"stream, lake, ...","countryName":"Belarus","fcodeName":"oxbow lake","adminName1":"Gomel Region","lat":"52.0505","fcode":"LKO"},{"adminCode1":"02","lng":"30.1307","geonameId":8194664,"toponymName":"Ozero Velikoye","countryId":"630336","fcl":"H","population":0,"countryCode":"BY","name":"Ozero Velikoye","fclName":"stream, lake, ...","countryName":"Belarus","fcodeName":"oxbow lake","adminName1":"Gomel Region","lat":"52.7885","fcode":"LKO"},{"adminCode1":"06","lng":"40.024","geonameId":8079616,"toponymName":"Boloto Velikoye","countryId":"2017370","fcl":"H","population":0,"countryCode":"RU","name":"Boloto Velikoye","fclName":"stream, lake, ...","countryName":"Russia","fcodeName":"swamp","adminName1":"Arkhangelskaya","lat":"61.2695","fcode":"SWMP"},{"adminCode1":"02","lng":"27.5825","geonameId":8073344,"toponymName":"Boloto Velikoye","countryId":"630336","fcl":"H","population":0,"countryCode":"BY","name":"Boloto Velikoye","fclName":"stream, lake, ...","countryName":"Belarus","fcodeName":"swamp","adminName1":"Gomel Region","lat":"51.8501","fcode":"SWMP"},{"adminCode1":"62","lng":"41.9127","geonameId":7690976,"toponymName":"Ozero Velikoye","countryId":"2017370","fcl":"H","population":0,"countryCode":"RU","name":"Ozero Velikoye","fclName":"stream, lake, ...","countryName":"Russia","fcodeName":"oxbow lake","adminName1":"Rjazan","lat":"54.7569","fcode":"LKO"},{"adminCode1":"06","lng":"43.5034","geonameId":8244770,"toponymName":"Ozero Velikoye","countryId":"2017370","fcl":"H","population":0,"countryCode":"RU","name":"Ozero Velikoye","fclName":"stream, lake, ...","countryName":"Russia","fcodeName":"oxbow lake","adminName1":"Arkhangelskaya","lat":"65.7629","fcode":"LKO"},{"adminCode1":"85","lng":"36.3928","geonameId":8245147,"toponymName":"Boloto Velikoye","countryId":"2017370","fcl":"H","population":0,"countryCode":"RU","name":"Boloto Velikoye","fclName":"stream, lake, ...","countryName":"Russia","fcodeName":"swamp","adminName1":"Vologda","lat":"60.1341","fcode":"SWMP"},{"adminCode1":"85","lng":"39.8797","geonameId":8245678,"toponymName":"Boloto Velikoye","countryId":"2017370","fcl":"H","population":0,"countryCode":"RU","name":"Boloto Velikoye","fclName":"stream, lake, ...","countryName":"Russia","fcodeName":"swamp","adminName1":"Vologda","lat":"60.2913","fcode":"SWMP"},{"adminCode1":"00","lng":"29.376","geonameId":8330924,"toponymName":"Boloto Velikoye","countryId":"630336","fcl":"H","population":0,"countryCode":"BY","name":"Boloto Velikoye","fclName":"stream, lake, ...","countryName":"Belarus","fcodeName":"marsh(es)","adminName1":"","lat":"54.0286","fcode":"MRSH"},{"adminCode1":"06","lng":"45.0899","geonameId":8250950,"toponymName":"Boloto Velikoye","countryId":"2017370","fcl":"H","population":0,"countryCode":"RU","name":"Boloto Velikoye","fclName":"stream, lake, ...","countryName":"Russia","fcodeName":"swamp","adminName1":"Arkhangelskaya","lat":"62.5689","fcode":"SWMP"},{"adminCode1":"06","lng":"44.1661","geonameId":8251057,"toponymName":"Boloto Velikoye","countryId":"2017370","fcl":"H","population":0,"countryCode":"RU","name":"Boloto Velikoye","fclName":"stream, lake, ...","countryName":"Russia","fcodeName":"swamp","adminName1":"Arkhangelskaya","lat":"62.4781","fcode":"SWMP"},{"adminCode1":"06","lng":"43.2544","geonameId":8253084,"toponymName":"Boloto Velikoye","countryId":"2017370","fcl":"H","population":0,"countryCode":"RU","name":"Boloto Velikoye","fclName":"stream, lake, ...","countryName":"Russia","fcodeName":"marsh(es)","adminName1":"Arkhangelskaya","lat":"62.7852","fcode":"MRSH"},{"adminCode1":"06","lng":"42.7913","geonameId":8253093,"toponymName":"Boloto Velikoye Veresovoye","countryId":"2017370","fcl":"H","population":0,"countryCode":"RU","name":"Boloto Velikoye Veresovoye","fclName":"stream, lake, ...","countryName":"Russia","fcodeName":"swamp","adminName1":"Arkhangelskaya","lat":"62.9143","fcode":"SWMP"},{"adminCode1":"06","lng":"29.6958","geonameId":8279905,"toponymName":"Boloto Velikoye","countryId":"630336","fcl":"H","population":0,"countryCode":"BY","name":"Boloto Velikoye","fclName":"stream, lake, ...","countryName":"Belarus","fcodeName":"marsh(es)","adminName1":"Mahilyowskaya Voblastsʼ","lat":"53.7216","fcode":"MRSH"},{"adminCode1":"06","lng":"29.558","geonameId":8279912,"toponymName":"Boloto Velikoye","countryId":"630336","fcl":"H","population":0,"countryCode":"BY","name":"Boloto Velikoye","fclName":"stream, lake, ...","countryName":"Belarus","fcodeName":"marsh(es)","adminName1":"Mahilyowskaya Voblastsʼ","lat":"53.6702","fcode":"MRSH"},{"adminCode1":"77","lng":"36.66667","geonameId":555547,"toponymName":"Ivan’kovskoye Vodokhranilishche","countryId":"2017370","fcl":"H","population":0,"countryCode":"RU","name":"Ivankovo Reservoir","fclName":"stream, lake, ...","countryName":"Russia","fcodeName":"reservoir(s)","adminName1":"Tverskaya","lat":"56.66667","fcode":"RSV"}]}