{"totalResultsCount":5,"geonames":[{"countryId":"2017370","adminCode1":"47","countryName":"Russia","fclName":"city, village,...","countryCode":"RU","lng":"39.09766","fcodeName":"populated place","toponymName":"Vereya","fcl":"P","name":"Vereya","fcode":"PPL","geonameId":475699,"lat":"55.77373","adminName1":"Moskovskaya","population":1973},{"countryId":"2017370","adminCode1":"47","countryName":"Russia","fclName":"city, village,...","countryCode":"RU","lng":"36.17194","fcodeName":"populated place","toponymName":"Vereya","fcl":"P","name":"Vereya","fcode":"PPL","geonameId":475701,"lat":"55.34472","adminName1":"Moskovskaya","population":4916},{"countryId":"2017370","adminCode1":"47","countryName":"Russia","fclName":"city, village,...","countryCode":"RU","lng":"38.03917","fcodeName":"populated place","toponymName":"Vereya","fcl":"P","name":"Vereya","fcode":"PPL","geonameId":475700,"lat":"55.61472","adminName1":"Moskovskaya","population":3900},{"countryId":"2017370","adminCode1":"51","countryName":"Russia","fclName":"city, village,...","countryCode":"RU","lng":"41.96242","fcodeName":"populated place","toponymName":"Nizhnyaya Vereya","fcl":"P","name":"Nizhnyaya Vereya","fcode":"PPL","geonameId":520190,"lat":"55.25116","adminName1":"Nizjnij Novgorod","population":0},{"countryId":"2017370","adminCode1":"51","countryName":"Russia","fclName":"city, village,...","countryCode":"RU","lng":"42.1049","fcodeName":"populated place","toponymName":"Verkhnyaya Vereya","fcl":"P","name":"Verkhnyaya Vereya","fcode":"PPL","geonameId":474443,"lat":"55.2303","adminName1":"Nizjnij Novgorod","population":0}]}