{"totalResultsCount":32,"geonames":[{"countryId":"2017370","adminCode1":"93","countryName":"Russia","fclName":"city, village,...","countryCode":"RU","lng":"120.57305","fcodeName":"populated place","toponymName":"Nizhnyaya Vereya","fcl":"P","name":"Nizhnyaya Vereya","fcode":"PPL","geonameId":2019055,"lat":"51.91059","adminName1":"Zabaykalsky","population":0},{"countryId":"732800","adminCode1":"59","countryName":"Bulgaria","fclName":"country, state, region,...","countryCode":"BG","lng":"25.55","fcodeName":"third-order administrative division","toponymName":"Malka Vereja","fcl":"A","name":"Malka Vereja","fcode":"ADM3","geonameId":6460402,"lat":"42.4","adminName1":"Stara Zagora","population":0},{"countryId":"2017370","adminCode1":"47","countryName":"Russia","fclName":"city, village,...","countryCode":"RU","lng":"39.09766","fcodeName":"populated place","toponymName":"Vereya","fcl":"P","name":"Vereya","fcode":"PPL","geonameId":475699,"lat":"55.77373","adminName1":"Moskovskaya","population":1973},{"countryId":"2017370","adminCode1":"47","countryName":"Russia","fclName":"city, village,...","countryCode":"RU","lng":"38.03917","fcodeName":"populated place","toponymName":"Vereya","fcl":"P","name":"Vereya","fcode":"PPL","geonameId":475700,"lat":"55.61472","adminName1":"Moskovskaya","population":3900},{"countryId":"2017370","adminCode1":"47","countryName":"Russia","fclName":"city, village,...","countryCode":"RU","lng":"36.17194","fcodeName":"populated place","toponymName":"Vereya","fcl":"P","name":"Vereya","fcode":"PPL","geonameId":475701,"lat":"55.34472","adminName1":"Moskovskaya","population":4916},{"countryId":"2017370","adminCode1":"93","countryName":"Russia","fclName":"city, village,...","countryCode":"RU","lng":"118.98333","fcodeName":"populated place","toponymName":"Vereya","fcl":"P","name":"Vereya","fcode":"PPL","geonameId":2013664,"lat":"50.6","adminName1":"Zabaykalsky","population":0},{"countryId":"2017370","adminCode1":"93","countryName":"Russia","fclName":"city, village,...","countryCode":"RU","lng":"119.1183","fcodeName":"populated place","toponymName":"Vereya","fcl":"P","name":"Vereya","fcode":"PPL","geonameId":7841250,"lat":"50.5905","adminName1":"Zabaykalsky","population":0},{"countryId":"2017370","adminCode1":"51","countryName":"Russia","fclName":"city, village,...","countryCode":"RU","lng":"41.96242","fcodeName":"populated place","toponymName":"Nizhnyaya Vereya","fcl":"P","name":"Nizhnyaya Vereya","fcode":"PPL","geonameId":520190,"lat":"55.25116","adminName1":"Nizjnij Novgorod","population":0},{"countryId":"2017370","adminCode1":"93","countryName":"Russia","fclName":"mountain,hill,rock,... ","countryCode":"RU","lng":"120.30361","fcodeName":"valley","toponymName":"Pad’ Pravaya Vereya","fcl":"T","name":"Pad’ Pravaya Vereya","fcode":"VAL","geonameId":2047666,"lat":"51.845","adminName1":"Zabaykalsky","population":0},{"countryId":"2017370","adminCode1":"93","countryName":"Russia","fclName":"mountain,hill,rock,... ","countryCode":"RU","lng":"120.53333","fcodeName":"valley","toponymName":"Pad’ Nizhnyaya Vereya","fcl":"T","name":"Pad’ Nizhnyaya Vereya","fcode":"VAL","geonameId":2047678,"lat":"51.94472","adminName1":"Zabaykalsky","population":0},{"countryId":"2017370","adminCode1":"51","countryName":"Russia","fclName":"city, village,...","countryCode":"RU","lng":"42.1049","fcodeName":"populated place","toponymName":"Verkhnyaya Vereya","fcl":"P","name":"Verkhnyaya Vereya","fcode":"PPL","geonameId":474443,"lat":"55.2303","adminName1":"Nizjnij Novgorod","population":0},{"countryId":"732800","adminCode1":"59","countryName":"Bulgaria","fclName":"city, village,...","countryCode":"BG","lng":"25.55","fcodeName":"populated place","toponymName":"Malka Vereya","fcl":"P","name":"Malka Vereya","fcode":"PPL","geonameId":729356,"lat":"42.4","adminName1":"Stara Zagora","population":0},{"countryId":"2017370","adminCode1":"93","countryName":"Russia","fclName":"mountain,hill,rock,... ","countryCode":"RU","lng":"119.086","fcodeName":"valley","toponymName":"Pad’ Vereya","fcl":"T","name":"Pad’ Vereya","fcode":"VAL","geonameId":7841236,"lat":"50.5293","adminName1":"Zabaykalsky","population":0},{"countryId":"2017370","adminCode1":"20","countryName":"Russia","fclName":"stream, lake, ...","countryCode":"RU","lng":"103.9992","fcodeName":"stream","toponymName":"Vereya","fcl":"H","name":"Vereya","fcode":"STM","geonameId":7904041,"lat":"55.2321","adminName1":"Irkutsk","population":0},{"countryId":"2017370","adminCode1":"93","countryName":"Russia","fclName":"stream, lake, ...","countryCode":"RU","lng":"110.58997","fcodeName":"stream","toponymName":"Vereya","fcl":"H","name":"Vereya","fcode":"STM","geonameId":2047508,"lat":"49.4073","adminName1":"Zabaykalsky","population":0},{"countryId":"2017370","adminCode1":"51","countryName":"Russia","fclName":"stream, lake, ...","countryCode":"RU","lng":"41.96832","fcodeName":"stream","toponymName":"Vereya","fcl":"H","name":"Vereya","fcode":"STM","geonameId":475698,"lat":"55.27166","adminName1":"Nizjnij Novgorod","population":0},{"countryId":"2017370","adminCode1":"93","countryName":"Russia","fclName":"stream, lake, ...","countryCode":"RU","lng":"117.5405","fcodeName":"stream","toponymName":"Vereya","fcl":"H","name":"Vereya","fcode":"STM","geonameId":7842176,"lat":"51.2414","adminName1":"Zabaykalsky","population":0},{"countryId":"2017370","adminCode1":"20","countryName":"Russia","fclName":"stream, lake, ...","countryCode":"RU","lng":"104.7225","fcodeName":"stream","toponymName":"Vereya","fcl":"H","name":"Vereya","fcode":"STM","geonameId":7904843,"lat":"54.1329","adminName1":"Irkutsk","population":0},{"countryId":"2017370","adminCode1":"20","countryName":"Russia","fclName":"stream, lake, ...","countryCode":"RU","lng":"104.7512","fcodeName":"stream","toponymName":"Vereya","fcl":"H","name":"Vereya","fcode":"STM","geonameId":7904850,"lat":"54.4653","adminName1":"Irkutsk","population":0},{"countryId":"2017370","adminCode1":"20","countryName":"Russia","fclName":"stream, lake, ...","countryCode":"RU","lng":"104.5536","fcodeName":"stream","toponymName":"Vereya","fcl":"H","name":"Vereya","fcode":"STM","geonameId":7904882,"lat":"53.8617","adminName1":"Irkutsk","population":0},{"countryId":"2017370","adminCode1":"93","countryName":"Russia","fclName":"stream, lake, ...","countryCode":"RU","lng":"111.18595","fcodeName":"stream","toponymName":"Vereya","fcl":"H","name":"Vereya","fcode":"STM","geonameId":7899040,"lat":"50.25448","adminName1":"Zabaykalsky","population":0},{"countryId":"2017370","adminCode1":"93","countryName":"Russia","fclName":"stream, lake, ...","countryCode":"RU","lng":"108.08186","fcodeName":"stream","toponymName":"Vereya","fcl":"H","name":"Vereya","fcode":"STM","geonameId":7899211,"lat":"49.76546","adminName1":"Zabaykalsky","population":0},{"countryId":"2017370","adminCode1":"93","countryName":"Russia","fclName":"stream, lake, ...","countryCode":"RU","lng":"112.9414","fcodeName":"stream","toponymName":"Vereya","fcl":"H","name":"Vereya","fcode":"STM","geonameId":7502752,"lat":"51.32614","adminName1":"Zabaykalsky","population":0},{"countryId":"2017370","adminCode1":"20","countryName":"Russia","fclName":"stream, lake, ...","countryCode":"RU","lng":"101.941","fcodeName":"stream","toponymName":"Vereya","fcl":"H","name":"Vereya","fcode":"STM","geonameId":8253600,"lat":"57.7888","adminName1":"Irkutsk","population":0},{"countryId":"2017370","adminCode1":"20","countryName":"Russia","fclName":"stream, lake, ...","countryCode":"RU","lng":"103.3235","fcodeName":"stream","toponymName":"Vereya","fcl":"H","name":"Vereya","fcode":"STM","geonameId":8054873,"lat":"56.8147","adminName1":"Irkutsk","population":0},{"countryId":"2017370","adminCode1":"20","countryName":"Russia","fclName":"stream, lake, ...","countryCode":"RU","lng":"104.093","fcodeName":"stream","toponymName":"Vereya","fcl":"H","name":"Vereya","fcode":"STM","geonameId":8055293,"lat":"56.0406","adminName1":"Irkutsk","population":0},{"countryId":"2017370","adminCode1":"51","countryName":"Russia","fclName":"spot, building, farm","countryCode":"RU","lng":"42.1039","fcodeName":"railroad station","toponymName":"Stantsiya Verkhnyaya Vereya","fcl":"S","name":"Stantsiya Verkhnyaya Vereya","fcode":"RSTN","geonameId":7751159,"lat":"55.2187","adminName1":"Nizjnij Novgorod","population":0},{"countryId":"2017370","adminCode1":"20","countryName":"Russia","fclName":"stream, lake, ...","countryCode":"RU","lng":"104.1123","fcodeName":"stream","toponymName":"Bol’shaya Vereya","fcl":"H","name":"Bol’shaya Vereya","fcode":"STM","geonameId":8055291,"lat":"56.041","adminName1":"Irkutsk","population":0},{"countryId":"2017370","adminCode1":"93","countryName":"Russia","fclName":"stream, lake, ...","countryCode":"RU","lng":"119.88238","fcodeName":"stream","toponymName":"Orochskaya Vereya","fcl":"H","name":"Orochskaya Vereya","fcode":"STM","geonameId":7841271,"lat":"51.98156","adminName1":"Zabaykalsky","population":0},{"countryId":"2017370","adminCode1":"93","countryName":"Russia","fclName":"stream, lake, ...","countryCode":"RU","lng":"119.71409","fcodeName":"stream","toponymName":"Myzinskaya Vereya","fcl":"H","name":"Myzinskaya Vereya","fcode":"STM","geonameId":7841306,"lat":"51.71376","adminName1":"Zabaykalsky","population":0},{"countryId":"2017370","adminCode1":"93","countryName":"Russia","fclName":"stream, lake, ...","countryCode":"RU","lng":"120.29718","fcodeName":"stream","toponymName":"Kochkovaya Vereya","fcl":"H","name":"Kochkovaya Vereya","fcode":"STM","geonameId":7840892,"lat":"52.01322","adminName1":"Zabaykalsky","population":0},{"countryId":"2017370","adminCode1":"20","countryName":"Russia","fclName":"stream, lake, ...","countryCode":"RU","lng":"104.1119","fcodeName":"stream","toponymName":"Malaya Vereya","fcl":"H","name":"Malaya Vereya","fcode":"STM","geonameId":8055292,"lat":"56.0404","adminName1":"Irkutsk","population":0}]}