{"totalResultsCount":90,"geonames":[{"countryId":"2017370","adminCode1":"85","countryName":"Russia","fclName":"city, village,...","countryCode":"RU","lng":"39.48479","fcodeName":"populated place","toponymName":"Velikoye","fcl":"P","name":"Velikoye","fcode":"PPL","geonameId":476016,"lat":"59.39947","adminName1":"Vologda","population":0},{"countryId":"2017370","adminCode1":"88","countryName":"Russia","fclName":"city, village,...","countryCode":"RU","lng":"39.77492","fcodeName":"populated place","toponymName":"Velikoye","fcl":"P","name":"Velikoye","fcode":"PPL","geonameId":476019,"lat":"57.35072","adminName1":"Jaroslavl","population":0},{"countryId":"2017370","adminCode1":"37","countryName":"Russia","fclName":"city, village,...","countryCode":"RU","lng":"42.7055","fcodeName":"populated place","toponymName":"Velikoye","fcl":"P","name":"Velikoye","fcode":"PPL","geonameId":7460885,"lat":"58.1205","adminName1":"Kostroma","population":0},{"countryId":"2017370","adminCode1":"85","countryName":"Russia","fclName":"city, village,...","countryCode":"RU","lng":"38.9409","fcodeName":"populated place","toponymName":"Velikoye","fcl":"P","name":"Velikoye","fcode":"PPL","geonameId":7494196,"lat":"59.0683","adminName1":"Vologda","population":0},{"countryId":"2017370","adminCode1":"85","countryName":"Russia","fclName":"city, village,...","countryCode":"RU","lng":"39.9186","fcodeName":"populated place","toponymName":"Velikoye","fcl":"P","name":"Velikoye","fcode":"PPL","geonameId":7495021,"lat":"59.3269","adminName1":"Vologda","population":0},{"countryId":"2017370","adminCode1":"77","countryName":"Russia","fclName":"stream, lake, ...","countryCode":"RU","lng":"36.58306","fcodeName":"lake","toponymName":"Ozero Velikoye","fcl":"H","name":"Ozero Velikoye","fcode":"LK","geonameId":475996,"lat":"57.04194","adminName1":"Tverskaya","population":0},{"countryId":"2017370","adminCode1":"42","countryName":"Russia","fclName":"stream, lake, ...","countryCode":"RU","lng":"35.1023","fcodeName":"lake","toponymName":"Ozero Velikoye","fcl":"H","name":"Ozero Velikoye","fcode":"LK","geonameId":476003,"lat":"59.4006","adminName1":"Leningrad","population":0},{"countryId":"2017370","adminCode1":"52","countryName":"Russia","fclName":"stream, lake, ...","countryCode":"RU","lng":"35.0069","fcodeName":"lake","toponymName":"Ozero Velikoye","fcl":"H","name":"Ozero Velikoye","fcode":"LK","geonameId":476004,"lat":"58.55492","adminName1":"Novgorod","population":0},{"countryId":"2017370","adminCode1":"85","countryName":"Russia","fclName":"city, village,...","countryCode":"RU","lng":"37.01667","fcodeName":"populated place","toponymName":"Velikoye","fcl":"P","name":"Velikoye","fcode":"PPL","geonameId":476015,"lat":"59.53333","adminName1":"Vologda","population":0},{"countryId":"2017370","adminCode1":"85","countryName":"Russia","fclName":"city, village,...","countryCode":"RU","lng":"39.26261","fcodeName":"abandoned populated place","toponymName":"Velikoye","fcl":"P","name":"Velikoye","fcode":"PPLQ","geonameId":7495860,"lat":"59.37486","adminName1":"Vologda","population":0},{"countryId":"630336","adminCode1":"05","countryName":"Belarus","fclName":"stream, lake, ...","countryCode":"BY","lng":"28.1495","fcodeName":"lake","toponymName":"Ozero Velikoye","fcl":"H","name":"Ozero Velikoye","fcode":"LK","geonameId":620342,"lat":"54.1597","adminName1":"Minskaja Voblasts’","population":0},{"countryId":"2017370","adminCode1":"06","countryName":"Russia","fclName":"stream, lake, ...","countryCode":"RU","lng":"42.1516","fcodeName":"lake","toponymName":"Ozero Velikoye","fcl":"H","name":"Ozero Velikoye","fcode":"LK","geonameId":476001,"lat":"62.7123","adminName1":"Arkhangelskaya","population":0},{"countryId":"2017370","adminCode1":"59","countryName":"Russia","fclName":"stream, lake, ...","countryCode":"RU","lng":"131.77961","fcodeName":"lake","toponymName":"Ozero Velikoye","fcl":"H","name":"Ozero Velikoye","fcode":"LK","geonameId":6419600,"lat":"43.81642","adminName1":"Primorskiy","population":0},{"countryId":"2017370","adminCode1":"51","countryName":"Russia","fclName":"stream, lake, ...","countryCode":"RU","lng":"42.2847","fcodeName":"lake","toponymName":"Ozero Velikoye","fcl":"H","name":"Ozero Velikoye","fcode":"LK","geonameId":7751269,"lat":"55.5159","adminName1":"Nizjnij Novgorod","population":0},{"countryId":"2017370","adminCode1":"06","countryName":"Russia","fclName":"city, village,...","countryCode":"RU","lng":"42.22167","fcodeName":"populated place","toponymName":"Velikoye","fcl":"P","name":"Velikoye","fcode":"PPL","geonameId":829256,"lat":"61.53222","adminName1":"Arkhangelskaya","population":0},{"countryId":"2017370","adminCode1":"83","countryName":"Russia","fclName":"stream, lake, ...","countryCode":"RU","lng":"40.98934","fcodeName":"lake","toponymName":"Ozero Velikoye","fcl":"H","name":"Ozero Velikoye","fcode":"LK","geonameId":7042509,"lat":"56.23311","adminName1":"Vladimir","population":0},{"countryId":"2017370","adminCode1":"06","countryName":"Russia","fclName":"stream, lake, ...","countryCode":"RU","lng":"45.2342","fcodeName":"lake","toponymName":"Ozero Velikoye","fcl":"H","name":"Ozero Velikoye","fcode":"LK","geonameId":8251694,"lat":"65.6997","adminName1":"Arkhangelskaya","population":0},{"countryId":"630336","adminCode1":"07","countryName":"Belarus","fclName":"stream, lake, ...","countryCode":"BY","lng":"27.6746","fcodeName":"lake","toponymName":"Ozero Velikoye","fcl":"H","name":"Ozero Velikoye","fcode":"LK","geonameId":8221676,"lat":"55.1559","adminName1":"Vitsyebskaya Voblastsʼ","population":0},{"countryId":"2017370","adminCode1":"06","countryName":"Russia","fclName":"city, village,...","countryCode":"RU","lng":"40.523","fcodeName":"populated place","toponymName":"Velikoye","fcl":"P","name":"Velikoye","fcode":"PPL","geonameId":8071802,"lat":"64.4678","adminName1":"Arkhangelskaya","population":0},{"countryId":"2017370","adminCode1":"52","countryName":"Russia","fclName":"city, village,...","countryCode":"RU","lng":"31.11422","fcodeName":"populated place","toponymName":"Velikoye Selo","fcl":"P","name":"Velikoye Selo","fcode":"PPL","geonameId":475984,"lat":"57.92141","adminName1":"Novgorod","population":0},{"countryId":"2017370","adminCode1":"52","countryName":"Russia","fclName":"city, village,...","countryCode":"RU","lng":"31.44505","fcodeName":"populated place","toponymName":"Velikoye Selo","fcl":"P","name":"Velikoye Selo","fcode":"PPL","geonameId":475985,"lat":"57.7934","adminName1":"Novgorod","population":0},{"countryId":"2017370","adminCode1":"52","countryName":"Russia","fclName":"city, village,...","countryCode":"RU","lng":"31.74077","fcodeName":"populated place","toponymName":"Velikoye Selo","fcl":"P","name":"Velikoye Selo","fcode":"PPL","geonameId":475986,"lat":"57.69144","adminName1":"Novgorod","population":0},{"countryId":"2017370","adminCode1":"52","countryName":"Russia","fclName":"city, village,...","countryCode":"RU","lng":"30.81853","fcodeName":"populated place","toponymName":"Velikoye Selo","fcl":"P","name":"Velikoye Selo","fcode":"PPL","geonameId":475987,"lat":"57.54444","adminName1":"Novgorod","population":0},{"countryId":"2017370","adminCode1":"77","countryName":"Russia","fclName":"city, village,...","countryCode":"RU","lng":"36.41012","fcodeName":"populated place","toponymName":"Velikoye Selo","fcl":"P","name":"Velikoye Selo","fcode":"PPL","geonameId":475988,"lat":"57.54271","adminName1":"Tverskaya","population":0},{"countryId":"2017370","adminCode1":"42","countryName":"Russia","fclName":"city, village,...","countryCode":"RU","lng":"28.3856","fcodeName":"populated place","toponymName":"Velikoye Selo","fcl":"P","name":"Velikoye Selo","fcode":"PPL","geonameId":7611411,"lat":"58.9142","adminName1":"Leningrad","population":0},{"countryId":"2017370","adminCode1":"60","countryName":"Russia","fclName":"city, village,...","countryCode":"RU","lng":"29.6818","fcodeName":"populated place","toponymName":"Velikoye Selo","fcl":"P","name":"Velikoye Selo","fcode":"PPL","geonameId":7599273,"lat":"56.0027","adminName1":"Pskov","population":0},{"countryId":"2017370","adminCode1":"88","countryName":"Russia","fclName":"city, village,...","countryCode":"RU","lng":"39.61348","fcodeName":"populated place","toponymName":"Velikoye Selo","fcl":"P","name":"Velikoye Selo","fcode":"PPL","geonameId":475983,"lat":"58.09509","adminName1":"Jaroslavl","population":0},{"countryId":"2017370","adminCode1":"06","countryName":"Russia","fclName":"stream, lake, ...","countryCode":"RU","lng":"42.3658","fcodeName":"lake","toponymName":"Ozero Velikoye Gachnoye","fcl":"H","name":"Ozero Velikoye Gachnoye","fcode":"LK","geonameId":8253015,"lat":"62.6847","adminName1":"Arkhangelskaya","population":0},{"countryId":"630336","adminCode1":"07","countryName":"Belarus","fclName":"stream, lake, ...","countryCode":"BY","lng":"26.5222","fcodeName":"lake","toponymName":"Ozero Velikoye Survilishskoye","fcl":"H","name":"Ozero Velikoye Survilishskoye","fcode":"LK","geonameId":8217780,"lat":"55.0829","adminName1":"Vitsyebskaya Voblastsʼ","population":0},{"countryId":"630336","adminCode1":"05","countryName":"Belarus","fclName":"city, village,...","countryCode":"BY","lng":"26.6905","fcodeName":"populated place","toponymName":"Velikoye Selo","fcl":"P","name":"Velikoye Selo","fcode":"PPL","geonameId":620332,"lat":"54.2738","adminName1":"Minskaja Voblasts’","population":0},{"countryId":"630336","adminCode1":"07","countryName":"Belarus","fclName":"city, village,...","countryCode":"BY","lng":"27.8552","fcodeName":"populated place","toponymName":"Velikoye Pole","fcl":"P","name":"Velikoye Pole","fcode":"PPL","geonameId":620340,"lat":"54.6824","adminName1":"Vitsyebskaya Voblastsʼ","population":0},{"countryId":"2017370","adminCode1":"85","countryName":"Russia","fclName":"city, village,...","countryCode":"RU","lng":"37.32739","fcodeName":"populated place","toponymName":"Velikoye Selo","fcl":"P","name":"Velikoye Selo","fcode":"PPL","geonameId":475978,"lat":"59.90362","adminName1":"Vologda","population":0},{"countryId":"2017370","adminCode1":"42","countryName":"Russia","fclName":"city, village,...","countryCode":"RU","lng":"30.04292","fcodeName":"populated place","toponymName":"Velikoye Selo","fcl":"P","name":"Velikoye Selo","fcode":"PPL","geonameId":475982,"lat":"58.51619","adminName1":"Leningrad","population":0},{"countryId":"2017370","adminCode1":"06","countryName":"Russia","fclName":"city, village,...","countryCode":"RU","lng":"37.72096","fcodeName":"populated place","toponymName":"Velikoye Ozero","fcl":"P","name":"Velikoye Ozero","fcode":"PPL","geonameId":475995,"lat":"62.56502","adminName1":"Arkhangelskaya","population":0},{"countryId":"2017370","adminCode1":"06","countryName":"Russia","fclName":"city, village,...","countryCode":"RU","lng":"41.0841","fcodeName":"populated place","toponymName":"Velikoye Pole","fcl":"P","name":"Velikoye Pole","fcode":"PPL","geonameId":476044,"lat":"60.8217","adminName1":"Arkhangelskaya","population":0},{"countryId":"630336","adminCode1":"01","countryName":"Belarus","fclName":"city, village,...","countryCode":"BY","lng":"23.5925","fcodeName":"populated place","toponymName":"Velikoye-Pole","fcl":"P","name":"Velikoye-Pole","fcode":"PPL","geonameId":8021773,"lat":"52.311","adminName1":"Brestskaya Voblastsʼ","population":0},{"countryId":"2017370","adminCode1":"85","countryName":"Russia","fclName":"city, village,...","countryCode":"RU","lng":"36.3545","fcodeName":"abandoned populated place","toponymName":"Velikoye Selo","fcl":"P","name":"Velikoye Selo","fcode":"PPLQ","geonameId":7592102,"lat":"59.9571","adminName1":"Vologda","population":0},{"countryId":"630336","adminCode1":"05","countryName":"Belarus","fclName":"city, village,...","countryCode":"BY","lng":"27.9559","fcodeName":"populated place","toponymName":"Velikoye Zaluzh’ye","fcl":"P","name":"Velikoye Zaluzh’ye","fcode":"PPL","geonameId":629847,"lat":"54.0397","adminName1":"Minskaja Voblasts’","population":0},{"countryId":"630336","adminCode1":"07","countryName":"Belarus","fclName":"city, village,...","countryCode":"BY","lng":"27.6696","fcodeName":"populated place","toponymName":"Vyalikaye Syalo","fcl":"P","name":"Vel'ke Sëlo","fcode":"PPL","geonameId":620319,"lat":"55.3996","adminName1":"Vitsyebskaya Voblastsʼ","population":0},{"countryId":"630336","adminCode1":"07","countryName":"Belarus","fclName":"city, village,...","countryCode":"BY","lng":"29.6772","fcodeName":"populated place","toponymName":"Velikoye Selo","fcl":"P","name":"Velikoye Selo","fcode":"PPL","geonameId":620330,"lat":"54.9458","adminName1":"Vitsyebskaya Voblastsʼ","population":0},{"countryId":"630336","adminCode1":"05","countryName":"Belarus","fclName":"city, village,...","countryCode":"BY","lng":"26.9023","fcodeName":"populated place","toponymName":"Velikoye Selo","fcl":"P","name":"Velikoye Selo","fcode":"PPL","geonameId":620331,"lat":"54.313","adminName1":"Minskaja Voblasts’","population":0},{"countryId":"630336","adminCode1":"03","countryName":"Belarus","fclName":"city, village,...","countryCode":"BY","lng":"25.2194","fcodeName":"populated place","toponymName":"Velikoye Selo","fcl":"P","name":"Velikoye Selo","fcode":"PPL","geonameId":620333,"lat":"53.9943","adminName1":"Grodnenskaya","population":0},{"countryId":"630336","adminCode1":"03","countryName":"Belarus","fclName":"city, village,...","countryCode":"BY","lng":"25.1335","fcodeName":"populated place","toponymName":"Velikoye Selo","fcl":"P","name":"Velikoye Selo","fcode":"PPL","geonameId":620334,"lat":"53.6912","adminName1":"Grodnenskaya","population":0},{"countryId":"630336","adminCode1":"03","countryName":"Belarus","fclName":"city, village,...","countryCode":"BY","lng":"26.5055","fcodeName":"populated place","toponymName":"Velikoye Selo","fcl":"P","name":"Velikoye Selo","fcode":"PPL","geonameId":620335,"lat":"53.4328","adminName1":"Grodnenskaya","population":0},{"countryId":"630336","adminCode1":"01","countryName":"Belarus","fclName":"city, village,...","countryCode":"BY","lng":"25.9946","fcodeName":"populated place","toponymName":"Velikoye Selo","fcl":"P","name":"Velikoye Selo","fcode":"PPL","geonameId":620336,"lat":"53.3076","adminName1":"Brestskaya Voblastsʼ","population":0},{"countryId":"630336","adminCode1":"03","countryName":"Belarus","fclName":"city, village,...","countryCode":"BY","lng":"24.6032","fcodeName":"populated place","toponymName":"Velikoye Selo","fcl":"P","name":"Velikoye Selo","fcode":"PPL","geonameId":620338,"lat":"52.993","adminName1":"Grodnenskaya","population":0},{"countryId":"630336","adminCode1":"07","countryName":"Belarus","fclName":"city, village,...","countryCode":"BY","lng":"28.6023","fcodeName":"populated place","toponymName":"Velikoye Boloto","fcl":"P","name":"Velikoye Boloto","fcode":"PPL","geonameId":620341,"lat":"55.9353","adminName1":"Vitsyebskaya Voblastsʼ","population":0},{"countryId":"2017370","adminCode1":"60","countryName":"Russia","fclName":"city, village,...","countryCode":"RU","lng":"28.80228","fcodeName":"populated place","toponymName":"Velikoye Selo","fcl":"P","name":"Velikoye Selo","fcode":"PPL","geonameId":475989,"lat":"57.01749","adminName1":"Pskov","population":0},{"countryId":"2017370","adminCode1":"33","countryName":"Russia","fclName":"city, village,...","countryCode":"RU","lng":"50.88361","fcodeName":"populated place","toponymName":"Velikoye Pole","fcl":"P","name":"Velikoye Pole","fcode":"PPL","geonameId":475991,"lat":"58.85389","adminName1":"Kirov","population":0},{"countryId":"2017370","adminCode1":"76","countryName":"Russia","fclName":"city, village,...","countryCode":"RU","lng":"38.09166","fcodeName":"populated place","toponymName":"Velikoye Pole","fcl":"P","name":"Velikoye Pole","fcode":"PPL","geonameId":475993,"lat":"54.48265","adminName1":"Tula","population":0},{"countryId":"630336","adminCode1":"05","countryName":"Belarus","fclName":"city, village,...","countryCode":"BY","lng":"27.0598","fcodeName":"populated place","toponymName":"Velikoye Selo","fcl":"P","name":"Velikoye Selo","fcode":"PPL","geonameId":8019669,"lat":"53.936","adminName1":"Minskaja Voblasts’","population":0},{"countryId":"630336","adminCode1":"05","countryName":"Belarus","fclName":"city, village,...","countryCode":"BY","lng":"28.3986","fcodeName":"populated place","toponymName":"Velikoye Pole","fcl":"P","name":"Velikoye Pole","fcode":"PPL","geonameId":7931420,"lat":"53.4003","adminName1":"Minskaja Voblasts’","population":0},{"countryId":"630336","adminCode1":"03","countryName":"Belarus","fclName":"city, village,...","countryCode":"BY","lng":"24.808","fcodeName":"populated place","toponymName":"Velikoye Selo","fcl":"P","name":"Velikoye Selo","fcode":"PPL","geonameId":629856,"lat":"53.6925","adminName1":"Grodnenskaya","population":0},{"countryId":"2017370","adminCode1":"60","countryName":"Russia","fclName":"city, village,...","countryCode":"RU","lng":"28.2897","fcodeName":"populated place","toponymName":"Velikoye Selo","fcl":"P","name":"Velikoye Selo","fcode":"PPL","geonameId":7093036,"lat":"57.8885","adminName1":"Pskov","population":0},{"countryId":"630336","adminCode1":"02","countryName":"Belarus","fclName":"city, village,...","countryCode":"BY","lng":"29.8598","fcodeName":"populated place","toponymName":"Velikoye Lyado","fcl":"P","name":"Velikoye Lyado","fcode":"PPL","geonameId":8148948,"lat":"53.24","adminName1":"Gomel","population":0},{"countryId":"630336","adminCode1":"07","countryName":"Belarus","fclName":"city, village,...","countryCode":"BY","lng":"29.9805","fcodeName":"populated place","toponymName":"Velikoye Selo","fcl":"P","name":"Velikoye Selo","fcode":"PPL","geonameId":8232967,"lat":"54.6917","adminName1":"Vitsyebskaya Voblastsʼ","population":0},{"countryId":"630336","adminCode1":"06","countryName":"Belarus","fclName":"parks,area, ...","countryCode":"BY","lng":"29.6861","fcodeName":"area","toponymName":"Urochishche Velikoye Boloto","fcl":"L","name":"Urochishche Velikoye Boloto","fcode":"AREA","geonameId":8279906,"lat":"53.72","adminName1":"Mahilyowskaya Voblastsʼ","population":0},{"countryId":"630336","adminCode1":"05","countryName":"Belarus","fclName":"city, village,...","countryCode":"BY","lng":"26.8164","fcodeName":"populated place","toponymName":"Velikoye Pole","fcl":"P","name":"Velikoye Pole","fcode":"PPL","geonameId":8282623,"lat":"54.0225","adminName1":"Minskaja Voblasts’","population":0},{"countryId":"630336","adminCode1":"05","countryName":"Belarus","fclName":"parks,area, ...","countryCode":"BY","lng":"29.1456","fcodeName":"area","toponymName":"Urochishche Velikoye Boloto","fcl":"L","name":"Urochishche Velikoye Boloto","fcode":"AREA","geonameId":8330536,"lat":"54.247","adminName1":"Minskaja Voblasts’","population":0},{"countryId":"630336","adminCode1":"05","countryName":"Belarus","fclName":"parks,area, ...","countryCode":"BY","lng":"29.0212","fcodeName":"area","toponymName":"Urochishche Velikoye Boloto","fcl":"L","name":"Urochishche Velikoye Boloto","fcode":"AREA","geonameId":8330569,"lat":"54.0218","adminName1":"Minskaja Voblasts’","population":0},{"countryId":"630336","adminCode1":"07","countryName":"Belarus","fclName":"city, village,...","countryCode":"BY","lng":"28.3608","fcodeName":"populated place","toponymName":"Velikoye Selo","fcl":"P","name":"Velikoye Selo","fcode":"PPL","geonameId":8222403,"lat":"55.3151","adminName1":"Vitsyebskaya Voblastsʼ","population":0},{"countryId":"630336","adminCode1":"07","countryName":"Belarus","fclName":"city, village,...","countryCode":"BY","lng":"28.7347","fcodeName":"populated place","toponymName":"Velikoye Pole","fcl":"P","name":"Velikoye Pole","fcode":"PPL","geonameId":8222613,"lat":"54.8569","adminName1":"Vitsyebskaya Voblastsʼ","population":0},{"countryId":"630336","adminCode1":"05","countryName":"Belarus","fclName":"city, village,...","countryCode":"BY","lng":"27.5162","fcodeName":"populated place","toponymName":"Velikoye Zhurovo","fcl":"P","name":"Velikoye Zhurovo","fcode":"PPL","geonameId":8146442,"lat":"52.992","adminName1":"Minskaja Voblasts’","population":0},{"countryId":"630336","adminCode1":"03","countryName":"Belarus","fclName":"city, village,...","countryCode":"BY","lng":"24.9088","fcodeName":"populated place","toponymName":"Velikoye Selo","fcl":"P","name":"Velikoye Selo","fcode":"PPL","geonameId":8077400,"lat":"53.5954","adminName1":"Grodnenskaya","population":0},{"countryId":"630336","adminCode1":"05","countryName":"Belarus","fclName":"city, village,...","countryCode":"BY","lng":"26.931","fcodeName":"populated place","toponymName":"Velikoye Selo","fcl":"P","name":"Velikoye Selo","fcode":"PPL","geonameId":8072196,"lat":"53.7422","adminName1":"Minskaja Voblasts’","population":0},{"countryId":"630336","adminCode1":"02","countryName":"Belarus","fclName":"parks,area, ...","countryCode":"BY","lng":"27.5754","fcodeName":"area","toponymName":"Urochishche Boloto Velikoye","fcl":"L","name":"Urochishche Boloto Velikoye","fcode":"AREA","geonameId":8073341,"lat":"51.8547","adminName1":"Gomel","population":0},{"countryId":"690791","adminCode1":"19","countryName":"Ukraine","fclName":"parks,area, ...","countryCode":"UA","lng":"26.25598","fcodeName":"area","toponymName":"Urochishche Velikoye Boloto","fcl":"L","name":"Urochishche Velikoye Boloto","fcode":"AREA","geonameId":8075254,"lat":"51.53129","adminName1":"Rivne","population":0},{"countryId":"630336","adminCode1":"02","countryName":"Belarus","fclName":"parks,area, ...","countryCode":"BY","lng":"28.2696","fcodeName":"area","toponymName":"Urochishche Velikoye Pole","fcl":"L","name":"Urochishche Velikoye Pole","fcode":"AREA","geonameId":8164648,"lat":"52.4411","adminName1":"Gomel","population":0},{"countryId":"630336","adminCode1":"02","countryName":"Belarus","fclName":"parks,area, ...","countryCode":"BY","lng":"28.8084","fcodeName":"area","toponymName":"Urochishche Velikoye Pole","fcl":"L","name":"Urochishche Velikoye Pole","fcode":"AREA","geonameId":8164716,"lat":"52.016","adminName1":"Gomel","population":0},{"countryId":"630336","adminCode1":"02","countryName":"Belarus","fclName":"city, village,...","countryCode":"BY","lng":"28.773","fcodeName":"populated place","toponymName":"Velikoye Pole","fcl":"P","name":"Velikoye Pole","fcode":"PPL","geonameId":8164826,"lat":"52.3844","adminName1":"Gomel","population":0},{"countryId":"2017370","adminCode1":"42","countryName":"Russia","fclName":"stream, lake, ...","countryCode":"RU","lng":"35.25","fcodeName":"swamp","toponymName":"Boloto Velikoye","fcl":"H","name":"Boloto Velikoye","fcode":"SWMP","geonameId":476013,"lat":"60.65","adminName1":"Leningrad","population":0},{"countryId":"2017370","adminCode1":"06","countryName":"Russia","fclName":"stream, lake, ...","countryCode":"RU","lng":"41.17083","fcodeName":"swamp","toponymName":"Boloto Velikoye","fcl":"H","name":"Boloto Velikoye","fcode":"SWMP","geonameId":6268132,"lat":"62.90639","adminName1":"Arkhangelskaya","population":0},{"countryId":"2017370","adminCode1":"23","countryName":"Russia","fclName":"stream, lake, ...","countryCode":"RU","lng":"22.35167","fcodeName":"marsh(es)","toponymName":"Boloto Velikoye","fcl":"H","name":"Boloto Velikoye","fcode":"MRSH","geonameId":825608,"lat":"54.9375","adminName1":"Kaliningrad","population":0},{"countryId":"2017370","adminCode1":"85","countryName":"Russia","fclName":"stream, lake, ...","countryCode":"RU","lng":"46.9632","fcodeName":"swamp","toponymName":"Boloto Velikoye","fcl":"H","name":"Boloto Velikoye","fcode":"SWMP","geonameId":7512958,"lat":"60.0213","adminName1":"Vologda","population":0},{"countryId":"2017370","adminCode1":"62","countryName":"Russia","fclName":"stream, lake, ...","countryCode":"RU","lng":"41.9127","fcodeName":"oxbow lake","toponymName":"Ozero Velikoye","fcl":"H","name":"Ozero Velikoye","fcode":"LKO","geonameId":7690976,"lat":"54.7569","adminName1":"Rjazan","population":0},{"countryId":"630336","adminCode1":"02","countryName":"Belarus","fclName":"stream, lake, ...","countryCode":"BY","lng":"29.3247","fcodeName":"oxbow lake","toponymName":"Ozero Velikoye","fcl":"H","name":"Ozero Velikoye","fcode":"LKO","geonameId":8175003,"lat":"52.0505","adminName1":"Gomel","population":0},{"countryId":"2017370","adminCode1":"06","countryName":"Russia","fclName":"stream, lake, ...","countryCode":"RU","lng":"43.5034","fcodeName":"oxbow lake","toponymName":"Ozero Velikoye","fcl":"H","name":"Ozero Velikoye","fcode":"LKO","geonameId":8244770,"lat":"65.7629","adminName1":"Arkhangelskaya","population":0},{"countryId":"2017370","adminCode1":"85","countryName":"Russia","fclName":"stream, lake, ...","countryCode":"RU","lng":"36.3928","fcodeName":"swamp","toponymName":"Boloto Velikoye","fcl":"H","name":"Boloto Velikoye","fcode":"SWMP","geonameId":8245147,"lat":"60.1341","adminName1":"Vologda","population":0},{"countryId":"2017370","adminCode1":"06","countryName":"Russia","fclName":"stream, lake, ...","countryCode":"RU","lng":"45.0899","fcodeName":"swamp","toponymName":"Boloto Velikoye","fcl":"H","name":"Boloto Velikoye","fcode":"SWMP","geonameId":8250950,"lat":"62.5689","adminName1":"Arkhangelskaya","population":0},{"countryId":"2017370","adminCode1":"06","countryName":"Russia","fclName":"stream, lake, ...","countryCode":"RU","lng":"44.1661","fcodeName":"swamp","toponymName":"Boloto Velikoye","fcl":"H","name":"Boloto Velikoye","fcode":"SWMP","geonameId":8251057,"lat":"62.4781","adminName1":"Arkhangelskaya","population":0},{"countryId":"2017370","adminCode1":"06","countryName":"Russia","fclName":"stream, lake, ...","countryCode":"RU","lng":"43.2544","fcodeName":"marsh(es)","toponymName":"Boloto Velikoye","fcl":"H","name":"Boloto Velikoye","fcode":"MRSH","geonameId":8253084,"lat":"62.7852","adminName1":"Arkhangelskaya","population":0},{"countryId":"2017370","adminCode1":"06","countryName":"Russia","fclName":"stream, lake, ...","countryCode":"RU","lng":"42.7913","fcodeName":"swamp","toponymName":"Boloto Velikoye Veresovoye","fcl":"H","name":"Boloto Velikoye Veresovoye","fcode":"SWMP","geonameId":8253093,"lat":"62.9143","adminName1":"Arkhangelskaya","population":0},{"countryId":"2017370","adminCode1":"85","countryName":"Russia","fclName":"stream, lake, ...","countryCode":"RU","lng":"39.8797","fcodeName":"swamp","toponymName":"Boloto Velikoye","fcl":"H","name":"Boloto Velikoye","fcode":"SWMP","geonameId":8245678,"lat":"60.2913","adminName1":"Vologda","population":0},{"countryId":"630336","adminCode1":"06","countryName":"Belarus","fclName":"stream, lake, ...","countryCode":"BY","lng":"29.6958","fcodeName":"marsh(es)","toponymName":"Boloto Velikoye","fcl":"H","name":"Boloto Velikoye","fcode":"MRSH","geonameId":8279905,"lat":"53.7216","adminName1":"Mahilyowskaya Voblastsʼ","population":0},{"countryId":"630336","adminCode1":"06","countryName":"Belarus","fclName":"stream, lake, ...","countryCode":"BY","lng":"29.558","fcodeName":"marsh(es)","toponymName":"Boloto Velikoye","fcl":"H","name":"Boloto Velikoye","fcode":"MRSH","geonameId":8279912,"lat":"53.6702","adminName1":"Mahilyowskaya Voblastsʼ","population":0},{"countryId":"630336","adminCode1":"00","countryName":"Belarus","fclName":"stream, lake, ...","countryCode":"BY","lng":"29.376","fcodeName":"marsh(es)","toponymName":"Boloto Velikoye","fcl":"H","name":"Boloto Velikoye","fcode":"MRSH","geonameId":8330924,"lat":"54.0286","adminName1":"","population":0},{"countryId":"630336","adminCode1":"02","countryName":"Belarus","fclName":"stream, lake, ...","countryCode":"BY","lng":"30.1307","fcodeName":"oxbow lake","toponymName":"Ozero Velikoye","fcl":"H","name":"Ozero Velikoye","fcode":"LKO","geonameId":8194664,"lat":"52.7885","adminName1":"Gomel","population":0},{"countryId":"2017370","adminCode1":"06","countryName":"Russia","fclName":"stream, lake, ...","countryCode":"RU","lng":"40.024","fcodeName":"swamp","toponymName":"Boloto Velikoye","fcl":"H","name":"Boloto Velikoye","fcode":"SWMP","geonameId":8079616,"lat":"61.2695","adminName1":"Arkhangelskaya","population":0},{"countryId":"630336","adminCode1":"02","countryName":"Belarus","fclName":"stream, lake, ...","countryCode":"BY","lng":"27.5825","fcodeName":"swamp","toponymName":"Boloto Velikoye","fcl":"H","name":"Boloto Velikoye","fcode":"SWMP","geonameId":8073344,"lat":"51.8501","adminName1":"Gomel","population":0},{"countryId":"2017370","adminCode1":"77","countryName":"Russia","fclName":"stream, lake, ...","countryCode":"RU","lng":"36.66667","fcodeName":"reservoir(s)","toponymName":"Ivan’kovskoye Vodokhranilishche","fcl":"H","name":"Ivankovo Reservoir","fcode":"RSV","geonameId":555547,"lat":"56.66667","adminName1":"Tverskaya","population":0}]}