{"geonames": [{"fcl": "P", "countryName": "Russia", "adminCode1": "57", "fcodeName": "populated place", "adminName1": "Penza", "lng": "44.6425", "name": "Vorontsovka", "toponymName": "Vorontsovka", "lat": "53.5248", "fclName": "city, village,...", "geonameId": 7457925, "fcode": "PPL", "population": 0, "countryCode": "RU", "countryId": "2017370"}, {"fcl": "P", "countryName": "Russia", "adminCode1": "86", "fcodeName": "populated place", "adminName1": "Voronezj", "lng": "40.3549", "name": "Vorontsovka", "toponymName": "Vorontsovka", "lat": "50.6132", "fclName": "city, village,...", "geonameId": 471909, "fcode": "PPL", "population": 5067, "countryCode": "RU", "countryId": "2017370"}, {"fcl": "P", "countryName": "Russia", "adminCode1": "72", "fcodeName": "populated place", "adminName1": "Tambov", "lng": "41.4157", "name": "Vorontsovka", "toponymName": "Vorontsovka", "lat": "52.45956", "fclName": "city, village,...", "geonameId": 471906, "fcode": "PPL", "population": 0, "countryCode": "RU", "countryId": "2017370"}, {"fcl": "P", "countryName": "Russia", "adminCode1": "67", "fcodeName": "populated place", "adminName1": "Saratov", "lng": "44.37049", "name": "Vorontsovka", "toponymName": "Vorontsovka", "lat": "52.29335", "fclName": "city, village,...", "geonameId": 471907, "fcode": "PPL", "population": 0, "countryCode": "RU", "countryId": "2017370"}, {"fcl": "P", "countryName": "Russia", "adminCode1": "41", "fcodeName": "populated place", "adminName1": "Kursk", "lng": "37.5473", "name": "Vorontsovka", "toponymName": "Vorontsovka", "lat": "51.9058", "fclName": "city, village,...", "geonameId": 808229, "fcode": "PPL", "population": 0, "countryCode": "RU", "countryId": "2017370"}, {"fcl": "P", "countryName": "Russia", "adminCode1": "67", "fcodeName": "populated place", "adminName1": "Saratov", "lng": "44.53333", "name": "Malaya Vorontsovka", "toponymName": "Malaya Vorontsovka", "lat": "52.21667", "fclName": "city, village,...", "geonameId": 531242, "fcode": "PPL", "population": 0, "countryCode": "RU", "countryId": "2017370"}, {"fcl": "P", "countryName": "Russia", "adminCode1": "67", "fcodeName": "populated place", "adminName1": "Saratov", "lng": "44.23056", "name": "Malaya Vorontsovka", "toponymName": "Malaya Vorontsovka", "lat": "51.30528", "fclName": "city, village,...", "geonameId": 531243, "fcode": "PPL", "population": 0, "countryCode": "RU", "countryId": "2017370"}], "totalResultsCount": 7, "url": "http://api.geonames.org/search?north=56.716667&west=37.433333&south=48.716667&name=%D0%92%D0%BE%D1%80%D0%BE%D0%BD%D1%86%D0%BE%D0%B2%D0%BA%D0%B0&username=jaguillette&east=45.433333&featureClass=P&type=json"}