{"totalResultsCount":7,"geonames":[{"adminCode1":"67","lng":"47.37993","geonameId":472278,"toponymName":"Vol’sk","countryId":"2017370","fcl":"P","population":70500,"countryCode":"RU","name":"Vol'sk","fclName":"city, village,...","countryName":"Russia","fcodeName":"populated place","adminName1":"Saratov","lat":"52.04541","fcode":"PPL"},{"adminCode1":"67","lng":"47.24338","geonameId":499977,"toponymName":"Vol’sk","countryId":"2017370","fcl":"P","population":0,"countryCode":"RU","name":"Vol’sk","fclName":"city, village,...","countryName":"Russia","fcodeName":"populated place","adminName1":"Saratov","lat":"51.98627","fcode":"PPL"},{"adminCode1":"02","lng":"30.8502","geonameId":8194622,"toponymName":"Vol’sk","countryId":"630336","fcl":"P","population":0,"countryCode":"BY","name":"Vol’sk","fclName":"city, village,...","countryName":"Belarus","fcodeName":"abandoned populated place","adminName1":"Gomel","lat":"52.8119","fcode":"PPLQ"},{"adminCode1":"12","lng":"73.06508","geonameId":1517408,"toponymName":"Saryözen","countryId":"1522867","fcl":"P","population":0,"countryCode":"KZ","name":"Saryözen","fclName":"city, village,...","countryName":"Kazakhstan","fcodeName":"populated place","adminName1":"Qaraghandy","lat":"50.39921","fcode":"PPL"},{"adminCode1":"67","lng":"47.38752","geonameId":6710936,"toponymName":"Stantsiya Vol’sk Pervyy","countryId":"2017370","fcl":"S","population":0,"countryCode":"RU","name":"Stantsiya Vol’sk Pervyy","fclName":"spot, building, farm","countryName":"Russia","fcodeName":"railroad station","adminName1":"Saratov","lat":"52.03275","fcode":"RSTN"},{"adminCode1":"67","lng":"47.39426","geonameId":6710939,"toponymName":"Pristan’ Vol’sk","countryId":"2017370","fcl":"S","population":0,"countryCode":"RU","name":"Pristan’ Vol’sk","fclName":"spot, building, farm","countryName":"Russia","fcodeName":"landing","adminName1":"Saratov","lat":"52.03619","fcode":"LDNG"},{"adminCode1":"67","lng":"47.31068","geonameId":6710922,"toponymName":"Stantsiya Vol’sk Vtoroy","countryId":"2017370","fcl":"S","population":0,"countryCode":"RU","name":"Stantsiya Vol’sk Vtoroy","fclName":"spot, building, farm","countryName":"Russia","fcodeName":"railroad station","adminName1":"Saratov","lat":"52.08578","fcode":"RSTN"}]}