{"geonames": [{"fcl": "P", "countryName": "Russia", "adminCode1": "47", "fcodeName": "populated place", "adminName1": "Moskovskaya", "lng": "38.65264", "name": "Voskresensk", "toponymName": "Voskresensk", "lat": "55.31733", "fclName": "city, village,...", "geonameId": 471656, "fcode": "PPL", "population": 77086, "countryCode": "RU", "countryId": "2017370"}, {"fcl": "P", "countryName": "Russia", "adminCode1": "69", "fcodeName": "populated place", "adminName1": "Smolensk", "lng": "34.93861", "name": "Voskresensk", "toponymName": "Voskresensk", "lat": "55.64583", "fclName": "city, village,...", "geonameId": 471655, "fcode": "PPL", "population": 0, "countryCode": "RU", "countryId": "2017370"}, {"fcl": "P", "countryName": "Russia", "adminCode1": "69", "fcodeName": "populated place", "adminName1": "Smolensk", "lng": "35.11667", "name": "Voskresensk", "toponymName": "Voskresensk", "lat": "54.98333", "fclName": "city, village,...", "geonameId": 471657, "fcode": "PPL", "population": 0, "countryCode": "RU", "countryId": "2017370"}, {"fcl": "P", "countryName": "Russia", "adminCode1": "47", "fcodeName": "populated place", "adminName1": "Moskovskaya", "lng": "36.63196", "name": "Voskresenki", "toponymName": "Voskresenki", "lat": "55.84154", "fclName": "city, village,...", "geonameId": 471668, "fcode": "PPL", "population": 0, "countryCode": "RU", "countryId": "2017370"}, {"fcl": "P", "countryName": "Russia", "adminCode1": "47", "fcodeName": "populated place", "adminName1": "Moskovskaya", "lng": "36.86867", "name": "Istra", "toponymName": "Istra", "lat": "55.91997", "fclName": "city, village,...", "geonameId": 555746, "fcode": "PPL", "population": 33390, "countryCode": "RU", "countryId": "2017370"}], "totalResultsCount": 5, "url": "http://api.geonames.org/search?north=56.981&west=34.3446&south=54.2132&name=%D0%92%D0%BE%D1%81%D0%BA%D1%80%D0%B5%D1%81%D0%B5%D0%BD%D1%81%D0%BA&username=jaguillette&east=40.3419&featureClass=P&type=json"}