{"geonames": [{"fcl": "P", "countryName": "Russia", "adminCode1": "77", "fcodeName": "populated place", "adminName1": "Tverskaya", "lng": "38.02028", "name": "Vysokoye", "toponymName": "Vysokoye", "lat": "57.30139", "fclName": "city, village,...", "geonameId": 470022, "fcode": "PPL", "population": 0, "countryCode": "RU", "countryId": "2017370"}, {"fcl": "P", "countryName": "Russia", "adminCode1": "62", "fcodeName": "populated place", "adminName1": "Rjazan", "lng": "39.37652", "name": "Vysokoye", "toponymName": "Vysokoye", "lat": "53.95177", "fclName": "city, village,...", "geonameId": 470059, "fcode": "PPL", "population": 0, "countryCode": "RU", "countryId": "2017370"}, {"fcl": "P", "countryName": "Russia", "adminCode1": "52", "fcodeName": "populated place", "adminName1": "Novgorod", "lng": "35.23576", "name": "Vysokoye", "toponymName": "Vysokoye", "lat": "58.34476", "fclName": "city, village,...", "geonameId": 470018, "fcode": "PPL", "population": 0, "countryCode": "RU", "countryId": "2017370"}, {"fcl": "P", "countryName": "Russia", "adminCode1": "10", "fcodeName": "populated place", "adminName1": "Brjansk", "lng": "33.59261", "name": "Vysokoye", "toponymName": "Vysokoye", "lat": "53.95642", "fclName": "city, village,...", "geonameId": 817402, "fcode": "PPL", "population": 0, "countryCode": "RU", "countryId": "2017370"}, {"fcl": "P", "countryName": "Russia", "adminCode1": "77", "fcodeName": "populated place", "adminName1": "Tverskaya", "lng": "37.2848", "name": "Vysokoye", "toponymName": "Vysokoye", "lat": "58.3742", "fclName": "city, village,...", "geonameId": 7591137, "fcode": "PPL", "population": 0, "countryCode": "RU", "countryId": "2017370"}, {"fcl": "P", "countryName": "Russia", "adminCode1": "77", "fcodeName": "populated place", "adminName1": "Tverskaya", "lng": "37.2586", "name": "Vysokoye", "toponymName": "Vysokoye", "lat": "58.4403", "fclName": "city, village,...", "geonameId": 7591180, "fcode": "PPL", "population": 0, "countryCode": "RU", "countryId": "2017370"}, {"fcl": "P", "countryName": "Russia", "adminCode1": "77", "fcodeName": "populated place", "adminName1": "Tverskaya", "lng": "37.016", "name": "Vysokoye", "toponymName": "Vysokoye", "lat": "57.4632", "fclName": "city, village,...", "geonameId": 7586019, "fcode": "PPL", "population": 0, "countryCode": "RU", "countryId": "2017370"}, {"fcl": "P", "countryName": "Russia", "adminCode1": "85", "fcodeName": "populated place", "adminName1": "Vologda", "lng": "39.84493", "name": "Vysokoye", "toponymName": "Vysokoye", "lat": "59.6289", "fclName": "city, village,...", "geonameId": 470079, "fcode": "PPL", "population": 0, "countryCode": "RU", "countryId": "2017370"}, {"fcl": "P", "countryName": "Russia", "adminCode1": "77", "fcodeName": "populated place", "adminName1": "Tverskaya", "lng": "37.2624", "name": "Vysokoye", "toponymName": "Vysokoye", "lat": "58.498", "fclName": "city, village,...", "geonameId": 7591231, "fcode": "PPL", "population": 0, "countryCode": "RU", "countryId": "2017370"}, {"fcl": "P", "countryName": "Russia", "adminCode1": "77", "fcodeName": "populated place", "adminName1": "Tverskaya", "lng": "32.87314", "name": "Vysokoye", "toponymName": "Vysokoye", "lat": "56.39286", "fclName": "city, village,...", "geonameId": 470032, "fcode": "PPL", "population": 0, "countryCode": "RU", "countryId": "2017370"}, {"fcl": "P", "countryName": "Russia", "adminCode1": "76", "fcodeName": "populated place", "adminName1": "Tula", "lng": "38.32601", "name": "Vysokoye", "toponymName": "Vysokoye", "lat": "54.61996", "fclName": "city, village,...", "geonameId": 470051, "fcode": "PPL", "population": 0, "countryCode": "RU", "countryId": "2017370"}, {"fcl": "P", "countryName": "Russia", "adminCode1": "25", "fcodeName": "populated place", "adminName1": "Kaluga", "lng": "34.94522", "name": "Vysokoye", "toponymName": "Vysokoye", "lat": "53.91993", "fclName": "city, village,...", "geonameId": 470227, "fcode": "PPL", "population": 0, "countryCode": "RU", "countryId": "2017370"}, {"fcl": "P", "countryName": "Russia", "adminCode1": "88", "fcodeName": "abandoned populated place", "adminName1": "Jaroslavl", "lng": "38.83169", "name": "Vysokoye", "toponymName": "Vysokoye", "lat": "58.5974", "fclName": "city, village,...", "geonameId": 7459618, "fcode": "PPLQ", "population": 0, "countryCode": "RU", "countryId": "2017370"}, {"fcl": "P", "countryName": "Russia", "adminCode1": "77", "fcodeName": "populated place", "adminName1": "Tverskaya", "lng": "34.13892", "name": "Vysokoye", "toponymName": "Vysokoye", "lat": "56.9745", "fclName": "city, village,...", "geonameId": 470026, "fcode": "PPL", "population": 0, "countryCode": "RU", "countryId": "2017370"}, {"fcl": "P", "countryName": "Russia", "adminCode1": "69", "fcodeName": "populated place", "adminName1": "Smolensk", "lng": "33.66833", "name": "Vysokoye", "toponymName": "Vysokoye", "lat": "55.59306", "fclName": "city, village,...", "geonameId": 470039, "fcode": "PPL", "population": 0, "countryCode": "RU", "countryId": "2017370"}, {"fcl": "P", "countryName": "Russia", "adminCode1": "69", "fcodeName": "populated place", "adminName1": "Smolensk", "lng": "34.09917", "name": "Vysokoye", "toponymName": "Vysokoye", "lat": "55.48474", "fclName": "city, village,...", "geonameId": 470040, "fcode": "PPL", "population": 0, "countryCode": "RU", "countryId": "2017370"}, {"fcl": "P", "countryName": "Russia", "adminCode1": "69", "fcodeName": "populated place", "adminName1": "Smolensk", "lng": "33.42175", "name": "Vysokoye", "toponymName": "Vysokoye", "lat": "54.40967", "fclName": "city, village,...", "geonameId": 470055, "fcode": "PPL", "population": 0, "countryCode": "RU", "countryId": "2017370"}, {"fcl": "P", "countryName": "Russia", "adminCode1": "62", "fcodeName": "populated place", "adminName1": "Rjazan", "lng": "39.4", "name": "Vysokovo", "toponymName": "Vysokovo", "lat": "54.76667", "fclName": "city, village,...", "geonameId": 470149, "fcode": "PPL", "population": 0, "countryCode": "RU", "countryId": "2017370"}, {"fcl": "P", "countryName": "Russia", "adminCode1": "77", "fcodeName": "populated place", "adminName1": "Tverskaya", "lng": "34.90271", "name": "Vysokoye", "toponymName": "Vysokoye", "lat": "56.69912", "fclName": "city, village,...", "geonameId": 451891, "fcode": "PPL", "population": 0, "countryCode": "RU", "countryId": "2017370"}, {"fcl": "P", "countryName": "Russia", "adminCode1": "62", "fcodeName": "populated place", "adminName1": "Rjazan", "lng": "39.4156", "name": "Vysokoye", "toponymName": "Vysokoye", "lat": "54.5221", "fclName": "city, village,...", "geonameId": 818705, "fcode": "PPL", "population": 0, "countryCode": "RU", "countryId": "2017370"}, {"fcl": "P", "countryName": "Russia", "adminCode1": "69", "fcodeName": "populated place", "adminName1": "Smolensk", "lng": "32.21287", "name": "Vysokoye", "toponymName": "Vysokoye", "lat": "54.73424", "fclName": "city, village,...", "geonameId": 470048, "fcode": "PPL", "population": 0, "countryCode": "RU", "countryId": "2017370"}, {"fcl": "P", "countryName": "Russia", "adminCode1": "10", "fcodeName": "populated place", "adminName1": "Brjansk", "lng": "33.57676", "name": "Vysokoye", "toponymName": "Vysokoye", "lat": "53.25928", "fclName": "city, village,...", "geonameId": 470063, "fcode": "PPL", "population": 0, "countryCode": "RU", "countryId": "2017370"}, {"fcl": "P", "countryName": "Russia", "adminCode1": "10", "fcodeName": "populated place", "adminName1": "Brjansk", "lng": "33.3934", "name": "Vysokoye", "toponymName": "Vysokoye", "lat": "53.1175", "fclName": "city, village,...", "geonameId": 814103, "fcode": "PPL", "population": 0, "countryCode": "RU", "countryId": "2017370"}, {"fcl": "P", "countryName": "Russia", "adminCode1": "69", "fcodeName": "populated place", "adminName1": "Smolensk", "lng": "32.9293", "name": "Vysokoye", "toponymName": "Vysokoye", "lat": "55.4995", "fclName": "city, village,...", "geonameId": 811997, "fcode": "PPL", "population": 0, "countryCode": "RU", "countryId": "2017370"}, {"fcl": "P", "countryName": "Russia", "adminCode1": "77", "fcodeName": "populated place", "adminName1": "Tverskaya", "lng": "32.77491", "name": "Vysokoye", "toponymName": "Vysokoye", "lat": "56.28767", "fclName": "city, village,...", "geonameId": 7092775, "fcode": "PPL", "population": 0, "countryCode": "RU", "countryId": "2017370"}, {"fcl": "P", "countryName": "Russia", "adminCode1": "77", "fcodeName": "populated place", "adminName1": "Tverskaya", "lng": "32.59069", "name": "Vysokoye", "toponymName": "Vysokoye", "lat": "57.13859", "fclName": "city, village,...", "geonameId": 7095061, "fcode": "PPL", "population": 0, "countryCode": "RU", "countryId": "2017370"}, {"fcl": "P", "countryName": "Russia", "adminCode1": "69", "fcodeName": "populated place", "adminName1": "Smolensk", "lng": "34.07104", "name": "Novoye Vysokoye", "toponymName": "Novoye Vysokoye", "lat": "55.39677", "fclName": "city, village,...", "geonameId": 517694, "fcode": "PPL", "population": 0, "countryCode": "RU", "countryId": "2017370"}, {"fcl": "P", "countryName": "Russia", "adminCode1": "76", "fcodeName": "abandoned populated place", "adminName1": "Tula", "lng": "38.488", "name": "Vysokoye", "toponymName": "Vysokoye", "lat": "54.1494", "fclName": "city, village,...", "geonameId": 7690532, "fcode": "PPLQ", "population": 0, "countryCode": "RU", "countryId": "2017370"}], "totalResultsCount": 28, "url": "http://api.geonames.org/search?north=60.857828&west=31.921928&south=52.857828&name=%D0%92%D1%8B%D1%81%D0%BE%D0%BA%D0%BE%D0%B5&username=jaguillette&east=39.921928&featureClass=P&type=json"}