{"totalResultsCount":28,"geonames":[{"countryId":"2017370","adminCode1":"77","countryName":"Russia","fclName":"city, village,...","countryCode":"RU","lng":"38.02028","fcodeName":"populated place","toponymName":"Vysokoye","fcl":"P","name":"Vysokoye","fcode":"PPL","geonameId":470022,"lat":"57.30139","adminName1":"Tverskaya","population":0},{"countryId":"2017370","adminCode1":"62","countryName":"Russia","fclName":"city, village,...","countryCode":"RU","lng":"39.37652","fcodeName":"populated place","toponymName":"Vysokoye","fcl":"P","name":"Vysokoye","fcode":"PPL","geonameId":470059,"lat":"53.95177","adminName1":"Rjazan","population":0},{"countryId":"2017370","adminCode1":"52","countryName":"Russia","fclName":"city, village,...","countryCode":"RU","lng":"35.23576","fcodeName":"populated place","toponymName":"Vysokoye","fcl":"P","name":"Vysokoye","fcode":"PPL","geonameId":470018,"lat":"58.34476","adminName1":"Novgorod","population":0},{"countryId":"2017370","adminCode1":"10","countryName":"Russia","fclName":"city, village,...","countryCode":"RU","lng":"33.59261","fcodeName":"populated place","toponymName":"Vysokoye","fcl":"P","name":"Vysokoye","fcode":"PPL","geonameId":817402,"lat":"53.95642","adminName1":"Brjansk","population":0},{"countryId":"2017370","adminCode1":"77","countryName":"Russia","fclName":"city, village,...","countryCode":"RU","lng":"37.2848","fcodeName":"populated place","toponymName":"Vysokoye","fcl":"P","name":"Vysokoye","fcode":"PPL","geonameId":7591137,"lat":"58.3742","adminName1":"Tverskaya","population":0},{"countryId":"2017370","adminCode1":"77","countryName":"Russia","fclName":"city, village,...","countryCode":"RU","lng":"37.2586","fcodeName":"populated place","toponymName":"Vysokoye","fcl":"P","name":"Vysokoye","fcode":"PPL","geonameId":7591180,"lat":"58.4403","adminName1":"Tverskaya","population":0},{"countryId":"2017370","adminCode1":"77","countryName":"Russia","fclName":"city, village,...","countryCode":"RU","lng":"37.016","fcodeName":"populated place","toponymName":"Vysokoye","fcl":"P","name":"Vysokoye","fcode":"PPL","geonameId":7586019,"lat":"57.4632","adminName1":"Tverskaya","population":0},{"countryId":"2017370","adminCode1":"85","countryName":"Russia","fclName":"city, village,...","countryCode":"RU","lng":"39.84493","fcodeName":"populated place","toponymName":"Vysokoye","fcl":"P","name":"Vysokoye","fcode":"PPL","geonameId":470079,"lat":"59.6289","adminName1":"Vologda","population":0},{"countryId":"2017370","adminCode1":"77","countryName":"Russia","fclName":"city, village,...","countryCode":"RU","lng":"37.2624","fcodeName":"populated place","toponymName":"Vysokoye","fcl":"P","name":"Vysokoye","fcode":"PPL","geonameId":7591231,"lat":"58.498","adminName1":"Tverskaya","population":0},{"countryId":"2017370","adminCode1":"77","countryName":"Russia","fclName":"city, village,...","countryCode":"RU","lng":"32.87314","fcodeName":"populated place","toponymName":"Vysokoye","fcl":"P","name":"Vysokoye","fcode":"PPL","geonameId":470032,"lat":"56.39286","adminName1":"Tverskaya","population":0},{"countryId":"2017370","adminCode1":"76","countryName":"Russia","fclName":"city, village,...","countryCode":"RU","lng":"38.32601","fcodeName":"populated place","toponymName":"Vysokoye","fcl":"P","name":"Vysokoye","fcode":"PPL","geonameId":470051,"lat":"54.61996","adminName1":"Tula","population":0},{"countryId":"2017370","adminCode1":"25","countryName":"Russia","fclName":"city, village,...","countryCode":"RU","lng":"34.94522","fcodeName":"populated place","toponymName":"Vysokoye","fcl":"P","name":"Vysokoye","fcode":"PPL","geonameId":470227,"lat":"53.91993","adminName1":"Kaluga","population":0},{"countryId":"2017370","adminCode1":"88","countryName":"Russia","fclName":"city, village,...","countryCode":"RU","lng":"38.83169","fcodeName":"abandoned populated place","toponymName":"Vysokoye","fcl":"P","name":"Vysokoye","fcode":"PPLQ","geonameId":7459618,"lat":"58.5974","adminName1":"Jaroslavl","population":0},{"countryId":"2017370","adminCode1":"77","countryName":"Russia","fclName":"city, village,...","countryCode":"RU","lng":"34.13892","fcodeName":"populated place","toponymName":"Vysokoye","fcl":"P","name":"Vysokoye","fcode":"PPL","geonameId":470026,"lat":"56.9745","adminName1":"Tverskaya","population":0},{"countryId":"2017370","adminCode1":"69","countryName":"Russia","fclName":"city, village,...","countryCode":"RU","lng":"33.66833","fcodeName":"populated place","toponymName":"Vysokoye","fcl":"P","name":"Vysokoye","fcode":"PPL","geonameId":470039,"lat":"55.59306","adminName1":"Smolensk","population":0},{"countryId":"2017370","adminCode1":"69","countryName":"Russia","fclName":"city, village,...","countryCode":"RU","lng":"34.09917","fcodeName":"populated place","toponymName":"Vysokoye","fcl":"P","name":"Vysokoye","fcode":"PPL","geonameId":470040,"lat":"55.48474","adminName1":"Smolensk","population":0},{"countryId":"2017370","adminCode1":"69","countryName":"Russia","fclName":"city, village,...","countryCode":"RU","lng":"33.42175","fcodeName":"populated place","toponymName":"Vysokoye","fcl":"P","name":"Vysokoye","fcode":"PPL","geonameId":470055,"lat":"54.40967","adminName1":"Smolensk","population":0},{"countryId":"2017370","adminCode1":"62","countryName":"Russia","fclName":"city, village,...","countryCode":"RU","lng":"39.4","fcodeName":"populated place","toponymName":"Vysokovo","fcl":"P","name":"Vysokovo","fcode":"PPL","geonameId":470149,"lat":"54.76667","adminName1":"Rjazan","population":0},{"countryId":"2017370","adminCode1":"77","countryName":"Russia","fclName":"city, village,...","countryCode":"RU","lng":"34.90271","fcodeName":"populated place","toponymName":"Vysokoye","fcl":"P","name":"Vysokoye","fcode":"PPL","geonameId":451891,"lat":"56.69912","adminName1":"Tverskaya","population":0},{"countryId":"2017370","adminCode1":"62","countryName":"Russia","fclName":"city, village,...","countryCode":"RU","lng":"39.4156","fcodeName":"populated place","toponymName":"Vysokoye","fcl":"P","name":"Vysokoye","fcode":"PPL","geonameId":818705,"lat":"54.5221","adminName1":"Rjazan","population":0},{"countryId":"2017370","adminCode1":"69","countryName":"Russia","fclName":"city, village,...","countryCode":"RU","lng":"32.21287","fcodeName":"populated place","toponymName":"Vysokoye","fcl":"P","name":"Vysokoye","fcode":"PPL","geonameId":470048,"lat":"54.73424","adminName1":"Smolensk","population":0},{"countryId":"2017370","adminCode1":"10","countryName":"Russia","fclName":"city, village,...","countryCode":"RU","lng":"33.57676","fcodeName":"populated place","toponymName":"Vysokoye","fcl":"P","name":"Vysokoye","fcode":"PPL","geonameId":470063,"lat":"53.25928","adminName1":"Brjansk","population":0},{"countryId":"2017370","adminCode1":"69","countryName":"Russia","fclName":"city, village,...","countryCode":"RU","lng":"32.9293","fcodeName":"populated place","toponymName":"Vysokoye","fcl":"P","name":"Vysokoye","fcode":"PPL","geonameId":811997,"lat":"55.4995","adminName1":"Smolensk","population":0},{"countryId":"2017370","adminCode1":"10","countryName":"Russia","fclName":"city, village,...","countryCode":"RU","lng":"33.3934","fcodeName":"populated place","toponymName":"Vysokoye","fcl":"P","name":"Vysokoye","fcode":"PPL","geonameId":814103,"lat":"53.1175","adminName1":"Brjansk","population":0},{"countryId":"2017370","adminCode1":"77","countryName":"Russia","fclName":"city, village,...","countryCode":"RU","lng":"32.59069","fcodeName":"populated place","toponymName":"Vysokoye","fcl":"P","name":"Vysokoye","fcode":"PPL","geonameId":7095061,"lat":"57.13859","adminName1":"Tverskaya","population":0},{"countryId":"2017370","adminCode1":"77","countryName":"Russia","fclName":"city, village,...","countryCode":"RU","lng":"32.77491","fcodeName":"populated place","toponymName":"Vysokoye","fcl":"P","name":"Vysokoye","fcode":"PPL","geonameId":7092775,"lat":"56.28767","adminName1":"Tverskaya","population":0},{"countryId":"2017370","adminCode1":"69","countryName":"Russia","fclName":"city, village,...","countryCode":"RU","lng":"34.07104","fcodeName":"populated place","toponymName":"Novoye Vysokoye","fcl":"P","name":"Novoye Vysokoye","fcode":"PPL","geonameId":517694,"lat":"55.39677","adminName1":"Smolensk","population":0},{"countryId":"2017370","adminCode1":"76","countryName":"Russia","fclName":"city, village,...","countryCode":"RU","lng":"38.488","fcodeName":"abandoned populated place","toponymName":"Vysokoye","fcl":"P","name":"Vysokoye","fcode":"PPLQ","geonameId":7690532,"lat":"54.1494","adminName1":"Tula","population":0}]}