{"totalResultsCount":13,"geonames":[{"adminCode1":"67","lng":"43.92491","geonameId":562234,"toponymName":"Gagarino","countryId":"2017370","fcl":"P","population":0,"countryCode":"RU","name":"Gagarino","fclName":"city, village,...","countryName":"Russia","fcodeName":"populated place","adminName1":"Saratov","lat":"52.00082","fcode":"PPL"},{"adminCode1":"43","lng":"39.36051","geonameId":562230,"toponymName":"Gagarino","countryId":"2017370","fcl":"P","population":0,"countryCode":"RU","name":"Gagarino","fclName":"city, village,...","countryName":"Russia","fcodeName":"populated place","adminName1":"Lipetsk","lat":"53.37776","fcode":"PPL"},{"adminCode1":"43","lng":"38.94993","geonameId":562232,"toponymName":"Gagarino","countryId":"2017370","fcl":"P","population":0,"countryCode":"RU","name":"Gagarino","fclName":"city, village,...","countryName":"Russia","fcodeName":"populated place","adminName1":"Lipetsk","lat":"52.74553","fcode":"PPL"},{"adminCode1":"72","lng":"40.93333","geonameId":562233,"toponymName":"Gagarino","countryId":"2017370","fcl":"P","population":0,"countryCode":"RU","name":"Gagarino","fclName":"city, village,...","countryName":"Russia","fcodeName":"populated place","adminName1":"Tambov","lat":"52.48333","fcode":"PPL"},{"adminCode1":"76","lng":"38.38478","geonameId":562229,"toponymName":"Gagarino","countryId":"2017370","fcl":"P","population":0,"countryCode":"RU","name":"Gagarino","fclName":"city, village,...","countryName":"Russia","fcodeName":"populated place","adminName1":"Tula","lat":"53.71054","fcode":"PPL"},{"adminCode1":"43","lng":"39.68573","geonameId":562231,"toponymName":"Gagarino","countryId":"2017370","fcl":"P","population":0,"countryCode":"RU","name":"Gagarino","fclName":"city, village,...","countryName":"Russia","fcodeName":"populated place","adminName1":"Lipetsk","lat":"53.34083","fcode":"PPL"},{"adminCode1":"72","lng":"42.00854","geonameId":562225,"toponymName":"Gagarino Pervoye","countryId":"2017370","fcl":"P","population":0,"countryCode":"RU","name":"Gagarino Pervoye","fclName":"city, village,...","countryName":"Russia","fcodeName":"populated place","adminName1":"Tambov","lat":"53.1159","fcode":"PPL"},{"adminCode1":"62","lng":"39.37946","geonameId":507346,"toponymName":"Pokrovo-Gagarino","countryId":"2017370","fcl":"P","population":0,"countryCode":"RU","name":"Pokrovo-Gagarino","fclName":"city, village,...","countryName":"Russia","fcodeName":"populated place","adminName1":"Rjazan","lat":"53.57591","fcode":"PPL"},{"adminCode1":"72","lng":"42.04142","geonameId":530772,"toponymName":"Maloye Gagarino","countryId":"2017370","fcl":"P","population":0,"countryCode":"RU","name":"Maloye Gagarino","fclName":"city, village,...","countryName":"Russia","fcodeName":"populated place","adminName1":"Tambov","lat":"53.05504","fcode":"PPL"},{"adminCode1":"43","lng":"40.5555","geonameId":489603,"toponymName":"Sredneye","countryId":"2017370","fcl":"P","population":0,"countryCode":"RU","name":"Sredneye","fclName":"city, village,...","countryName":"Russia","fcodeName":"populated place","adminName1":"Lipetsk","lat":"52.2317","fcode":"PPL"},{"adminCode1":"43","lng":"40.6147","geonameId":499457,"toponymName":"Safonovo","countryId":"2017370","fcl":"P","population":0,"countryCode":"RU","name":"Safonovo","fclName":"city, village,...","countryName":"Russia","fcodeName":"populated place","adminName1":"Lipetsk","lat":"52.1396","fcode":"PPL"},{"adminCode1":"62","lng":"39.1179","geonameId":558270,"toponymName":"Gryaznoye","countryId":"2017370","fcl":"P","population":0,"countryCode":"RU","name":"Gryaznoye","fclName":"city, village,...","countryName":"Russia","fcodeName":"populated place","adminName1":"Rjazan","lat":"54.0418","fcode":"PPL"},{"adminCode1":"72","lng":"40.4261","geonameId":562238,"toponymName":"Gagarinskiye Dvoriki","countryId":"2017370","fcl":"P","population":0,"countryCode":"RU","name":"Gagarinskiye Dvoriki","fclName":"city, village,...","countryName":"Russia","fcodeName":"populated place","adminName1":"Tambov","lat":"53.064","fcode":"PPL"}]}