{"totalResultsCount":33,"geonames":[{"countryId":"2017370","adminCode1":"85","countryName":"Russia","fclName":"city, village,...","countryCode":"RU","lng":"41.09366","fcodeName":"populated place","toponymName":"Gagarino","fcl":"P","name":"Gagarino","fcode":"PPL","geonameId":798539,"lat":"58.48302","adminName1":"Vologda","population":0},{"countryId":"2017370","adminCode1":"78","countryName":"Russia","fclName":"city, village,...","countryCode":"RU","lng":"69.37718","fcodeName":"populated place","toponymName":"Gagarino","fcl":"P","name":"Gagarino","fcode":"PPL","geonameId":1506745,"lat":"56.01107","adminName1":"Tjumen","population":0},{"countryId":"2017370","adminCode1":"28","countryName":"Russia","fclName":"city, village,...","countryCode":"RU","lng":"33.77288","fcodeName":"populated place","toponymName":"Gagarino","fcl":"P","name":"Gagarino","fcode":"PPL","geonameId":562228,"lat":"65.56241","adminName1":"Kareliya","population":0},{"countryId":"2017370","adminCode1":"67","countryName":"Russia","fclName":"city, village,...","countryCode":"RU","lng":"43.92491","fcodeName":"populated place","toponymName":"Gagarino","fcl":"P","name":"Gagarino","fcode":"PPL","geonameId":562234,"lat":"52.00082","adminName1":"Saratov","population":0},{"countryId":"2017370","adminCode1":"75","countryName":"Russia","fclName":"city, village,...","countryCode":"RU","lng":"86.81479","fcodeName":"populated place","toponymName":"Gagarino","fcl":"P","name":"Gagarino","fcode":"PPL","geonameId":1538749,"lat":"56.70212","adminName1":"Tomsk","population":0},{"countryId":"2017370","adminCode1":"76","countryName":"Russia","fclName":"city, village,...","countryCode":"RU","lng":"38.38478","fcodeName":"populated place","toponymName":"Gagarino","fcl":"P","name":"Gagarino","fcode":"PPL","geonameId":562229,"lat":"53.71054","adminName1":"Tula","population":0},{"countryId":"2017370","adminCode1":"43","countryName":"Russia","fclName":"city, village,...","countryCode":"RU","lng":"39.36052","fcodeName":"populated place","toponymName":"Gagarino","fcl":"P","name":"Gagarino","fcode":"PPL","geonameId":562230,"lat":"53.37776","adminName1":"Lipetsk","population":0},{"countryId":"2017370","adminCode1":"43","countryName":"Russia","fclName":"city, village,...","countryCode":"RU","lng":"39.68573","fcodeName":"populated place","toponymName":"Gagarino","fcl":"P","name":"Gagarino","fcode":"PPL","geonameId":562231,"lat":"53.34083","adminName1":"Lipetsk","population":0},{"countryId":"2017370","adminCode1":"43","countryName":"Russia","fclName":"city, village,...","countryCode":"RU","lng":"38.94993","fcodeName":"populated place","toponymName":"Gagarino","fcl":"P","name":"Gagarino","fcode":"PPL","geonameId":562232,"lat":"52.74553","adminName1":"Lipetsk","population":0},{"countryId":"2017370","adminCode1":"72","countryName":"Russia","fclName":"city, village,...","countryCode":"RU","lng":"40.93333","fcodeName":"populated place","toponymName":"Gagarino","fcl":"P","name":"Gagarino","fcode":"PPL","geonameId":562233,"lat":"52.48333","adminName1":"Tambov","population":0},{"countryId":"2017370","adminCode1":"09","countryName":"Russia","fclName":"city, village,...","countryCode":"RU","lng":"37.02066","fcodeName":"populated place","toponymName":"Gagarino","fcl":"P","name":"Gagarino","fcode":"PPL","geonameId":809673,"lat":"50.98234","adminName1":"Belgorod","population":0},{"countryId":"1522867","adminCode1":"00","countryName":"Kazakhstan","fclName":"city, village,...","countryCode":"KZ","lng":"69.73338","fcodeName":"populated place","toponymName":"Gagarino","fcl":"P","name":"Gagarino","fcode":"PPL","geonameId":1531082,"lat":"54.25491","adminName1":"","population":0},{"countryId":"2017370","adminCode1":"90","countryName":"Russia","fclName":"city, village,...","countryCode":"RU","lng":"56.8925","fcodeName":"populated place","toponymName":"Gagarino","fcl":"P","name":"Gagarino","fcode":"PPL","geonameId":875196,"lat":"57.8444","adminName1":"Perm","population":0},{"countryId":"2017370","adminCode1":"53","countryName":"Russia","fclName":"city, village,...","countryCode":"RU","lng":"77.7438","fcodeName":"populated place","toponymName":"Gagarino","fcl":"P","name":"Gagarino","fcode":"PPL","geonameId":1506747,"lat":"54.31707","adminName1":"Novosibirsk","population":0},{"countryId":"1522867","adminCode1":"00","countryName":"Kazakhstan","fclName":"city, village,...","countryCode":"KZ","lng":"81.84732","fcodeName":"populated place","toponymName":"Gagarino","fcl":"P","name":"Gagarino","fcode":"PPL","geonameId":1524262,"lat":"50.14656","adminName1":"","population":0},{"countryId":"2017370","adminCode1":"72","countryName":"Russia","fclName":"city, village,...","countryCode":"RU","lng":"42.00854","fcodeName":"populated place","toponymName":"Gagarino Pervoye","fcl":"P","name":"Gagarino Pervoye","fcode":"PPL","geonameId":562225,"lat":"53.1159","adminName1":"Tambov","population":0},{"countryId":"630336","adminCode1":"03","countryName":"Belarus","fclName":"city, village,...","countryCode":"BY","lng":"25.6789","fcodeName":"populated place","toponymName":"Gagarino","fcl":"P","name":"Gagarino","fcode":"PPL","geonameId":7930850,"lat":"53.5808","adminName1":"Grodnenskaya","population":0},{"countryId":"2017370","adminCode1":"88","countryName":"Russia","fclName":"city, village,...","countryCode":"RU","lng":"39.87467","fcodeName":"populated place","toponymName":"Gagarino","fcl":"P","name":"Gagarino","fcode":"PPL","geonameId":828016,"lat":"57.32806","adminName1":"Jaroslavl","population":0},{"countryId":"2017370","adminCode1":"62","countryName":"Russia","fclName":"city, village,...","countryCode":"RU","lng":"39.37946","fcodeName":"populated place","toponymName":"Pokrovo-Gagarino","fcl":"P","name":"Pokrovo-Gagarino","fcode":"PPL","geonameId":507346,"lat":"53.57591","adminName1":"Rjazan","population":0},{"countryId":"2017370","adminCode1":"72","countryName":"Russia","fclName":"city, village,...","countryCode":"RU","lng":"42.04142","fcodeName":"populated place","toponymName":"Maloye Gagarino","fcl":"P","name":"Maloye Gagarino","fcode":"PPL","geonameId":530772,"lat":"53.05504","adminName1":"Tambov","population":0},{"countryId":"2017370","adminCode1":"28","countryName":"Russia","fclName":"stream, lake, ...","countryCode":"RU","lng":"33.79135","fcodeName":"lake","toponymName":"Ozero Gagarino","fcl":"H","name":"Ozero Gagarino","fcode":"LK","geonameId":562227,"lat":"65.56303","adminName1":"Kareliya","population":0},{"countryId":"1512440","adminCode1":"12","countryName":"Uzbekistan","fclName":"city, village,...","countryCode":"UZ","lng":"66.98889","fcodeName":"populated place","toponymName":"Gagarino","fcl":"P","name":"Gagarino","fcode":"PPL","geonameId":1475141,"lat":"37.41917","adminName1":"Surxondaryo","population":0},{"countryId":"2017370","adminCode1":"77","countryName":"Russia","fclName":"city, village,...","countryCode":"RU","lng":"31.78497","fcodeName":"populated place","toponymName":"Gagarino","fcl":"P","name":"Gagarino","fcode":"PPL","geonameId":7526685,"lat":"56.19154","adminName1":"Tverskaya","population":0},{"countryId":"2017370","adminCode1":"43","countryName":"Russia","fclName":"city, village,...","countryCode":"RU","lng":"40.6147","fcodeName":"populated place","toponymName":"Safonovo","fcl":"P","name":"Safonovo","fcode":"PPL","geonameId":499457,"lat":"52.1396","adminName1":"Lipetsk","population":0},{"countryId":"2017370","adminCode1":"43","countryName":"Russia","fclName":"city, village,...","countryCode":"RU","lng":"40.5555","fcodeName":"populated place","toponymName":"Sredneye","fcl":"P","name":"Sredneye","fcode":"PPL","geonameId":489603,"lat":"52.2317","adminName1":"Lipetsk","population":0},{"countryId":"2017370","adminCode1":"62","countryName":"Russia","fclName":"city, village,...","countryCode":"RU","lng":"39.1179","fcodeName":"populated place","toponymName":"Gryaznoye","fcl":"P","name":"Gryaznoye","fcode":"PPL","geonameId":558270,"lat":"54.0418","adminName1":"Rjazan","population":0},{"countryId":"2017370","adminCode1":"78","countryName":"Russia","fclName":"city, village,...","countryCode":"RU","lng":"68.2375","fcodeName":"populated place","toponymName":"Gagarina","fcl":"P","name":"Gagarina","fcode":"PPL","geonameId":1506746,"lat":"55.79056","adminName1":"Tjumen","population":0},{"countryId":"2017370","adminCode1":"52","countryName":"Russia","fclName":"parks,area, ...","countryCode":"RU","lng":"33.425","fcodeName":"area","toponymName":"Urochishche Gagarino","fcl":"L","name":"Urochishche Gagarino","fcode":"AREA","geonameId":6609800,"lat":"58.12056","adminName1":"Novgorod","population":0},{"countryId":"1522867","adminCode1":"01","countryName":"Kazakhstan","fclName":"city, village,...","countryCode":"KZ","lng":"77.00417","fcodeName":"populated place","toponymName":"Gagarino","fcl":"P","name":"Gagarino","fcode":"PPL","geonameId":1539935,"lat":"43.38083","adminName1":"Almaty Oblysy","population":0},{"countryId":"2017370","adminCode1":"72","countryName":"Russia","fclName":"city, village,...","countryCode":"RU","lng":"40.4261","fcodeName":"populated place","toponymName":"Gagarinskiye Dvoriki","fcl":"P","name":"Gagarinskiye Dvoriki","fcode":"PPL","geonameId":562238,"lat":"53.064","adminName1":"Tambov","population":0},{"countryId":"2017370","adminCode1":"37","countryName":"Russia","fclName":"spot, building, farm","countryCode":"RU","lng":"41.09389","fcodeName":"railroad station","toponymName":"Stantsiya Gagarino","fcl":"S","name":"Stantsiya Gagarino","fcode":"RSTN","geonameId":6610172,"lat":"58.48222","adminName1":"Kostroma","population":0},{"countryId":"2017370","adminCode1":"62","countryName":"Russia","fclName":"spot, building, farm","countryCode":"RU","lng":"39.1076","fcodeName":"railroad station","toponymName":"Stantsiya Luzhkovskaya","fcl":"S","name":"Stantsiya Luzhkovskaya","fcode":"RSTN","geonameId":562226,"lat":"54.0393","adminName1":"Rjazan","population":0},{"countryId":"2017370","adminCode1":"43","countryName":"Russia","fclName":"spot, building, farm","countryCode":"RU","lng":"39.70722","fcodeName":"farm","toponymName":"Sovkhoz Gagarino","fcl":"S","name":"Sovkhoz Gagarino","fcode":"FRM","geonameId":821125,"lat":"53.405","adminName1":"Lipetsk","population":0}]}