{"totalResultsCount":29,"geonames":[{"countryId":"3017382","adminCode1":"97","countryName":"France","fclName":"city, village,...","countryCode":"FR","lng":"-0.05","fcodeName":"populated place","toponymName":"Ger","fcl":"P","name":"Ger","fcode":"PPL","geonameId":3016282,"lat":"43.25","adminName1":"Aquitaine","population":1777},{"countryId":"7909807","adminCode1":"04","countryName":"South Sudan","fclName":"city, village,...","countryCode":"SS","lng":"30.1817","fcodeName":"populated place","toponymName":"Ger","fcl":"P","name":"Ger","fcode":"PPL","geonameId":374979,"lat":"6.69918","adminName1":"Lakes","population":0},{"countryId":"3017382","adminCode1":"99","countryName":"France","fclName":"city, village,...","countryCode":"FR","lng":"-0.7885","fcodeName":"populated place","toponymName":"Ger","fcl":"P","name":"Ger","fcode":"PPL","geonameId":3016281,"lat":"48.68116","adminName1":"Lower Normandy","population":972},{"countryId":"3017382","adminCode1":"B3","countryName":"France","fclName":"city, village,...","countryCode":"FR","lng":"-0.03333","fcodeName":"populated place","toponymName":"Ger","fcl":"P","name":"Ger","fcode":"PPL","geonameId":3016283,"lat":"43.05","adminName1":"Midi-Pyrénées","population":135},{"countryId":"2017370","adminCode1":"24","countryName":"Russia","fclName":"city, village,...","countryCode":"RU","lng":"44.91667","fcodeName":"populated place","toponymName":"Chalun-Ger","fcl":"P","name":"Chalun-Ger","fcode":"PPL","geonameId":570020,"lat":"48.02028","adminName1":"Kalmykiya","population":0},{"countryId":"2658434","adminCode1":"ZH","countryName":"Switzerland","fclName":"city, village,...","countryCode":"CH","lng":"8.90042","fcodeName":"populated place","toponymName":"Ger","fcl":"P","name":"Ger","fcode":"PPL","geonameId":6295037,"lat":"47.40286","adminName1":"Zurich","population":17},{"countryId":"2328926","adminCode1":"26","countryName":"Nigeria","fclName":"city, village,...","countryCode":"NG","lng":"8.14218","fcodeName":"populated place","toponymName":"Ger","fcl":"P","name":"Ger","fcode":"PPL","geonameId":2341264,"lat":"7.37076","adminName1":"Benue","population":0},{"countryId":"3017382","adminCode1":"A2","countryName":"France","fclName":"city, village,...","countryCode":"FR","lng":"-2.12314","fcodeName":"populated place","toponymName":"Guer","fcl":"P","name":"Guer","fcode":"PPL","geonameId":3014393,"lat":"47.90619","adminName1":"Brittany","population":6308},{"countryId":"6252001","adminCode1":"GA","countryName":"United States","fclName":"city, village,...","countryCode":"US","lng":"-81.22733","fcodeName":"populated place","toponymName":"Georgetown","fcl":"P","name":"Georgetown","fcode":"PPL","geonameId":4196917,"lat":"31.98326","adminName1":"Georgia","population":11823},{"countryId":"1814991","adminCode1":"20","countryName":"China","fclName":"city, village,...","countryCode":"CN","lng":"109.73472","fcodeName":"populated place","toponymName":"Halin Ger","fcl":"P","name":"Halin Ger","fcode":"PPL","geonameId":2051338,"lat":"40.60556","adminName1":"Inner Mongolia","population":0},{"countryId":"3658394","adminCode1":"04","countryName":"Ecuador","fclName":"city, village,...","countryCode":"EC","lng":"-79.0518","fcodeName":"populated place","toponymName":"Hacienda Ger","fcl":"P","name":"Hacienda Ger","fcode":"PPL","geonameId":3656958,"lat":"-2.51017","adminName1":"Cañar","population":0},{"countryId":"99237","adminCode1":"15","countryName":"Iraq","fclName":"city, village,...","countryCode":"IQ","lng":"42.51639","fcodeName":"populated place","toponymName":"Ger Kafr","fcl":"P","name":"Ger Kafr","fcode":"PPL","geonameId":96472,"lat":"36.67944","adminName1":"Nīnawá","population":0},{"countryId":"99237","adminCode1":"05","countryName":"Iraq","fclName":"city, village,...","countryCode":"IQ","lng":"45.44294","fcodeName":"populated place","toponymName":"Bardah Kar","fcl":"P","name":"Bardah Kar","fcode":"PPL","geonameId":97956,"lat":"35.44704","adminName1":"As Sulaymānīyah","population":0},{"countryId":"719819","adminCode1":"03","countryName":"Hungary","fclName":"city, village,...","countryCode":"HU","lng":"20.86667","fcodeName":"populated place","toponymName":"Gerendás","fcl":"P","name":"Gerendás","fcode":"PPL","geonameId":720550,"lat":"46.6","adminName1":"Bekes","population":0},{"countryId":"1814991","adminCode1":"20","countryName":"China","fclName":"city, village,...","countryCode":"CN","lng":"120.06667","fcodeName":"populated place","toponymName":"Ger Qulu","fcl":"P","name":"Ger Qulu","fcode":"PPL","geonameId":2037248,"lat":"44.83333","adminName1":"Inner Mongolia","population":0},{"countryId":"3576468","adminCode1":"08","countryName":"Saint Lucia","fclName":"city, village,...","countryCode":"LC","lng":"-60.9164","fcodeName":"populated place","toponymName":"Anse Ger","fcl":"P","name":"Anse Ger","fcode":"PPL","geonameId":3576895,"lat":"13.79775","adminName1":"Micoud Quarter","population":0},{"countryId":"1733045","adminCode1":"03","countryName":"Malaysia","fclName":"city, village,...","countryCode":"MY","lng":"102.42643","fcodeName":"populated place","toponymName":"Kampung Ger","fcl":"P","name":"Kampung Ger","fcode":"PPL","geonameId":1736382,"lat":"5.99585","adminName1":"Kelantan","population":0},{"countryId":"1643084","adminCode1":"08","countryName":"Indonesia","fclName":"city, village,...","countryCode":"ID","lng":"113.0589","fcodeName":"populated place","toponymName":"Ger Dajah","fcl":"P","name":"Ger Dajah","fcode":"PPL","geonameId":6834601,"lat":"-7.1609","adminName1":"East Java","population":0},{"countryId":"3017382","adminCode1":"B2","countryName":"France","fclName":"city, village,...","countryCode":"FR","lng":"6.87787","fcodeName":"populated place","toponymName":"Gérardmer","fcl":"P","name":"Gérardmer","fcode":"PPL","geonameId":3016274,"lat":"48.07346","adminName1":"Lorraine","population":10084},{"countryId":"130758","adminCode1":"41","countryName":"Iran","fclName":"city, village,...","countryCode":"IR","lng":"59.32722","fcodeName":"populated place","toponymName":"Kalāteh-ye Rūd-e Ger","fcl":"P","name":"Kalāteh-ye Rūd-e Ger","fcode":"PPL","geonameId":129285,"lat":"31.66278","adminName1":"Khorāsān-e Jonūbī","population":0},{"countryId":"2245662","adminCode1":"07","countryName":"Senegal","fclName":"city, village,...","countryCode":"SN","lng":"-16.66667","fcodeName":"populated place","toponymName":"Nguer","fcl":"P","name":"Nguer","fcode":"PPL","geonameId":2247363,"lat":"15.03333","adminName1":"Thiès","population":0},{"countryId":"453733","adminCode1":"18","countryName":"Estonia","fclName":"city, village,...","countryCode":"EE","lng":"26.39944","fcodeName":"populated place","toponymName":"Ihaste","fcl":"P","name":"Ihaste","fcode":"PPL","geonameId":8620442,"lat":"58.27944","adminName1":"Tartu","population":0},{"countryId":"1149361","adminCode1":"11","countryName":"Afghanistan","fclName":"city, village,...","countryCode":"AF","lng":"61.60469","fcodeName":"populated place","toponymName":"Tar Gayr Bābā","fcl":"P","name":"Tar Gayr Bābā","fcode":"PPL","geonameId":1122761,"lat":"35.02129","adminName1":"Herat","population":0},{"countryId":"99237","adminCode1":"08","countryName":"Iraq","fclName":"city, village,...","countryCode":"IQ","lng":"42.74694","fcodeName":"populated place","toponymName":"Gir Rash","fcl":"P","name":"Gir Rash","fcode":"PPL","geonameId":96613,"lat":"36.95114","adminName1":"Dahūk","population":0},{"countryId":"2029969","adminCode1":"07","countryName":"Mongolia","fclName":"city, village,...","countryCode":"MN","lng":"110.45","fcodeName":"populated place","toponymName":"Delgerhet","fcl":"P","name":"Delgerhet","fcode":"PPL","geonameId":2031899,"lat":"45.81667","adminName1":"East Gobi Aymag","population":0},{"countryId":"1814991","adminCode1":"20","countryName":"China","fclName":"city, village,...","countryCode":"CN","lng":"111.83389","fcodeName":"populated place","toponymName":"Horinger","fcl":"P","name":"Horinger","fcode":"PPL","geonameId":2036810,"lat":"40.37472","adminName1":"Inner Mongolia","population":0},{"countryId":"99237","adminCode1":"15","countryName":"Iraq","fclName":"city, village,...","countryCode":"IQ","lng":"42.51581","fcodeName":"populated place","toponymName":"Gir Kāfir ash Shimālīyah","fcl":"P","name":"Gir Kāfir ash Shimālīyah","fcode":"PPL","geonameId":383417,"lat":"36.67939","adminName1":"Nīnawá","population":0},{"countryId":"99237","adminCode1":"15","countryName":"Iraq","fclName":"city, village,...","countryCode":"IQ","lng":"42.50818","fcodeName":"populated place","toponymName":"Gir Kāfir ash Sharqīyah","fcl":"P","name":"Gir Kāfir ash Sharqīyah","fcode":"PPL","geonameId":7046748,"lat":"36.67478","adminName1":"Nīnawá","population":0},{"countryId":"2782113","adminCode1":"01","countryName":"Austria","fclName":"city, village,...","countryCode":"AT","lng":"16.25","fcodeName":"populated place","toponymName":"Gerersdorf bei Güssing","fcl":"P","name":"Gerersdorf bei Güssing","fcode":"PPL","geonameId":2778678,"lat":"47.06667","adminName1":"Burgenland","population":0}]}