{"totalResultsCount":28,"geonames":[{"countryId":"2017370","adminCode1":"47","countryName":"Russia","fclName":"city, village,...","countryCode":"RU","lng":"37.71667","fcodeName":"populated place","toponymName":"Glebovo","fcl":"P","name":"Glebovo","fcode":"PPL","geonameId":561273,"lat":"56.9","adminName1":"Moskovskaya","population":0},{"countryId":"2017370","adminCode1":"62","countryName":"Russia","fclName":"city, village,...","countryCode":"RU","lng":"41.17557","fcodeName":"populated place","toponymName":"Glebovo","fcl":"P","name":"Glebovo","fcode":"PPL","geonameId":561285,"lat":"54.14208","adminName1":"Rjazan","population":0},{"countryId":"2017370","adminCode1":"88","countryName":"Russia","fclName":"city, village,...","countryCode":"RU","lng":"38.44731","fcodeName":"populated place","toponymName":"Glebovo","fcl":"P","name":"Glebovo","fcode":"PPL","geonameId":561269,"lat":"58.00519","adminName1":"Jaroslavl","population":0},{"countryId":"2017370","adminCode1":"85","countryName":"Russia","fclName":"city, village,...","countryCode":"RU","lng":"36.8344","fcodeName":"populated place","toponymName":"Glebovo","fcl":"P","name":"Glebovo","fcode":"PPL","geonameId":561265,"lat":"59.8046","adminName1":"Vologda","population":0},{"countryId":"2017370","adminCode1":"77","countryName":"Russia","fclName":"city, village,...","countryCode":"RU","lng":"36.65","fcodeName":"populated place","toponymName":"Glebovo","fcl":"P","name":"Glebovo","fcode":"PPL","geonameId":561272,"lat":"57.18333","adminName1":"Tverskaya","population":0},{"countryId":"2017370","adminCode1":"83","countryName":"Russia","fclName":"city, village,...","countryCode":"RU","lng":"41.5666","fcodeName":"populated place","toponymName":"Glebovo","fcl":"P","name":"Glebovo","fcode":"PPL","geonameId":561281,"lat":"55.6397","adminName1":"Vladimir","population":0},{"countryId":"2017370","adminCode1":"47","countryName":"Russia","fclName":"city, village,...","countryCode":"RU","lng":"38.43623","fcodeName":"populated place","toponymName":"Glebovo","fcl":"P","name":"Glebovo","fcode":"PPL","geonameId":561282,"lat":"55.5894","adminName1":"Moskovskaya","population":0},{"countryId":"2017370","adminCode1":"47","countryName":"Russia","fclName":"city, village,...","countryCode":"RU","lng":"38.13004","fcodeName":"populated place","toponymName":"Glebovo","fcl":"P","name":"Glebovo","fcode":"PPL","geonameId":561283,"lat":"55.17678","adminName1":"Moskovskaya","population":0},{"countryId":"2017370","adminCode1":"62","countryName":"Russia","fclName":"city, village,...","countryCode":"RU","lng":"39.9421","fcodeName":"populated place","toponymName":"Glebovo","fcl":"P","name":"Glebovo","fcode":"PPL","geonameId":561284,"lat":"54.5521","adminName1":"Rjazan","population":0},{"countryId":"2017370","adminCode1":"85","countryName":"Russia","fclName":"city, village,...","countryCode":"RU","lng":"40.57583","fcodeName":"populated place","toponymName":"Glebovo","fcl":"P","name":"Glebovo","fcode":"PPL","geonameId":824298,"lat":"59.65083","adminName1":"Vologda","population":0},{"countryId":"2017370","adminCode1":"76","countryName":"Russia","fclName":"city, village,...","countryCode":"RU","lng":"37.25652","fcodeName":"populated place","toponymName":"Glebovo","fcl":"P","name":"Glebovo","fcode":"PPL","geonameId":819712,"lat":"54.35586","adminName1":"Tula","population":0},{"countryId":"2017370","adminCode1":"25","countryName":"Russia","fclName":"city, village,...","countryCode":"RU","lng":"36.88456","fcodeName":"populated place","toponymName":"Glebovo","fcl":"P","name":"Glebovo","fcode":"PPL","geonameId":820052,"lat":"54.41854","adminName1":"Kaluga","population":0},{"countryId":"2017370","adminCode1":"47","countryName":"Russia","fclName":"city, village,...","countryCode":"RU","lng":"37.71843","fcodeName":"populated place","toponymName":"Glebovo","fcl":"P","name":"Glebovo","fcode":"PPL","geonameId":816615,"lat":"54.73811","adminName1":"Moskovskaya","population":0},{"countryId":"2017370","adminCode1":"88","countryName":"Russia","fclName":"city, village,...","countryCode":"RU","lng":"40.67986","fcodeName":"populated place","toponymName":"Glebovo","fcl":"P","name":"Glebovo","fcode":"PPL","geonameId":6312830,"lat":"58.13985","adminName1":"Jaroslavl","population":0},{"countryId":"2017370","adminCode1":"37","countryName":"Russia","fclName":"city, village,...","countryCode":"RU","lng":"41.69816","fcodeName":"populated place","toponymName":"Glebovo","fcl":"P","name":"Glebovo","fcode":"PPL","geonameId":561270,"lat":"57.92822","adminName1":"Kostroma","population":0},{"countryId":"2017370","adminCode1":"83","countryName":"Russia","fclName":"city, village,...","countryCode":"RU","lng":"41.45968","fcodeName":"populated place","toponymName":"Glebovo","fcl":"P","name":"Glebovo","fcode":"PPL","geonameId":561275,"lat":"56.42337","adminName1":"Vladimir","population":0},{"countryId":"2017370","adminCode1":"47","countryName":"Russia","fclName":"city, village,...","countryCode":"RU","lng":"36.69389","fcodeName":"populated place","toponymName":"Glebovo","fcl":"P","name":"Glebovo","fcode":"PPL","geonameId":561278,"lat":"55.955","adminName1":"Moskovskaya","population":0},{"countryId":"2017370","adminCode1":"51","countryName":"Russia","fclName":"city, village,...","countryCode":"RU","lng":"42.63333","fcodeName":"populated place","toponymName":"Glebovo","fcl":"P","name":"Glebovo","fcode":"PPL","geonameId":561279,"lat":"55.78333","adminName1":"Nizjnij Novgorod","population":0},{"countryId":"2017370","adminCode1":"37","countryName":"Russia","fclName":"city, village,...","countryCode":"RU","lng":"43.7706","fcodeName":"populated place","toponymName":"Glebovo","fcl":"P","name":"Glebovo","fcode":"PPL","geonameId":7493078,"lat":"58.1778","adminName1":"Kostroma","population":0},{"countryId":"2017370","adminCode1":"88","countryName":"Russia","fclName":"city, village,...","countryCode":"RU","lng":"38.7","fcodeName":"populated place","toponymName":"Glebovo","fcl":"P","name":"Glebovo","fcode":"PPL","geonameId":561274,"lat":"56.65","adminName1":"Jaroslavl","population":0},{"countryId":"2017370","adminCode1":"47","countryName":"Russia","fclName":"city, village,...","countryCode":"RU","lng":"38.92719","fcodeName":"populated place","toponymName":"Glebovo","fcl":"P","name":"Glebovo","fcode":"PPL","geonameId":561280,"lat":"55.66198","adminName1":"Moskovskaya","population":0},{"countryId":"2017370","adminCode1":"88","countryName":"Russia","fclName":"city, village,...","countryCode":"RU","lng":"39.30679","fcodeName":"populated place","toponymName":"Glebovo","fcl":"P","name":"Glebovo","fcode":"PPL","geonameId":7079145,"lat":"57.6812","adminName1":"Jaroslavl","population":0},{"countryId":"2017370","adminCode1":"83","countryName":"Russia","fclName":"city, village,...","countryCode":"RU","lng":"40.75384","fcodeName":"populated place","toponymName":"Glebovo","fcl":"P","name":"Glebovo","fcode":"PPL","geonameId":7042402,"lat":"56.10521","adminName1":"Vladimir","population":0},{"countryId":"2017370","adminCode1":"88","countryName":"Russia","fclName":"city, village,...","countryCode":"RU","lng":"39.43088","fcodeName":"populated place","toponymName":"Glebovo","fcl":"P","name":"Glebovo","fcode":"PPL","geonameId":7078779,"lat":"57.37221","adminName1":"Jaroslavl","population":0},{"countryId":"2017370","adminCode1":"62","countryName":"Russia","fclName":"city, village,...","countryCode":"RU","lng":"39.2508","fcodeName":"populated place","toponymName":"Glebovo-Gorodishche","fcl":"P","name":"Glebovo-Gorodishche","fcode":"PPL","geonameId":818972,"lat":"54.6357","adminName1":"Rjazan","population":0},{"countryId":"2017370","adminCode1":"37","countryName":"Russia","fclName":"city, village,...","countryCode":"RU","lng":"41.62716","fcodeName":"populated place","toponymName":"Glebovo","fcl":"P","name":"Glebovo","fcode":"PPL","geonameId":6610442,"lat":"58.2727","adminName1":"Kostroma","population":0},{"countryId":"2017370","adminCode1":"47","countryName":"Russia","fclName":"city, village,...","countryCode":"RU","lng":"38.44252","fcodeName":"populated place","toponymName":"Zmeyevo-Glebovo","fcl":"P","name":"Zmeyevo-Glebovo","fcode":"PPL","geonameId":819048,"lat":"54.76924","adminName1":"Moskovskaya","population":0},{"countryId":"2017370","adminCode1":"47","countryName":"Russia","fclName":"city, village,...","countryCode":"RU","lng":"38.5191","fcodeName":"populated place","toponymName":"Frolovskoye","fcl":"P","name":"Frolovskoye","fcode":"PPL","geonameId":562355,"lat":"54.76271","adminName1":"Moskovskaya","population":0}]}