{"totalResultsCount":62,"geonames":[{"adminCode1":"47","lng":"37.71667","geonameId":561273,"toponymName":"Glebovo","countryId":"2017370","fcl":"P","population":0,"countryCode":"RU","name":"Glebovo","fclName":"city, village,...","countryName":"Russia","fcodeName":"populated place","adminName1":"Moskovskaya","lat":"56.9","fcode":"PPL"},{"adminCode1":"56","lng":"37.7844","geonameId":561287,"toponymName":"Glebovo","countryId":"2017370","fcl":"P","population":0,"countryCode":"RU","name":"Glebovo","fclName":"city, village,...","countryName":"Russia","fcodeName":"populated place","adminName1":"Orjol","lat":"52.93733","fcode":"PPL"},{"adminCode1":"30","lng":"134.36289","geonameId":2024064,"toponymName":"Glebovo","countryId":"2017370","fcl":"P","population":0,"countryCode":"RU","name":"Glebovo","fclName":"city, village,...","countryName":"Russia","fcodeName":"populated place","adminName1":"Khabarovsk Krai","lat":"47.25778","fcode":"PPL"},{"adminCode1":"88","lng":"38.44731","geonameId":561269,"toponymName":"Glebovo","countryId":"2017370","fcl":"P","population":0,"countryCode":"RU","name":"Glebovo","fclName":"city, village,...","countryName":"Russia","fcodeName":"populated place","adminName1":"Jaroslavl","lat":"58.00519","fcode":"PPL"},{"adminCode1":"62","lng":"41.17557","geonameId":561285,"toponymName":"Glebovo","countryId":"2017370","fcl":"P","population":0,"countryCode":"RU","name":"Glebovo","fclName":"city, village,...","countryName":"Russia","fcodeName":"populated place","adminName1":"Rjazan","lat":"54.14208","fcode":"PPL"},{"adminCode1":"85","lng":"36.8344","geonameId":561265,"toponymName":"Glebovo","countryId":"2017370","fcl":"P","population":0,"countryCode":"RU","name":"Glebovo","fclName":"city, village,...","countryName":"Russia","fcodeName":"populated place","adminName1":"Vologda","lat":"59.8046","fcode":"PPL"},{"adminCode1":"42","lng":"30.56667","geonameId":561266,"toponymName":"Glebovo","countryId":"2017370","fcl":"P","population":0,"countryCode":"RU","name":"Glebovo","fclName":"city, village,...","countryName":"Russia","fcodeName":"populated place","adminName1":"Leningrad","lat":"59.18333","fcode":"PPL"},{"adminCode1":"52","lng":"34.96667","geonameId":561268,"toponymName":"Glebovo","countryId":"2017370","fcl":"P","population":0,"countryCode":"RU","name":"Glebovo","fclName":"city, village,...","countryName":"Russia","fcodeName":"populated place","adminName1":"Novgorod","lat":"58.31667","fcode":"PPL"},{"adminCode1":"37","lng":"41.69816","geonameId":561270,"toponymName":"Glebovo","countryId":"2017370","fcl":"P","population":0,"countryCode":"RU","name":"Glebovo","fclName":"city, village,...","countryName":"Russia","fcodeName":"populated place","adminName1":"Kostroma","lat":"57.92822","fcode":"PPL"},{"adminCode1":"77","lng":"36.65","geonameId":561272,"toponymName":"Glebovo","countryId":"2017370","fcl":"P","population":0,"countryCode":"RU","name":"Glebovo","fclName":"city, village,...","countryName":"Russia","fcodeName":"populated place","adminName1":"Tverskaya","lat":"57.18333","fcode":"PPL"},{"adminCode1":"77","lng":"34.43816","geonameId":561276,"toponymName":"Glebovo","countryId":"2017370","fcl":"P","population":0,"countryCode":"RU","name":"Glebovo","fclName":"city, village,...","countryName":"Russia","fcodeName":"populated place","adminName1":"Tverskaya","lat":"56.36354","fcode":"PPL"},{"adminCode1":"77","lng":"35.30129","geonameId":561277,"toponymName":"Glebovo","countryId":"2017370","fcl":"P","population":0,"countryCode":"RU","name":"Glebovo","fclName":"city, village,...","countryName":"Russia","fcodeName":"populated place","adminName1":"Tverskaya","lat":"56.28388","fcode":"PPL"},{"adminCode1":"51","lng":"42.63333","geonameId":561279,"toponymName":"Glebovo","countryId":"2017370","fcl":"P","population":0,"countryCode":"RU","name":"Glebovo","fclName":"city, village,...","countryName":"Russia","fcodeName":"populated place","adminName1":"Nizjnij Novgorod","lat":"55.78333","fcode":"PPL"},{"adminCode1":"47","lng":"38.43623","geonameId":561282,"toponymName":"Glebovo","countryId":"2017370","fcl":"P","population":0,"countryCode":"RU","name":"Glebovo","fclName":"city, village,...","countryName":"Russia","fcodeName":"populated place","adminName1":"Moskovskaya","lat":"55.5894","fcode":"PPL"},{"adminCode1":"62","lng":"39.9421","geonameId":561284,"toponymName":"Glebovo","countryId":"2017370","fcl":"P","population":0,"countryCode":"RU","name":"Glebovo","fclName":"city, village,...","countryName":"Russia","fcodeName":"populated place","adminName1":"Rjazan","lat":"54.5521","fcode":"PPL"},{"adminCode1":"56","lng":"36.20817","geonameId":561289,"toponymName":"Glebovo","countryId":"2017370","fcl":"P","population":0,"countryCode":"RU","name":"Glebovo","fclName":"city, village,...","countryName":"Russia","fcodeName":"populated place","adminName1":"Orjol","lat":"52.47674","fcode":"PPL"},{"adminCode1":"41","lng":"35.95417","geonameId":561290,"toponymName":"Glebovo","countryId":"2017370","fcl":"P","population":0,"countryCode":"RU","name":"Glebovo","fclName":"city, village,...","countryName":"Russia","fcodeName":"populated place","adminName1":"Kursk","lat":"52.10194","fcode":"PPL"},{"adminCode1":"77","lng":"34.61319","geonameId":452047,"toponymName":"Glebovo","countryId":"2017370","fcl":"P","population":0,"countryCode":"RU","name":"Glebovo","fclName":"city, village,...","countryName":"Russia","fcodeName":"populated place","adminName1":"Tverskaya","lat":"57.22346","fcode":"PPL"},{"adminCode1":"76","lng":"37.25652","geonameId":819712,"toponymName":"Glebovo","countryId":"2017370","fcl":"P","population":0,"countryCode":"RU","name":"Glebovo","fclName":"city, village,...","countryName":"Russia","fcodeName":"populated place","adminName1":"Tula","lat":"54.35586","fcode":"PPL"},{"adminCode1":"25","lng":"36.88456","geonameId":820052,"toponymName":"Glebovo","countryId":"2017370","fcl":"P","population":0,"countryCode":"RU","name":"Glebovo","fclName":"city, village,...","countryName":"Russia","fcodeName":"populated place","adminName1":"Kaluga","lat":"54.41853","fcode":"PPL"},{"adminCode1":"85","lng":"40.57583","geonameId":824298,"toponymName":"Glebovo","countryId":"2017370","fcl":"P","population":0,"countryCode":"RU","name":"Glebovo","fclName":"city, village,...","countryName":"Russia","fcodeName":"populated place","adminName1":"Vologda","lat":"59.65083","fcode":"PPL"},{"adminCode1":"37","lng":"43.7706","geonameId":7493078,"toponymName":"Glebovo","countryId":"2017370","fcl":"P","population":0,"countryCode":"RU","name":"Glebovo","fclName":"city, village,...","countryName":"Russia","fcodeName":"populated place","adminName1":"Kostroma","lat":"58.1778","fcode":"PPL"},{"adminCode1":"88","lng":"38.7","geonameId":561274,"toponymName":"Glebovo","countryId":"2017370","fcl":"P","population":0,"countryCode":"RU","name":"Glebovo","fclName":"city, village,...","countryName":"Russia","fcodeName":"populated place","adminName1":"Jaroslavl","lat":"56.65","fcode":"PPL"},{"adminCode1":"76","lng":"37.41919","geonameId":561286,"toponymName":"Glebovo","countryId":"2017370","fcl":"P","population":0,"countryCode":"RU","name":"Glebovo","fclName":"city, village,...","countryName":"Russia","fcodeName":"populated place","adminName1":"Tula","lat":"53.31139","fcode":"PPL"},{"adminCode1":"90","lng":"56.33333","geonameId":561264,"toponymName":"Glebovo","countryId":"2017370","fcl":"P","population":0,"countryCode":"RU","name":"Glebovo","fclName":"city, village,...","countryName":"Russia","fcodeName":"populated place","adminName1":"Perm","lat":"60.38333","fcode":"PPL"},{"adminCode1":"52","lng":"31.80992","geonameId":561267,"toponymName":"Glebovo","countryId":"2017370","fcl":"P","population":0,"countryCode":"RU","name":"Glebovo","fclName":"city, village,...","countryName":"Russia","fcodeName":"populated place","adminName1":"Novgorod","lat":"58.553","fcode":"PPL"},{"adminCode1":"83","lng":"41.5666","geonameId":561281,"toponymName":"Glebovo","countryId":"2017370","fcl":"P","population":0,"countryCode":"RU","name":"Glebovo","fclName":"city, village,...","countryName":"Russia","fcodeName":"populated place","adminName1":"Vladimir","lat":"55.6397","fcode":"PPL"},{"adminCode1":"47","lng":"38.13004","geonameId":561283,"toponymName":"Glebovo","countryId":"2017370","fcl":"P","population":0,"countryCode":"RU","name":"Glebovo","fclName":"city, village,...","countryName":"Russia","fcodeName":"populated place","adminName1":"Moskovskaya","lat":"55.17678","fcode":"PPL"},{"adminCode1":"56","lng":"36.22772","geonameId":561288,"toponymName":"Glebovo","countryId":"2017370","fcl":"P","population":0,"countryCode":"RU","name":"Glebovo","fclName":"city, village,...","countryName":"Russia","fcodeName":"populated place","adminName1":"Orjol","lat":"52.67128","fcode":"PPL"},{"adminCode1":"77","lng":"34.19836","geonameId":452046,"toponymName":"Glebovo","countryId":"2017370","fcl":"P","population":0,"countryCode":"RU","name":"Glebovo","fclName":"city, village,...","countryName":"Russia","fcodeName":"populated place","adminName1":"Tverskaya","lat":"57.26577","fcode":"PPL"},{"adminCode1":"88","lng":"40.67986","geonameId":6312830,"toponymName":"Glebovo","countryId":"2017370","fcl":"P","population":0,"countryCode":"RU","name":"Glebovo","fclName":"city, village,...","countryName":"Russia","fcodeName":"populated place","adminName1":"Jaroslavl","lat":"58.13985","fcode":"PPL"},{"adminCode1":"47","lng":"37.71843","geonameId":816615,"toponymName":"Glebovo","countryId":"2017370","fcl":"P","population":0,"countryCode":"RU","name":"Glebovo","fclName":"city, village,...","countryName":"Russia","fcodeName":"populated place","adminName1":"Moskovskaya","lat":"54.73811","fcode":"PPL"},{"adminCode1":"25","lng":"35.7349","geonameId":811089,"toponymName":"Glebovo","countryId":"2017370","fcl":"P","population":0,"countryCode":"RU","name":"Glebovo","fclName":"city, village,...","countryName":"Russia","fcodeName":"populated place","adminName1":"Kaluga","lat":"55.03348","fcode":"PPL"},{"adminCode1":"83","lng":"41.45968","geonameId":561275,"toponymName":"Glebovo","countryId":"2017370","fcl":"P","population":0,"countryCode":"RU","name":"Glebovo","fclName":"city, village,...","countryName":"Russia","fcodeName":"populated place","adminName1":"Vladimir","lat":"56.42337","fcode":"PPL"},{"adminCode1":"47","lng":"36.69389","geonameId":561278,"toponymName":"Glebovo","countryId":"2017370","fcl":"P","population":0,"countryCode":"RU","name":"Glebovo","fclName":"city, village,...","countryName":"Russia","fcodeName":"populated place","adminName1":"Moskovskaya","lat":"55.955","fcode":"PPL"},{"adminCode1":"47","lng":"38.92719","geonameId":561280,"toponymName":"Glebovo","countryId":"2017370","fcl":"P","population":0,"countryCode":"RU","name":"Glebovo","fclName":"city, village,...","countryName":"Russia","fcodeName":"populated place","adminName1":"Moskovskaya","lat":"55.66198","fcode":"PPL"},{"adminCode1":"77","lng":"33.07588","geonameId":453470,"toponymName":"Glebovo","countryId":"2017370","fcl":"P","population":0,"countryCode":"RU","name":"Glebovo","fclName":"city, village,...","countryName":"Russia","fcodeName":"populated place","adminName1":"Tverskaya","lat":"57.40088","fcode":"PPL"},{"adminCode1":"41","lng":"35.7757","geonameId":7685941,"toponymName":"Glebovo","countryId":"2017370","fcl":"P","population":0,"countryCode":"RU","name":"Glebovo","fclName":"city, village,...","countryName":"Russia","fcodeName":"populated place","adminName1":"Kursk","lat":"51.4643","fcode":"PPL"},{"adminCode1":"83","lng":"40.75384","geonameId":7042402,"toponymName":"Glebovo","countryId":"2017370","fcl":"P","population":0,"countryCode":"RU","name":"Glebovo","fclName":"city, village,...","countryName":"Russia","fcodeName":"populated place","adminName1":"Vladimir","lat":"56.10521","fcode":"PPL"},{"adminCode1":"88","lng":"39.43088","geonameId":7078779,"toponymName":"Glebovo","countryId":"2017370","fcl":"P","population":0,"countryCode":"RU","name":"Glebovo","fclName":"city, village,...","countryName":"Russia","fcodeName":"populated place","adminName1":"Jaroslavl","lat":"57.37221","fcode":"PPL"},{"adminCode1":"88","lng":"39.30679","geonameId":7079145,"toponymName":"Glebovo","countryId":"2017370","fcl":"P","population":0,"countryCode":"RU","name":"Glebovo","fclName":"city, village,...","countryName":"Russia","fcodeName":"populated place","adminName1":"Jaroslavl","lat":"57.6812","fcode":"PPL"},{"adminCode1":"07","lng":"30.7983","geonameId":8280979,"toponymName":"Glebovo","countryId":"630336","fcl":"P","population":0,"countryCode":"BY","name":"Glebovo","fclName":"city, village,...","countryName":"Belarus","fcodeName":"populated place","adminName1":"Vitsyebskaya Voblastsʼ","lat":"54.4878","fcode":"PPL"},{"adminCode1":"52","lng":"33.17472","geonameId":561271,"toponymName":"Glebovo","countryId":"2017370","fcl":"P","population":0,"countryCode":"RU","name":"Glebovo","fclName":"city, village,...","countryName":"Russia","fcodeName":"abandoned populated place","adminName1":"Novgorod","lat":"57.90806","fcode":"PPLQ"},{"adminCode1":"69","lng":"34.45444","geonameId":488456,"toponymName":"Staroye Glebovo","countryId":"2017370","fcl":"P","population":0,"countryCode":"RU","name":"Staroye Glebovo","fclName":"city, village,...","countryName":"Russia","fcodeName":"populated place","adminName1":"Smolensk","lat":"55.20472","fcode":"PPL"},{"adminCode1":"69","lng":"34.45169","geonameId":517561,"toponymName":"Glebovo","countryId":"2017370","fcl":"P","population":0,"countryCode":"RU","name":"Glebovo","fclName":"city, village,...","countryName":"Russia","fcodeName":"abandoned populated place","adminName1":"Smolensk","lat":"55.20126","fcode":"PPLQ"},{"adminCode1":"30","lng":"134.42956","geonameId":6284428,"toponymName":"Gora Glebovo","countryId":"2017370","fcl":"T","population":0,"countryCode":"RU","name":"Gora Glebovo","fclName":"mountain,hill,rock,... ","countryName":"Russia","fcodeName":"mountain","adminName1":"Khabarovsk Krai","lat":"47.26065","fcode":"MT"},{"adminCode1":"62","lng":"39.2508","geonameId":818972,"toponymName":"Glebovo-Gorodishche","countryId":"2017370","fcl":"P","population":0,"countryCode":"RU","name":"Glebovo-Gorodishche","fclName":"city, village,...","countryName":"Russia","fcodeName":"populated place","adminName1":"Rjazan","lat":"54.6357","fcode":"PPL"},{"adminCode1":"77","lng":"35.16651","geonameId":6657471,"toponymName":"Glebovo","countryId":"2017370","fcl":"P","population":0,"countryCode":"RU","name":"Glebovo","fclName":"city, village,...","countryName":"Russia","fcodeName":"populated place","adminName1":"Tverskaya","lat":"56.41355","fcode":"PPL"},{"adminCode1":"37","lng":"41.62716","geonameId":6610442,"toponymName":"Glebovo","countryId":"2017370","fcl":"P","population":0,"countryCode":"RU","name":"Glebovo","fclName":"city, village,...","countryName":"Russia","fcodeName":"populated place","adminName1":"Kostroma","lat":"58.2727","fcode":"PPL"},{"adminCode1":"47","lng":"38.44252","geonameId":819048,"toponymName":"Zmeyevo-Glebovo","countryId":"2017370","fcl":"P","population":0,"countryCode":"RU","name":"Zmeyevo-Glebovo","fclName":"city, village,...","countryName":"Russia","fcodeName":"populated place","adminName1":"Moskovskaya","lat":"54.76924","fcode":"PPL"},{"adminCode1":"76","lng":"37.41781","geonameId":542106,"toponymName":"Krasnoye","countryId":"2017370","fcl":"P","population":0,"countryCode":"RU","name":"Krasnoye","fclName":"city, village,...","countryName":"Russia","fcodeName":"populated place","adminName1":"Tula","lat":"53.31832","fcode":"PPL"},{"adminCode1":"56","lng":"37.76667","geonameId":561258,"toponymName":"Glebovo-Znamenka","countryId":"2017370","fcl":"P","population":0,"countryCode":"RU","name":"Glebovo-Znamenka","fclName":"city, village,...","countryName":"Russia","fcodeName":"section of populated place","adminName1":"Orjol","lat":"52.95","fcode":"PPLX"},{"adminCode1":"56","lng":"37.8","geonameId":561259,"toponymName":"Glebovo-Vyglyadovka","countryId":"2017370","fcl":"P","population":0,"countryCode":"RU","name":"Glebovo-Vyglyadovka","fclName":"city, village,...","countryName":"Russia","fcodeName":"section of populated place","adminName1":"Orjol","lat":"52.95","fcode":"PPLX"},{"adminCode1":"56","lng":"37.78333","geonameId":561261,"toponymName":"Glebovo-Leninka","countryId":"2017370","fcl":"P","population":0,"countryCode":"RU","name":"Glebovo-Leninka","fclName":"city, village,...","countryName":"Russia","fcodeName":"section of populated place","adminName1":"Orjol","lat":"52.93333","fcode":"PPLX"},{"adminCode1":"56","lng":"37.76667","geonameId":561262,"toponymName":"Glebovo-Gartung","countryId":"2017370","fcl":"P","population":0,"countryCode":"RU","name":"Glebovo-Gartung","fclName":"city, village,...","countryName":"Russia","fcodeName":"section of populated place","adminName1":"Orjol","lat":"52.93333","fcode":"PPLX"},{"adminCode1":"56","lng":"37.8","geonameId":561260,"toponymName":"Glebovo-Mosolovka","countryId":"2017370","fcl":"P","population":0,"countryCode":"RU","name":"Glebovo-Mosolovka","fclName":"city, village,...","countryName":"Russia","fcodeName":"section of populated place","adminName1":"Orjol","lat":"52.93333","fcode":"PPLX"},{"adminCode1":"56","lng":"37.76667","geonameId":561263,"toponymName":"Glebovo-Baranovka","countryId":"2017370","fcl":"P","population":0,"countryCode":"RU","name":"Glebovo-Baranovka","fclName":"city, village,...","countryName":"Russia","fcodeName":"section of populated place","adminName1":"Orjol","lat":"52.93333","fcode":"PPLX"},{"adminCode1":"40","lng":"62.7632","geonameId":8057684,"toponymName":"Urochishche Glebovo Pole","countryId":"2017370","fcl":"L","population":0,"countryCode":"RU","name":"Urochishche Glebovo Pole","fclName":"parks,area, ...","countryName":"Russia","fcodeName":"area","adminName1":"Kurgan","lat":"56.0632","fcode":"AREA"},{"adminCode1":"77","lng":"35.29535","geonameId":857099,"toponymName":"Khrebtovo","countryId":"2017370","fcl":"P","population":0,"countryCode":"RU","name":"Khrebtovo","fclName":"city, village,...","countryName":"Russia","fcodeName":"populated place","adminName1":"Tverskaya","lat":"56.77477","fcode":"PPL"},{"adminCode1":"88","lng":"38.44169","geonameId":7459864,"toponymName":"Pristan’ Glebovo","countryId":"2017370","fcl":"S","population":0,"countryCode":"RU","name":"Pristan’ Glebovo","fclName":"spot, building, farm","countryName":"Russia","fcodeName":"landing","adminName1":"Jaroslavl","lat":"58.00876","fcode":"LDNG"},{"adminCode1":"47","lng":"38.5191","geonameId":562355,"toponymName":"Frolovskoye","countryId":"2017370","fcl":"P","population":0,"countryCode":"RU","name":"Frolovskoye","fclName":"city, village,...","countryName":"Russia","fcodeName":"populated place","adminName1":"Moskovskaya","lat":"54.76271","fcode":"PPL"},{"adminCode1":"56","lng":"36.43223","geonameId":518367,"toponymName":"Novaya Petrovka","countryId":"2017370","fcl":"P","population":0,"countryCode":"RU","name":"Novaya Petrovka","fclName":"city, village,...","countryName":"Russia","fcodeName":"populated place","adminName1":"Orjol","lat":"52.74468","fcode":"PPL"}]}