{"totalResultsCount":7,"geonames":[{"adminCode1":"84","lng":"45.38333","geonameId":561084,"toponymName":"Glukhov","countryId":"2017370","fcl":"P","population":0,"countryCode":"RU","name":"Glukhov","fclName":"city, village,...","countryName":"Russia","fcodeName":"populated place","adminName1":"Volgograd","lat":"49.06667","fcode":"PPL"},{"adminCode1":"21","lng":"33.9162","geonameId":707758,"toponymName":"Hlukhiv","countryId":"690791","fcl":"P","population":35387,"countryCode":"UA","name":"Hlukhiv","fclName":"city, village,...","countryName":"Ukraine","fcodeName":"populated place","adminName1":"Sumy","lat":"51.67822","fcode":"PPL"},{"adminCode1":"05","lng":"28.5855","geonameId":7931628,"toponymName":"Glukhoye","countryId":"630336","fcl":"P","population":0,"countryCode":"BY","name":"Glukhoye","fclName":"city, village,...","countryName":"Belarus","fcodeName":"populated place","adminName1":"Minskaja Voblasts’","lat":"53.9446","fcode":"PPL"},{"adminCode1":"21","lng":"33.45944","geonameId":689025,"toponymName":"Voronizh","countryId":"690791","fcl":"P","population":0,"countryCode":"UA","name":"Voronezh","fclName":"city, village,...","countryName":"Ukraine","fcodeName":"populated place","adminName1":"Sumy","lat":"51.77572","fcode":"PPL"},{"adminCode1":"67","lng":"50.08333","geonameId":515901,"toponymName":"Oktyabr’skiy","countryId":"2017370","fcl":"P","population":0,"countryCode":"RU","name":"Oktyabr'skiy","fclName":"city, village,...","countryName":"Russia","fcodeName":"populated place","adminName1":"Saratov","lat":"51.88333","fcode":"PPL"},{"adminCode1":"27","lng":"29.20128","geonameId":8476440,"toponymName":"Hlukhiv Druhyy","countryId":"690791","fcl":"P","population":0,"countryCode":"UA","name":"Hlukhiv Druhyy","fclName":"city, village,...","countryName":"Ukraine","fcodeName":"populated place","adminName1":"Zhytomyr","lat":"50.53365","fcode":"PPL"},{"adminCode1":"27","lng":"29.16617","geonameId":8476448,"toponymName":"Hlukhiv Pershyy","countryId":"690791","fcl":"P","population":0,"countryCode":"UA","name":"Hlukhiv Pershyy","fclName":"city, village,...","countryName":"Ukraine","fcodeName":"populated place","adminName1":"Zhytomyr","lat":"50.53719","fcode":"PPL"}]}