{"geonames": [{"fcl": "P", "countryName": "Russia", "adminCode1": "84", "fcodeName": "populated place", "adminName1": "Volgograd", "lng": "45.38333", "name": "Glukhov", "toponymName": "Glukhov", "lat": "49.06667", "fclName": "city, village,...", "geonameId": 561084, "fcode": "PPL", "population": 0, "countryCode": "RU", "countryId": "2017370"}, {"fcl": "P", "countryName": "Ukraine", "adminCode1": "21", "fcodeName": "populated place", "adminName1": "Sumy", "lng": "33.9162", "name": "Hlukhiv", "toponymName": "Hlukhiv", "lat": "51.67822", "fclName": "city, village,...", "geonameId": 707758, "fcode": "PPL", "population": 35387, "countryCode": "UA", "countryId": "690791"}, {"fcl": "P", "countryName": "Belarus", "adminCode1": "05", "fcodeName": "populated place", "adminName1": "Minsk", "lng": "28.5855", "name": "Glukhoye", "toponymName": "Glukhoye", "lat": "53.9446", "fclName": "city, village,...", "geonameId": 7931628, "fcode": "PPL", "population": 0, "countryCode": "BY", "countryId": "630336"}, {"fcl": "P", "countryName": "Ukraine", "adminCode1": "21", "fcodeName": "populated place", "adminName1": "Sumy", "lng": "33.45944", "name": "Voronezh", "toponymName": "Voronizh", "lat": "51.77572", "fclName": "city, village,...", "geonameId": 689025, "fcode": "PPL", "population": 0, "countryCode": "UA", "countryId": "690791"}, {"fcl": "P", "countryName": "Russia", "adminCode1": "67", "fcodeName": "populated place", "adminName1": "Saratov", "lng": "50.08333", "name": "Oktyabr'skiy", "toponymName": "Oktyabr\u2019skiy", "lat": "51.88333", "fclName": "city, village,...", "geonameId": 515901, "fcode": "PPL", "population": 0, "countryCode": "RU", "countryId": "2017370"}, {"fcl": "P", "countryName": "Ukraine", "adminCode1": "27", "fcodeName": "populated place", "adminName1": "Zhytomyr", "lng": "29.20128", "name": "Hlukhiv Druhyy", "toponymName": "Hlukhiv Druhyy", "lat": "50.53365", "fclName": "city, village,...", "geonameId": 8476440, "fcode": "PPL", "population": 0, "countryCode": "UA", "countryId": "690791"}, {"fcl": "P", "countryName": "Ukraine", "adminCode1": "27", "fcodeName": "populated place", "adminName1": "Zhytomyr", "lng": "29.16617", "name": "Hlukhiv Pershyy", "toponymName": "Hlukhiv Pershyy", "lat": "50.53719", "fclName": "city, village,...", "geonameId": 8476448, "fcode": "PPL", "population": 0, "countryCode": "UA", "countryId": "690791"}], "totalResultsCount": 7, "url": "http://api.geonames.org/search?north=78.0&west=24.8&south=38.6&name=%D0%93%D0%BB%D1%83%D1%85%D0%BE%D0%B2&username=jaguillette&east=180&featureClass=P&type=json"}