{"totalResultsCount":5,"geonames":[{"countryId":"690791","adminCode1":"02","countryName":"Ukraine","fclName":"city, village,...","countryCode":"UA","lng":"32.79354","fcodeName":"populated place","toponymName":"Horodyshche","fcl":"P","name":"Gorodishche","fcode":"PPL","geonameId":708343,"lat":"51.27761","adminName1":"Chernihiv","population":0},{"countryId":"690791","adminCode1":"18","countryName":"Ukraine","fclName":"city, village,...","countryCode":"UA","lng":"33.05362","fcodeName":"populated place","toponymName":"Horodyshche","fcl":"P","name":"Gorodishche","fcode":"PPL","geonameId":708353,"lat":"50.17122","adminName1":"Poltava","population":0},{"countryId":"690791","adminCode1":"21","countryName":"Ukraine","fclName":"city, village,...","countryCode":"UA","lng":"34.01625","fcodeName":"populated place","toponymName":"Horodyshche","fcl":"P","name":"Horodyshche","fcode":"PPL","geonameId":708346,"lat":"50.92938","adminName1":"Sumy","population":0},{"countryId":"690791","adminCode1":"13","countryName":"Ukraine","fclName":"city, village,...","countryCode":"UA","lng":"31.00104","fcodeName":"populated place","toponymName":"Horodyshche","fcl":"P","name":"Horodyshche","fcode":"PPL","geonameId":8526754,"lat":"50.26779","adminName1":"Kiev","population":0},{"countryId":"690791","adminCode1":"01","countryName":"Ukraine","fclName":"city, village,...","countryCode":"UA","lng":"31.44513","fcodeName":"populated place","toponymName":"Horodyshche","fcl":"P","name":"Horodyshche","fcode":"PPL","geonameId":708366,"lat":"49.28489","adminName1":"Cherkasy","population":15063}]}