{"geonames": [{"fcl": "P", "countryName": "Ukraine", "adminCode1": "02", "fcodeName": "populated place", "adminName1": "Chernihiv", "lng": "31.59741", "name": "Horodnya", "toponymName": "Horodnya", "lat": "51.89085", "fclName": "city, village,...", "geonameId": 708320, "fcode": "PPL", "population": 13601, "countryCode": "UA", "countryId": "690791"}, {"fcl": "P", "countryName": "Russia", "adminCode1": "69", "fcodeName": "populated place", "adminName1": "Smolensk", "lng": "33.63333", "name": "Gorodnya", "toponymName": "Gorodnya", "lat": "55.46667", "fclName": "city, village,...", "geonameId": 559545, "fcode": "PPL", "population": 0, "countryCode": "RU", "countryId": "2017370"}, {"fcl": "P", "countryName": "Ukraine", "adminCode1": "02", "fcodeName": "populated place", "adminName1": "Chernihiv", "lng": "32.53401", "name": "Horodnya", "toponymName": "Horodnya", "lat": "50.76468", "fclName": "city, village,...", "geonameId": 708321, "fcode": "PPL", "population": 0, "countryCode": "UA", "countryId": "690791"}, {"fcl": "P", "countryName": "Belarus", "adminCode1": "06", "fcodeName": "populated place", "adminName1": "Mogilev", "lng": "30.6264", "name": "Gorodnya", "toponymName": "Gorodnya", "lat": "53.8433", "fclName": "city, village,...", "geonameId": 815386, "fcode": "PPL", "population": 0, "countryCode": "BY", "countryId": "630336"}, {"fcl": "P", "countryName": "Belarus", "adminCode1": "07", "fcodeName": "populated place", "adminName1": "Vitebsk", "lng": "30.4142", "name": "Gorodnya", "toponymName": "Gorodnya", "lat": "54.5477", "fclName": "city, village,...", "geonameId": 8280915, "fcode": "PPL", "population": 0, "countryCode": "BY", "countryId": "630336"}, {"fcl": "P", "countryName": "Ukraine", "adminCode1": "02", "fcodeName": "populated place", "adminName1": "Chernihiv", "lng": "31.64238", "name": "Vokzal-Horodnya", "toponymName": "Vokzal-Horodnya", "lat": "51.90535", "fclName": "city, village,...", "geonameId": 8538830, "fcode": "PPL", "population": 0, "countryCode": "UA", "countryId": "690791"}], "totalResultsCount": 6, "url": "http://api.geonames.org/search?north=55.5&west=27.3&south=47.5&name=%D0%93%D0%BE%D1%80%D0%BE%D0%B4%D0%BD%D1%8F&username=jaguillette&east=35.3&featureClass=P&type=json"}