{"totalResultsCount":7,"geonames":[{"countryId":"690791","adminCode1":"02","countryName":"Ukraine","fclName":"city, village,...","countryCode":"UA","lng":"33.28758","fcodeName":"populated place","toponymName":"Gremyach","fcl":"P","name":"Gremyach","fcode":"PPL","geonameId":708146,"lat":"52.33909","adminName1":"Chernihiv","population":0},{"countryId":"2017370","adminCode1":"56","countryName":"Russia","fclName":"city, village,...","countryCode":"RU","lng":"37.14462","fcodeName":"populated place","toponymName":"Gremyach’ye","fcl":"P","name":"Gremyach'ye","fcode":"PPL","geonameId":558849,"lat":"52.59324","adminName1":"Orjol","population":0},{"countryId":"2017370","adminCode1":"86","countryName":"Russia","fclName":"city, village,...","countryCode":"RU","lng":"38.8001","fcodeName":"populated place","toponymName":"Gremyach’ye","fcl":"P","name":"Gremyach’ye","fcode":"PPL","geonameId":558852,"lat":"51.9742","adminName1":"Voronezj","population":0},{"countryId":"2017370","adminCode1":"41","countryName":"Russia","fclName":"city, village,...","countryCode":"RU","lng":"35.53992","fcodeName":"populated place","toponymName":"Gremyach’ye","fcl":"P","name":"Gremyach’ye","fcode":"PPL","geonameId":558850,"lat":"52.38581","adminName1":"Kursk","population":0},{"countryId":"2017370","adminCode1":"56","countryName":"Russia","fclName":"city, village,...","countryCode":"RU","lng":"37.45","fcodeName":"populated place","toponymName":"Gremyach’ye","fcl":"P","name":"Gremyach’ye","fcode":"PPL","geonameId":558851,"lat":"52.03333","adminName1":"Orjol","population":0},{"countryId":"2017370","adminCode1":"86","countryName":"Russia","fclName":"city, village,...","countryCode":"RU","lng":"39.01943","fcodeName":"populated place","toponymName":"Gremyach’ye","fcl":"P","name":"Gremyach'ye","fcode":"PPL","geonameId":558853,"lat":"51.48789","adminName1":"Voronezj","population":0},{"countryId":"2017370","adminCode1":"41","countryName":"Russia","fclName":"city, village,...","countryCode":"RU","lng":"34.7409","fcodeName":"populated place","toponymName":"Pervoye Gremyach’ye","fcl":"P","name":"Pervoye Gremyach’ye","fcode":"PPL","geonameId":7665220,"lat":"51.9214","adminName1":"Kursk","population":0}]}