{"totalResultsCount":13,"geonames":[{"countryId":"2017370","adminCode1":"62","countryName":"Russia","fclName":"city, village,...","countryCode":"RU","lng":"39.1179","fcodeName":"populated place","toponymName":"Gryaznoye","fcl":"P","name":"Gryaznoye","fcode":"PPL","geonameId":558270,"lat":"54.0418","adminName1":"Rjazan","population":0},{"countryId":"2017370","adminCode1":"43","countryName":"Russia","fclName":"city, village,...","countryCode":"RU","lng":"39.3915","fcodeName":"populated place","toponymName":"Gryaznoye","fcl":"P","name":"Gryaznoye","fcode":"PPL","geonameId":558272,"lat":"52.3649","adminName1":"Lipetsk","population":0},{"countryId":"2017370","adminCode1":"41","countryName":"Russia","fclName":"city, village,...","countryCode":"RU","lng":"37.6551","fcodeName":"populated place","toponymName":"Gryaznoye","fcl":"P","name":"Gryaznoye","fcode":"PPL","geonameId":558274,"lat":"51.6872","adminName1":"Kursk","population":0},{"countryId":"2017370","adminCode1":"41","countryName":"Russia","fclName":"city, village,...","countryCode":"RU","lng":"36.75778","fcodeName":"populated place","toponymName":"Gryaznoye","fcl":"P","name":"Gryaznoye","fcode":"PPL","geonameId":558273,"lat":"51.98472","adminName1":"Kursk","population":0},{"countryId":"2017370","adminCode1":"56","countryName":"Russia","fclName":"city, village,...","countryCode":"RU","lng":"36.9151","fcodeName":"populated place","toponymName":"Gryaznoye","fcl":"P","name":"Gryaznoye","fcode":"PPL","geonameId":7451697,"lat":"52.2239","adminName1":"Orjol","population":0},{"countryId":"2017370","adminCode1":"56","countryName":"Russia","fclName":"city, village,...","countryCode":"RU","lng":"36.64823","fcodeName":"populated place","toponymName":"Gryaznoye","fcl":"P","name":"Gryaznoye","fcode":"PPL","geonameId":558271,"lat":"52.6579","adminName1":"Orjol","population":0},{"countryId":"2017370","adminCode1":"09","countryName":"Russia","fclName":"city, village,...","countryCode":"RU","lng":"36.52065","fcodeName":"populated place","toponymName":"Gryaznoye","fcl":"P","name":"Gryaznoye","fcode":"PPL","geonameId":558275,"lat":"50.9942","adminName1":"Belgorod","population":0},{"countryId":"2017370","adminCode1":"93","countryName":"Russia","fclName":"city, village,...","countryCode":"RU","lng":"119.46667","fcodeName":"populated place","toponymName":"Gryaznoye","fcl":"P","name":"Gryaznoye","fcode":"PPL","geonameId":2023845,"lat":"51.43333","adminName1":"Zabaykalsky","population":0},{"countryId":"2017370","adminCode1":"09","countryName":"Russia","fclName":"city, village,...","countryCode":"RU","lng":"36.53419","fcodeName":"populated place","toponymName":"Krasnoye","fcl":"P","name":"Krasnoye","fcode":"PPL","geonameId":558276,"lat":"50.57961","adminName1":"Belgorod","population":0},{"countryId":"2017370","adminCode1":"52","countryName":"Russia","fclName":"city, village,...","countryCode":"RU","lng":"33.205","fcodeName":"populated place","toponymName":"Gryaznoye Zamost’ye","fcl":"P","name":"Gryaznoye Zamost'ye","fcode":"PPL","geonameId":558267,"lat":"58.92924","adminName1":"Novgorod","population":0},{"countryId":"2017370","adminCode1":"72","countryName":"Russia","fclName":"city, village,...","countryCode":"RU","lng":"41.49454","fcodeName":"populated place","toponymName":"Starogryaznoye","fcl":"P","name":"Starogryaznoye","fcode":"PPL","geonameId":488828,"lat":"53.25113","adminName1":"Tambov","population":0},{"countryId":"2017370","adminCode1":"33","countryName":"Russia","fclName":"city, village,...","countryCode":"RU","lng":"47.43354","fcodeName":"populated place","toponymName":"Gryaznoye Pavlovo","fcl":"P","name":"Gryaznoye Pavlovo","fcode":"PPL","geonameId":6198325,"lat":"57.00552","adminName1":"Kirov","population":0},{"countryId":"2017370","adminCode1":"41","countryName":"Russia","fclName":"city, village,...","countryCode":"RU","lng":"37.6477","fcodeName":"populated place","toponymName":"Sel’tso Gryaznoye","fcl":"P","name":"Sel’tso Gryaznoye","fcode":"PPL","geonameId":8535531,"lat":"51.7355","adminName1":"Kursk","population":0}]}