{"totalResultsCount":24,"geonames":[{"adminCode1":"62","lng":"39.1179","geonameId":558270,"toponymName":"Gryaznoye","countryId":"2017370","fcl":"P","population":0,"countryCode":"RU","name":"Gryaznoye","fclName":"city, village,...","countryName":"Russia","fcodeName":"populated place","adminName1":"Rjazan","lat":"54.0418","fcode":"PPL"},{"adminCode1":"43","lng":"39.3915","geonameId":558272,"toponymName":"Gryaznoye","countryId":"2017370","fcl":"P","population":0,"countryCode":"RU","name":"Gryaznoye","fclName":"city, village,...","countryName":"Russia","fcodeName":"populated place","adminName1":"Lipetsk","lat":"52.3649","fcode":"PPL"},{"adminCode1":"41","lng":"36.75778","geonameId":558273,"toponymName":"Gryaznoye","countryId":"2017370","fcl":"P","population":0,"countryCode":"RU","name":"Gryaznoye","fclName":"city, village,...","countryName":"Russia","fcodeName":"populated place","adminName1":"Kursk","lat":"51.98472","fcode":"PPL"},{"adminCode1":"41","lng":"37.6551","geonameId":558274,"toponymName":"Gryaznoye","countryId":"2017370","fcl":"P","population":0,"countryCode":"RU","name":"Gryaznoye","fclName":"city, village,...","countryName":"Russia","fcodeName":"populated place","adminName1":"Kursk","lat":"51.6872","fcode":"PPL"},{"adminCode1":"56","lng":"36.9151","geonameId":7451697,"toponymName":"Gryaznoye","countryId":"2017370","fcl":"P","population":0,"countryCode":"RU","name":"Gryaznoye","fclName":"city, village,...","countryName":"Russia","fcodeName":"populated place","adminName1":"Orjol","lat":"52.2239","fcode":"PPL"},{"adminCode1":"56","lng":"36.64823","geonameId":558271,"toponymName":"Gryaznoye","countryId":"2017370","fcl":"P","population":0,"countryCode":"RU","name":"Gryaznoye","fclName":"city, village,...","countryName":"Russia","fcodeName":"populated place","adminName1":"Orjol","lat":"52.6579","fcode":"PPL"},{"adminCode1":"09","lng":"36.52065","geonameId":558275,"toponymName":"Gryaznoye","countryId":"2017370","fcl":"P","population":0,"countryCode":"RU","name":"Gryaznoye","fclName":"city, village,...","countryName":"Russia","fcodeName":"populated place","adminName1":"Belgorod","lat":"50.9942","fcode":"PPL"},{"adminCode1":"93","lng":"119.46667","geonameId":2023845,"toponymName":"Gryaznoye","countryId":"2017370","fcl":"P","population":0,"countryCode":"RU","name":"Gryaznoye","fclName":"city, village,...","countryName":"Russia","fcodeName":"populated place","adminName1":"Zabaykalsky","lat":"51.43333","fcode":"PPL"},{"adminCode1":"09","lng":"36.53419","geonameId":558276,"toponymName":"Krasnoye","countryId":"2017370","fcl":"P","population":0,"countryCode":"RU","name":"Krasnoye","fclName":"city, village,...","countryName":"Russia","fcodeName":"populated place","adminName1":"Belgorod","lat":"50.57961","fcode":"PPL"},{"adminCode1":"65","lng":"50.15891","geonameId":8141209,"toponymName":"Ozero Gryaznoye","countryId":"2017370","fcl":"H","population":0,"countryCode":"RU","name":"Ozero Gryaznoye","fclName":"stream, lake, ...","countryName":"Russia","fcodeName":"lake","adminName1":"Samara","lat":"53.28729","fcode":"LK"},{"adminCode1":"11","lng":"111.334","geonameId":7894630,"toponymName":"Ozero Gryaznoye","countryId":"2017370","fcl":"H","population":0,"countryCode":"RU","name":"Ozero Gryaznoye","fclName":"stream, lake, ...","countryName":"Russia","fcodeName":"lake","adminName1":"Respublika Buryatiya","lat":"52.7272","fcode":"LK"},{"adminCode1":"08","lng":"55.92975","geonameId":8444375,"toponymName":"Ozero Gryaznoye","countryId":"2017370","fcl":"H","population":0,"countryCode":"RU","name":"Ozero Gryaznoye","fclName":"stream, lake, ...","countryName":"Russia","fcodeName":"lake","adminName1":"Bashkortostan","lat":"54.82203","fcode":"LK"},{"adminCode1":"85","lng":"36.4382","geonameId":8245144,"toponymName":"Ozero Gryaznoye","countryId":"2017370","fcl":"H","population":0,"countryCode":"RU","name":"Ozero Gryaznoye","fclName":"stream, lake, ...","countryName":"Russia","fcodeName":"lake","adminName1":"Vologda","lat":"60.1709","fcode":"LK"},{"adminCode1":"89","lng":"132.55332","geonameId":8235050,"toponymName":"Ozero Gryaznoye","countryId":"2017370","fcl":"H","population":0,"countryCode":"RU","name":"Ozero Gryaznoye","fclName":"stream, lake, ...","countryName":"Russia","fcodeName":"lake","adminName1":"Jewish Autonomous Oblast","lat":"48.00491","fcode":"LK"},{"adminCode1":"52","lng":"33.205","geonameId":558267,"toponymName":"Gryaznoye Zamost’ye","countryId":"2017370","fcl":"P","population":0,"countryCode":"RU","name":"Gryaznoye Zamost'ye","fclName":"city, village,...","countryName":"Russia","fcodeName":"populated place","adminName1":"Novgorod","lat":"58.92924","fcode":"PPL"},{"adminCode1":"33","lng":"47.43354","geonameId":6198325,"toponymName":"Gryaznoye Pavlovo","countryId":"2017370","fcl":"P","population":0,"countryCode":"RU","name":"Gryaznoye Pavlovo","fclName":"city, village,...","countryName":"Russia","fcodeName":"populated place","adminName1":"Kirov","lat":"57.00552","fcode":"PPL"},{"adminCode1":"72","lng":"41.49454","geonameId":488828,"toponymName":"Starogryaznoye","countryId":"2017370","fcl":"P","population":0,"countryCode":"RU","name":"Starogryaznoye","fclName":"city, village,...","countryName":"Russia","fcodeName":"populated place","adminName1":"Tambov","lat":"53.25113","fcode":"PPL"},{"adminCode1":"08","lng":"55.93129","geonameId":8444376,"toponymName":"Ozero Shirokoye Gryaznoye","countryId":"2017370","fcl":"H","population":0,"countryCode":"RU","name":"Ozero Shirokoye Gryaznoye","fclName":"stream, lake, ...","countryName":"Russia","fcodeName":"lake","adminName1":"Bashkortostan","lat":"54.8251","fcode":"LK"},{"adminCode1":"41","lng":"37.6477","geonameId":8535531,"toponymName":"Sel’tso Gryaznoye","countryId":"2017370","fcl":"P","population":0,"countryCode":"RU","name":"Sel’tso Gryaznoye","fclName":"city, village,...","countryName":"Russia","fcodeName":"populated place","adminName1":"Kursk","lat":"51.7355","fcode":"PPL"},{"adminCode1":"05","lng":"26.385","geonameId":8072114,"toponymName":"Urochishche Gryaznoye Boloto","countryId":"630336","fcl":"L","population":0,"countryCode":"BY","name":"Urochishche Gryaznoye Boloto","fclName":"parks,area, ...","countryName":"Belarus","fcodeName":"area","adminName1":"Minskaja Voblasts’","lat":"53.8565","fcode":"AREA"},{"adminCode1":"40","lng":"65.42917","geonameId":1542960,"toponymName":"Boloto Gryaznoye","countryId":"2017370","fcl":"H","population":0,"countryCode":"RU","name":"Boloto Gryaznoye","fclName":"stream, lake, ...","countryName":"Russia","fcodeName":"swamp","adminName1":"Kurgan","lat":"55.55583","fcode":"SWMP"},{"adminCode1":"78","lng":"65.8349","geonameId":7607245,"toponymName":"Ozero Gryaznoye","countryId":"2017370","fcl":"H","population":0,"countryCode":"RU","name":"Ozero Gryaznoye","fclName":"stream, lake, ...","countryName":"Russia","fcodeName":"section of lake","adminName1":"Tjumen","lat":"57.0135","fcode":"LKX"},{"adminCode1":"08","lng":"56.03679","geonameId":7552682,"toponymName":"Ozero Gryaznoye","countryId":"2017370","fcl":"H","population":0,"countryCode":"RU","name":"Ozero Gryaznoye","fclName":"stream, lake, ...","countryName":"Russia","fcodeName":"oxbow lake","adminName1":"Bashkortostan","lat":"54.67759","fcode":"LKO"},{"adminCode1":"89","lng":"132.21191","geonameId":8235007,"toponymName":"Boloto Gryaznoye","countryId":"2017370","fcl":"H","population":0,"countryCode":"RU","name":"Boloto Gryaznoye","fclName":"stream, lake, ...","countryName":"Russia","fcodeName":"swamp","adminName1":"Jewish Autonomous Oblast","lat":"48.19518","fcode":"SWMP"}]}