{"totalResultsCount":11,"geonames":[{"adminCode1":"02","lng":"33.28757","geonameId":708146,"toponymName":"Gremyach","countryId":"690791","fcl":"P","population":0,"countryCode":"UA","name":"Gremyach","fclName":"city, village,...","countryName":"Ukraine","fcodeName":"populated place","adminName1":"Chernihiv","lat":"52.33909","fcode":"PPL"},{"adminCode1":"56","lng":"37.14462","geonameId":558849,"toponymName":"Gremyach’ye","countryId":"2017370","fcl":"P","population":0,"countryCode":"RU","name":"Gremyach'ye","fclName":"city, village,...","countryName":"Russia","fcodeName":"populated place","adminName1":"Orjol","lat":"52.59324","fcode":"PPL"},{"adminCode1":"23","lng":"21.6729","geonameId":558848,"toponymName":"Gremyach’ye","countryId":"2017370","fcl":"P","population":0,"countryCode":"RU","name":"Gremyach'ye","fclName":"city, village,...","countryName":"Russia","fcodeName":"populated place","adminName1":"Kaliningrad","lat":"54.70273","fcode":"PPL"},{"adminCode1":"41","lng":"35.53992","geonameId":558850,"toponymName":"Gremyach’ye","countryId":"2017370","fcl":"P","population":0,"countryCode":"RU","name":"Gremyach’ye","fclName":"city, village,...","countryName":"Russia","fcodeName":"populated place","adminName1":"Kursk","lat":"52.38581","fcode":"PPL"},{"adminCode1":"56","lng":"37.45","geonameId":558851,"toponymName":"Gremyach’ye","countryId":"2017370","fcl":"P","population":0,"countryCode":"RU","name":"Gremyach’ye","fclName":"city, village,...","countryName":"Russia","fcodeName":"populated place","adminName1":"Orjol","lat":"52.03333","fcode":"PPL"},{"adminCode1":"86","lng":"38.8001","geonameId":558852,"toponymName":"Gremyach’ye","countryId":"2017370","fcl":"P","population":0,"countryCode":"RU","name":"Gremyach’ye","fclName":"city, village,...","countryName":"Russia","fcodeName":"populated place","adminName1":"Voronezj","lat":"51.9742","fcode":"PPL"},{"adminCode1":"86","lng":"39.01943","geonameId":558853,"toponymName":"Gremyach’ye","countryId":"2017370","fcl":"P","population":0,"countryCode":"RU","name":"Gremyach'ye","fclName":"city, village,...","countryName":"Russia","fcodeName":"populated place","adminName1":"Voronezj","lat":"51.48789","fcode":"PPL"},{"adminCode1":"65","lng":"48.9713","geonameId":7754929,"toponymName":"Ozero Gremyach’ye","countryId":"2017370","fcl":"H","population":0,"countryCode":"RU","name":"Ozero Gremyach’ye","fclName":"stream, lake, ...","countryName":"Russia","fcodeName":"lake","adminName1":"Samara","lat":"53.1944","fcode":"LK"},{"adminCode1":"41","lng":"34.7409","geonameId":7665220,"toponymName":"Pervoye Gremyach’ye","countryId":"2017370","fcl":"P","population":0,"countryCode":"RU","name":"Pervoye Gremyach’ye","fclName":"city, village,...","countryName":"Russia","fcodeName":"populated place","adminName1":"Kursk","lat":"51.9214","fcode":"PPL"},{"adminCode1":"23","lng":"21.62071","geonameId":825551,"toponymName":"Gremyach’ya","countryId":"2017370","fcl":"H","population":0,"countryCode":"RU","name":"Gremyach’ya","fclName":"stream, lake, ...","countryName":"Russia","fcodeName":"stream","adminName1":"Kaliningrad","lat":"54.63383","fcode":"STM"},{"adminCode1":"41","lng":"34.7503","geonameId":7665219,"toponymName":"Vtoroye Gremyach’ye","countryId":"2017370","fcl":"P","population":0,"countryCode":"RU","name":"Vtoroye Gremyach’ye","fclName":"city, village,...","countryName":"Russia","fcodeName":"abandoned populated place","adminName1":"Kursk","lat":"51.9264","fcode":"PPLQ"}]}