{"totalResultsCount":24,"geonames":[{"countryId":"2017370","adminCode1":"62","countryName":"Russia","fclName":"city, village,...","countryCode":"RU","lng":"39.1179","fcodeName":"populated place","toponymName":"Gryaznoye","fcl":"P","name":"Gryaznoye","fcode":"PPL","geonameId":558270,"lat":"54.0418","adminName1":"Rjazan","population":0},{"countryId":"2017370","adminCode1":"43","countryName":"Russia","fclName":"city, village,...","countryCode":"RU","lng":"39.3915","fcodeName":"populated place","toponymName":"Gryaznoye","fcl":"P","name":"Gryaznoye","fcode":"PPL","geonameId":558272,"lat":"52.3649","adminName1":"Lipetsk","population":0},{"countryId":"2017370","adminCode1":"41","countryName":"Russia","fclName":"city, village,...","countryCode":"RU","lng":"36.75778","fcodeName":"populated place","toponymName":"Gryaznoye","fcl":"P","name":"Gryaznoye","fcode":"PPL","geonameId":558273,"lat":"51.98472","adminName1":"Kursk","population":0},{"countryId":"2017370","adminCode1":"41","countryName":"Russia","fclName":"city, village,...","countryCode":"RU","lng":"37.6551","fcodeName":"populated place","toponymName":"Gryaznoye","fcl":"P","name":"Gryaznoye","fcode":"PPL","geonameId":558274,"lat":"51.6872","adminName1":"Kursk","population":0},{"countryId":"2017370","adminCode1":"56","countryName":"Russia","fclName":"city, village,...","countryCode":"RU","lng":"36.9151","fcodeName":"populated place","toponymName":"Gryaznoye","fcl":"P","name":"Gryaznoye","fcode":"PPL","geonameId":7451697,"lat":"52.2239","adminName1":"Orjol","population":0},{"countryId":"2017370","adminCode1":"56","countryName":"Russia","fclName":"city, village,...","countryCode":"RU","lng":"36.64823","fcodeName":"populated place","toponymName":"Gryaznoye","fcl":"P","name":"Gryaznoye","fcode":"PPL","geonameId":558271,"lat":"52.6579","adminName1":"Orjol","population":0},{"countryId":"2017370","adminCode1":"09","countryName":"Russia","fclName":"city, village,...","countryCode":"RU","lng":"36.52065","fcodeName":"populated place","toponymName":"Gryaznoye","fcl":"P","name":"Gryaznoye","fcode":"PPL","geonameId":558275,"lat":"50.9942","adminName1":"Belgorod","population":0},{"countryId":"2017370","adminCode1":"93","countryName":"Russia","fclName":"city, village,...","countryCode":"RU","lng":"119.46667","fcodeName":"populated place","toponymName":"Gryaznoye","fcl":"P","name":"Gryaznoye","fcode":"PPL","geonameId":2023845,"lat":"51.43333","adminName1":"Zabaykalsky","population":0},{"countryId":"2017370","adminCode1":"09","countryName":"Russia","fclName":"city, village,...","countryCode":"RU","lng":"36.53419","fcodeName":"populated place","toponymName":"Krasnoye","fcl":"P","name":"Krasnoye","fcode":"PPL","geonameId":558276,"lat":"50.57961","adminName1":"Belgorod","population":0},{"countryId":"2017370","adminCode1":"11","countryName":"Russia","fclName":"stream, lake, ...","countryCode":"RU","lng":"111.334","fcodeName":"lake","toponymName":"Ozero Gryaznoye","fcl":"H","name":"Ozero Gryaznoye","fcode":"LK","geonameId":7894630,"lat":"52.7272","adminName1":"Respublika Buryatiya","population":0},{"countryId":"2017370","adminCode1":"85","countryName":"Russia","fclName":"stream, lake, ...","countryCode":"RU","lng":"36.4382","fcodeName":"lake","toponymName":"Ozero Gryaznoye","fcl":"H","name":"Ozero Gryaznoye","fcode":"LK","geonameId":8245144,"lat":"60.1709","adminName1":"Vologda","population":0},{"countryId":"2017370","adminCode1":"89","countryName":"Russia","fclName":"stream, lake, ...","countryCode":"RU","lng":"132.55332","fcodeName":"lake","toponymName":"Ozero Gryaznoye","fcl":"H","name":"Ozero Gryaznoye","fcode":"LK","geonameId":8235050,"lat":"48.00491","adminName1":"Jewish Autonomous Oblast","population":0},{"countryId":"2017370","adminCode1":"08","countryName":"Russia","fclName":"stream, lake, ...","countryCode":"RU","lng":"55.92975","fcodeName":"lake","toponymName":"Ozero Gryaznoye","fcl":"H","name":"Ozero Gryaznoye","fcode":"LK","geonameId":8444375,"lat":"54.82203","adminName1":"Bashkortostan","population":0},{"countryId":"2017370","adminCode1":"65","countryName":"Russia","fclName":"stream, lake, ...","countryCode":"RU","lng":"50.15891","fcodeName":"lake","toponymName":"Ozero Gryaznoye","fcl":"H","name":"Ozero Gryaznoye","fcode":"LK","geonameId":8141209,"lat":"53.28729","adminName1":"Samara","population":0},{"countryId":"2017370","adminCode1":"52","countryName":"Russia","fclName":"city, village,...","countryCode":"RU","lng":"33.205","fcodeName":"populated place","toponymName":"Gryaznoye Zamost’ye","fcl":"P","name":"Gryaznoye Zamost'ye","fcode":"PPL","geonameId":558267,"lat":"58.92924","adminName1":"Novgorod","population":0},{"countryId":"2017370","adminCode1":"33","countryName":"Russia","fclName":"city, village,...","countryCode":"RU","lng":"47.43354","fcodeName":"populated place","toponymName":"Gryaznoye Pavlovo","fcl":"P","name":"Gryaznoye Pavlovo","fcode":"PPL","geonameId":6198325,"lat":"57.00552","adminName1":"Kirov","population":0},{"countryId":"2017370","adminCode1":"72","countryName":"Russia","fclName":"city, village,...","countryCode":"RU","lng":"41.49454","fcodeName":"populated place","toponymName":"Starogryaznoye","fcl":"P","name":"Starogryaznoye","fcode":"PPL","geonameId":488828,"lat":"53.25113","adminName1":"Tambov","population":0},{"countryId":"2017370","adminCode1":"08","countryName":"Russia","fclName":"stream, lake, ...","countryCode":"RU","lng":"55.93129","fcodeName":"lake","toponymName":"Ozero Shirokoye Gryaznoye","fcl":"H","name":"Ozero Shirokoye Gryaznoye","fcode":"LK","geonameId":8444376,"lat":"54.8251","adminName1":"Bashkortostan","population":0},{"countryId":"2017370","adminCode1":"41","countryName":"Russia","fclName":"city, village,...","countryCode":"RU","lng":"37.6477","fcodeName":"populated place","toponymName":"Sel’tso Gryaznoye","fcl":"P","name":"Sel’tso Gryaznoye","fcode":"PPL","geonameId":8535531,"lat":"51.7355","adminName1":"Kursk","population":0},{"countryId":"630336","adminCode1":"05","countryName":"Belarus","fclName":"parks,area, ...","countryCode":"BY","lng":"26.385","fcodeName":"area","toponymName":"Urochishche Gryaznoye Boloto","fcl":"L","name":"Urochishche Gryaznoye Boloto","fcode":"AREA","geonameId":8072114,"lat":"53.8565","adminName1":"Minskaja Voblasts’","population":0},{"countryId":"2017370","adminCode1":"78","countryName":"Russia","fclName":"stream, lake, ...","countryCode":"RU","lng":"65.8349","fcodeName":"section of lake","toponymName":"Ozero Gryaznoye","fcl":"H","name":"Ozero Gryaznoye","fcode":"LKX","geonameId":7607245,"lat":"57.0135","adminName1":"Tjumen","population":0},{"countryId":"2017370","adminCode1":"40","countryName":"Russia","fclName":"stream, lake, ...","countryCode":"RU","lng":"65.42917","fcodeName":"swamp","toponymName":"Boloto Gryaznoye","fcl":"H","name":"Boloto Gryaznoye","fcode":"SWMP","geonameId":1542960,"lat":"55.55583","adminName1":"Kurgan","population":0},{"countryId":"2017370","adminCode1":"08","countryName":"Russia","fclName":"stream, lake, ...","countryCode":"RU","lng":"56.03679","fcodeName":"oxbow lake","toponymName":"Ozero Gryaznoye","fcl":"H","name":"Ozero Gryaznoye","fcode":"LKO","geonameId":7552682,"lat":"54.67759","adminName1":"Bashkortostan","population":0},{"countryId":"2017370","adminCode1":"89","countryName":"Russia","fclName":"stream, lake, ...","countryCode":"RU","lng":"132.2119","fcodeName":"swamp","toponymName":"Boloto Gryaznoye","fcl":"H","name":"Boloto Gryaznoye","fcode":"SWMP","geonameId":8235007,"lat":"48.19518","adminName1":"Jewish Autonomous Oblast","population":0}]}