{"totalResultsCount":11,"geonames":[{"countryId":"690791","adminCode1":"02","countryName":"Ukraine","fclName":"city, village,...","countryCode":"UA","lng":"33.28758","fcodeName":"populated place","toponymName":"Gremyach","fcl":"P","name":"Gremyach","fcode":"PPL","geonameId":708146,"lat":"52.33909","adminName1":"Chernihivs’ka","population":0},{"countryId":"2017370","adminCode1":"56","countryName":"Russia","fclName":"city, village,...","countryCode":"RU","lng":"37.14462","fcodeName":"populated place","toponymName":"Gremyach’ye","fcl":"P","name":"Gremyach'ye","fcode":"PPL","geonameId":558849,"lat":"52.59324","adminName1":"Orjol","population":0},{"countryId":"2017370","adminCode1":"23","countryName":"Russia","fclName":"city, village,...","countryCode":"RU","lng":"21.6729","fcodeName":"populated place","toponymName":"Gremyach’ye","fcl":"P","name":"Gremyach'ye","fcode":"PPL","geonameId":558848,"lat":"54.70273","adminName1":"Kaliningrad","population":0},{"countryId":"2017370","adminCode1":"41","countryName":"Russia","fclName":"city, village,...","countryCode":"RU","lng":"35.53992","fcodeName":"populated place","toponymName":"Gremyach’ye","fcl":"P","name":"Gremyach’ye","fcode":"PPL","geonameId":558850,"lat":"52.38581","adminName1":"Kursk","population":0},{"countryId":"2017370","adminCode1":"56","countryName":"Russia","fclName":"city, village,...","countryCode":"RU","lng":"37.45","fcodeName":"populated place","toponymName":"Gremyach’ye","fcl":"P","name":"Gremyach’ye","fcode":"PPL","geonameId":558851,"lat":"52.03333","adminName1":"Orjol","population":0},{"countryId":"2017370","adminCode1":"86","countryName":"Russia","fclName":"city, village,...","countryCode":"RU","lng":"38.8001","fcodeName":"populated place","toponymName":"Gremyach’ye","fcl":"P","name":"Gremyach’ye","fcode":"PPL","geonameId":558852,"lat":"51.9742","adminName1":"Voronezj","population":0},{"countryId":"2017370","adminCode1":"86","countryName":"Russia","fclName":"city, village,...","countryCode":"RU","lng":"39.01943","fcodeName":"populated place","toponymName":"Gremyach’ye","fcl":"P","name":"Gremyach'ye","fcode":"PPL","geonameId":558853,"lat":"51.48789","adminName1":"Voronezj","population":0},{"countryId":"2017370","adminCode1":"65","countryName":"Russia","fclName":"stream, lake, ...","countryCode":"RU","lng":"48.9713","fcodeName":"lake","toponymName":"Ozero Gremyach’ye","fcl":"H","name":"Ozero Gremyach’ye","fcode":"LK","geonameId":7754929,"lat":"53.1944","adminName1":"Samara","population":0},{"countryId":"2017370","adminCode1":"41","countryName":"Russia","fclName":"city, village,...","countryCode":"RU","lng":"34.7409","fcodeName":"populated place","toponymName":"Pervoye Gremyach’ye","fcl":"P","name":"Pervoye Gremyach’ye","fcode":"PPL","geonameId":7665220,"lat":"51.9214","adminName1":"Kursk","population":0},{"countryId":"2017370","adminCode1":"41","countryName":"Russia","fclName":"city, village,...","countryCode":"RU","lng":"34.7503","fcodeName":"abandoned populated place","toponymName":"Vtoroye Gremyach’ye","fcl":"P","name":"Vtoroye Gremyach’ye","fcode":"PPLQ","geonameId":7665219,"lat":"51.9264","adminName1":"Kursk","population":0},{"countryId":"2017370","adminCode1":"23","countryName":"Russia","fclName":"stream, lake, ...","countryCode":"RU","lng":"21.62071","fcodeName":"stream","toponymName":"Gremyach’ya","fcl":"H","name":"Gremyach’ya","fcode":"STM","geonameId":825551,"lat":"54.63383","adminName1":"Kaliningrad","population":0}]}