{"totalResultsCount":5,"geonames":[{"adminCode1":"02","lng":"33.28757","geonameId":708146,"toponymName":"Gremyach","countryId":"690791","fcl":"P","population":0,"countryCode":"UA","name":"Gremyach","fclName":"city, village,...","countryName":"Ukraine","fcodeName":"populated place","adminName1":"Chernihiv","lat":"52.33909","fcode":"PPL"},{"adminCode1":"56","lng":"37.14462","geonameId":558849,"toponymName":"Gremyach’ye","countryId":"2017370","fcl":"P","population":0,"countryCode":"RU","name":"Gremyach'ye","fclName":"city, village,...","countryName":"Russia","fcodeName":"populated place","adminName1":"Orjol","lat":"52.59324","fcode":"PPL"},{"adminCode1":"41","lng":"35.53992","geonameId":558850,"toponymName":"Gremyach’ye","countryId":"2017370","fcl":"P","population":0,"countryCode":"RU","name":"Gremyach’ye","fclName":"city, village,...","countryName":"Russia","fcodeName":"populated place","adminName1":"Kursk","lat":"52.38581","fcode":"PPL"},{"adminCode1":"41","lng":"34.7409","geonameId":7665220,"toponymName":"Pervoye Gremyach’ye","countryId":"2017370","fcl":"P","population":0,"countryCode":"RU","name":"Pervoye Gremyach’ye","fclName":"city, village,...","countryName":"Russia","fcodeName":"populated place","adminName1":"Kursk","lat":"51.9214","fcode":"PPL"},{"adminCode1":"41","lng":"34.7503","geonameId":7665219,"toponymName":"Vtoroye Gremyach’ye","countryId":"2017370","fcl":"P","population":0,"countryCode":"RU","name":"Vtoroye Gremyach’ye","fclName":"city, village,...","countryName":"Russia","fcodeName":"abandoned populated place","adminName1":"Kursk","lat":"51.9264","fcode":"PPLQ"}]}