{"totalResultsCount":6,"geonames":[{"countryId":"2017370","adminCode1":"67","countryName":"Russia","fclName":"city, village,...","countryCode":"RU","lng":"48.7659","fcodeName":"populated place","toponymName":"Dergachi","fcl":"P","name":"Dergachi","fcode":"PPL","geonameId":566456,"lat":"51.2328","adminName1":"Saratov","population":9570},{"countryId":"2017370","adminCode1":"33","countryName":"Russia","fclName":"city, village,...","countryCode":"RU","lng":"50.22457","fcodeName":"populated place","toponymName":"Dergachi","fcl":"P","name":"Dergachi","fcode":"PPL","geonameId":566454,"lat":"57.07978","adminName1":"Kirov","population":0},{"countryId":"2017370","adminCode1":"77","countryName":"Russia","fclName":"city, village,...","countryCode":"RU","lng":"31.16977","fcodeName":"populated place","toponymName":"Dergachi","fcl":"P","name":"Dergachi","fcode":"PPL","geonameId":7427597,"lat":"56.68311","adminName1":"Tverskaya","population":0},{"countryId":"2017370","adminCode1":"65","countryName":"Russia","fclName":"city, village,...","countryCode":"RU","lng":"50.03687","fcodeName":"populated place","toponymName":"Dergachi","fcl":"P","name":"Dergachi","fcode":"PPL","geonameId":566455,"lat":"52.89663","adminName1":"Samara","population":0},{"countryId":"2017370","adminCode1":"67","countryName":"Russia","fclName":"city, village,...","countryCode":"RU","lng":"48.78333","fcodeName":"populated place","toponymName":"Novyye Dergachi","fcl":"P","name":"Novyye Dergachi","fcode":"PPL","geonameId":517153,"lat":"51.23333","adminName1":"Saratov","population":0},{"countryId":"690791","adminCode1":"18","countryName":"Ukraine","fclName":"city, village,...","countryCode":"UA","lng":"34.51667","fcodeName":"populated place","toponymName":"Dergachi","fcl":"P","name":"Dergachi","fcode":"PPL","geonameId":710095,"lat":"49.4","adminName1":"Poltava","population":0}]}