{"totalResultsCount":12,"geonames":[{"countryId":"2017370","adminCode1":"67","countryName":"Russia","fclName":"city, village,...","countryCode":"RU","lng":"48.7659","fcodeName":"populated place","toponymName":"Dergachi","fcl":"P","name":"Dergachi","fcode":"PPL","geonameId":566456,"lat":"51.2328","adminName1":"Saratov","population":9570},{"countryId":"2017370","adminCode1":"33","countryName":"Russia","fclName":"city, village,...","countryCode":"RU","lng":"50.22457","fcodeName":"populated place","toponymName":"Dergachi","fcl":"P","name":"Dergachi","fcode":"PPL","geonameId":566454,"lat":"57.07978","adminName1":"Kirov","population":0},{"countryId":"2017370","adminCode1":"77","countryName":"Russia","fclName":"city, village,...","countryCode":"RU","lng":"31.16977","fcodeName":"populated place","toponymName":"Dergachi","fcl":"P","name":"Dergachi","fcode":"PPL","geonameId":7427597,"lat":"56.68311","adminName1":"Tverskaya","population":0},{"countryId":"2017370","adminCode1":"65","countryName":"Russia","fclName":"city, village,...","countryCode":"RU","lng":"50.03687","fcodeName":"populated place","toponymName":"Dergachi","fcl":"P","name":"Dergachi","fcode":"PPL","geonameId":566455,"lat":"52.89663","adminName1":"Samara","population":0},{"countryId":"2017370","adminCode1":"67","countryName":"Russia","fclName":"city, village,...","countryCode":"RU","lng":"48.78333","fcodeName":"populated place","toponymName":"Novyye Dergachi","fcl":"P","name":"Novyye Dergachi","fcode":"PPL","geonameId":517153,"lat":"51.23333","adminName1":"Saratov","population":0},{"countryId":"690791","adminCode1":"07","countryName":"Ukraine","fclName":"city, village,...","countryCode":"UA","lng":"35.4808","fcodeName":"abandoned populated place","toponymName":"Khutor Dergachi","fcl":"P","name":"Khutor Dergachi","fcode":"PPLQ","geonameId":710099,"lat":"49.96385","adminName1":"Kharkiv","population":0},{"countryId":"690791","adminCode1":"18","countryName":"Ukraine","fclName":"city, village,...","countryCode":"UA","lng":"34.51667","fcodeName":"populated place","toponymName":"Dergachi","fcl":"P","name":"Dergachi","fcode":"PPL","geonameId":710095,"lat":"49.4","adminName1":"Poltava","population":0},{"countryId":"690791","adminCode1":"07","countryName":"Ukraine","fclName":"city, village,...","countryCode":"UA","lng":"36.12112","fcodeName":"seat of a second-order administrative division","toponymName":"Derhachi","fcl":"P","name":"Derhachi","fcode":"PPLA2","geonameId":710098,"lat":"50.10659","adminName1":"Kharkiv","population":19322},{"countryId":"690791","adminCode1":"07","countryName":"Ukraine","fclName":"spot, building, farm","countryCode":"UA","lng":"36.13494","fcodeName":"railroad station","toponymName":"Derhachi","fcl":"S","name":"Derhachi","fcode":"RSTN","geonameId":6724065,"lat":"50.10006","adminName1":"Kharkiv","population":0},{"countryId":"2464461","adminCode1":"15","countryName":"Tunisia","fclName":"spot, building, farm","countryCode":"TN","lng":"10.46667","fcodeName":"tomb(s)","toponymName":"Sīdī ad Dergachī","fcl":"S","name":"Sīdī ad Dergachī","fcode":"TMB","geonameId":2466678,"lat":"35.26667","adminName1":"Al Mahdīyah","population":0},{"countryId":"690791","adminCode1":"07","countryName":"Ukraine","fclName":"spot, building, farm","countryCode":"UA","lng":"36.12826","fcodeName":"railroad stop","toponymName":"Ostanovochnyy Punkt Novyye Dergachi","fcl":"S","name":"Ostanovochnyy Punkt Novyye Dergachi","fcode":"RSTP","geonameId":6724068,"lat":"50.1187","adminName1":"Kharkiv","population":0},{"countryId":"690791","adminCode1":"11","countryName":"Ukraine","fclName":"spot, building, farm","countryCode":"UA","lng":"33.56298","fcodeName":"tower","toponymName":"Dergachi Mediumwave Transmitter","fcl":"S","name":"Dergachi Mediumwave Transmitter","fcode":"TOWR","geonameId":7648869,"lat":"44.55174","adminName1":"Crimea","population":0}]}