{"totalResultsCount":12,"geonames":[{"adminCode1":"33","lng":"50.22457","geonameId":566454,"toponymName":"Dergachi","countryId":"2017370","fcl":"P","population":0,"countryCode":"RU","name":"Dergachi","fclName":"city, village,...","countryName":"Russia","fcodeName":"populated place","adminName1":"Kirov","lat":"57.07978","fcode":"PPL"},{"adminCode1":"67","lng":"48.7659","geonameId":566456,"toponymName":"Dergachi","countryId":"2017370","fcl":"P","population":9570,"countryCode":"RU","name":"Dergachi","fclName":"city, village,...","countryName":"Russia","fcodeName":"populated place","adminName1":"Saratov","lat":"51.2328","fcode":"PPL"},{"adminCode1":"77","lng":"31.16977","geonameId":7427597,"toponymName":"Dergachi","countryId":"2017370","fcl":"P","population":0,"countryCode":"RU","name":"Dergachi","fclName":"city, village,...","countryName":"Russia","fcodeName":"populated place","adminName1":"Tverskaya","lat":"56.68311","fcode":"PPL"},{"adminCode1":"65","lng":"50.03687","geonameId":566455,"toponymName":"Dergachi","countryId":"2017370","fcl":"P","population":0,"countryCode":"RU","name":"Dergachi","fclName":"city, village,...","countryName":"Russia","fcodeName":"populated place","adminName1":"Samara","lat":"52.89663","fcode":"PPL"},{"adminCode1":"67","lng":"48.78333","geonameId":517153,"toponymName":"Novyye Dergachi","countryId":"2017370","fcl":"P","population":0,"countryCode":"RU","name":"Novyye Dergachi","fclName":"city, village,...","countryName":"Russia","fcodeName":"populated place","adminName1":"Saratov","lat":"51.23333","fcode":"PPL"},{"adminCode1":"07","lng":"35.4808","geonameId":710099,"toponymName":"Khutor Dergachi","countryId":"690791","fcl":"P","population":0,"countryCode":"UA","name":"Khutor Dergachi","fclName":"city, village,...","countryName":"Ukraine","fcodeName":"abandoned populated place","adminName1":"Kharkiv","lat":"49.96385","fcode":"PPLQ"},{"adminCode1":"18","lng":"34.51667","geonameId":710095,"toponymName":"Dergachi","countryId":"690791","fcl":"P","population":0,"countryCode":"UA","name":"Dergachi","fclName":"city, village,...","countryName":"Ukraine","fcodeName":"populated place","adminName1":"Poltava","lat":"49.4","fcode":"PPL"},{"adminCode1":"07","lng":"36.12112","geonameId":710098,"toponymName":"Derhachi","countryId":"690791","fcl":"P","population":19322,"countryCode":"UA","name":"Derhachi","fclName":"city, village,...","countryName":"Ukraine","fcodeName":"seat of a second-order administrative division","adminName1":"Kharkiv","lat":"50.10659","fcode":"PPLA2"},{"adminCode1":"07","lng":"36.13494","geonameId":6724065,"toponymName":"Derhachi","countryId":"690791","fcl":"S","population":0,"countryCode":"UA","name":"Derhachi","fclName":"spot, building, farm","countryName":"Ukraine","fcodeName":"railroad station","adminName1":"Kharkiv","lat":"50.10006","fcode":"RSTN"},{"adminCode1":"15","lng":"10.46667","geonameId":2466678,"toponymName":"Sīdī ad Dergachī","countryId":"2464461","fcl":"S","population":0,"countryCode":"TN","name":"Sīdī ad Dergachī","fclName":"spot, building, farm","countryName":"Tunisia","fcodeName":"tomb(s)","adminName1":"Al Mahdīyah","lat":"35.26667","fcode":"TMB"},{"adminCode1":"07","lng":"36.12826","geonameId":6724068,"toponymName":"Ostanovochnyy Punkt Novyye Dergachi","countryId":"690791","fcl":"S","population":0,"countryCode":"UA","name":"Ostanovochnyy Punkt Novyye Dergachi","fclName":"spot, building, farm","countryName":"Ukraine","fcodeName":"railroad stop","adminName1":"Kharkiv","lat":"50.1187","fcode":"RSTP"},{"adminCode1":"11","lng":"33.56298","geonameId":7648869,"toponymName":"Dergachi Mediumwave Transmitter","countryId":"690791","fcl":"S","population":0,"countryCode":"UA","name":"Dergachi Mediumwave Transmitter","fclName":"spot, building, farm","countryName":"Ukraine","fcodeName":"tower","adminName1":"Crimea","lat":"44.55174","fcode":"TOWR"}]}