{"totalResultsCount":6,"geonames":[{"countryId":"2017370","adminCode1":"57","countryName":"Russia","fclName":"city, village,...","countryCode":"RU","lng":"43.31667","fcodeName":"populated place","toponymName":"Dubrovki","fcl":"P","name":"Dubrovki","fcode":"PPL","geonameId":564409,"lat":"53.82701","adminName1":"Penza","population":600},{"countryId":"2017370","adminCode1":"57","countryName":"Russia","fclName":"city, village,...","countryCode":"RU","lng":"45.84518","fcodeName":"populated place","toponymName":"Dubrovki","fcl":"P","name":"Dubrovki","fcode":"PPL","geonameId":520749,"lat":"52.95038","adminName1":"Penza","population":0},{"countryId":"2017370","adminCode1":"46","countryName":"Russia","fclName":"city, village,...","countryCode":"RU","lng":"43.54228","fcodeName":"populated place","toponymName":"Slobodskiye Dubrovki","fcl":"P","name":"Slobodskiye Dubrovki","fcode":"PPL","geonameId":491885,"lat":"54.39578","adminName1":"Mordoviya","population":0},{"countryId":"2017370","adminCode1":"46","countryName":"Russia","fclName":"city, village,...","countryCode":"RU","lng":"45.91591","fcodeName":"populated place","toponymName":"Russkiye Dubrovki","fcl":"P","name":"Russkiye Dubrovki","fcode":"PPL","geonameId":500417,"lat":"54.51921","adminName1":"Mordoviya","population":0},{"countryId":"2017370","adminCode1":"46","countryName":"Russia","fclName":"city, village,...","countryCode":"RU","lng":"46.29418","fcodeName":"populated place","toponymName":"Mordovskiye Dubrovki","fcl":"P","name":"Mordovskiye Dubrovki","fcode":"PPL","geonameId":525337,"lat":"54.59032","adminName1":"Mordoviya","population":0},{"countryId":"2017370","adminCode1":"46","countryName":"Russia","fclName":"city, village,...","countryCode":"RU","lng":"43.38802","fcodeName":"populated place","toponymName":"Bazarnaya Dubrovka","fcl":"P","name":"Bazarnaya Dubrovka","fcode":"PPL","geonameId":578468,"lat":"54.2619","adminName1":"Mordoviya","population":0}]}