{"totalResultsCount":8,"geonames":[{"adminCode1":"U","lng":"-8.03333","geonameId":2964447,"toponymName":"Lough Eske","countryId":"2963597","fcl":"H","population":0,"countryCode":"IE","name":"Lough Eske","fclName":"stream, lake, ...","countryName":"Ireland","fcodeName":"lake","adminName1":"Ulster","lat":"54.7","fcode":"LK"},{"adminCode1":"58","lng":"37.87043","geonameId":316706,"toponymName":"Dikmeçay","countryId":"298795","fcl":"P","population":0,"countryCode":"TR","name":"Dikmeçay","fclName":"city, village,...","countryName":"Turkey","fcodeName":"populated place","adminName1":"Sivas","lat":"39.40461","fcode":"PPL"},{"adminCode1":"U","lng":"-8.11667","geonameId":2964389,"toponymName":"River Eske","countryId":"2963597","fcl":"H","population":0,"countryCode":"IE","name":"River Eske","fclName":"stream, lake, ...","countryName":"Ireland","fcodeName":"stream","adminName1":"Ulster","lat":"54.65","fcode":"STM"},{"adminCode1":"07","lng":"76.85","geonameId":1527911,"toponymName":"Gora Kizyl-Eske","countryId":"1527747","fcl":"T","population":0,"countryCode":"KG","name":"Gora Kizyl-Eske","fclName":"mountain,hill,rock,... ","countryName":"Kyrgyzstan","fcodeName":"mountain","adminName1":"Ysyk-Köl","lat":"42.18333","fcode":"MT"},{"adminCode1":"U","lng":"-8.06778","geonameId":2962809,"toponymName":"Lough Eske Castle","countryId":"2963597","fcl":"S","population":0,"countryCode":"IE","name":"Lough Eske Castle","fclName":"spot, building, farm","countryName":"Ireland","fcodeName":"estate(s)","adminName1":"Ulster","lat":"54.68611","fcode":"EST"},{"adminCode1":"21","lng":"10.43197","geonameId":2622441,"toponymName":"Eske","countryId":"2623032","fcl":"S","population":0,"countryCode":"DK","name":"Eske","fclName":"spot, building, farm","countryName":"Denmark","fcodeName":"farms","adminName1":"South Denmark","lat":"54.82804","fcode":"FRMS"},{"adminCode1":"U","lng":"-8.01667","geonameId":2962808,"toponymName":"Lough Eske Station","countryId":"2963597","fcl":"S","population":0,"countryCode":"IE","name":"Lough Eske Station","fclName":"spot, building, farm","countryName":"Ireland","fcodeName":"railroad station","adminName1":"Ulster","lat":"54.68333","fcode":"RSTN"},{"adminCode1":"NV","lng":"-119.6549","geonameId":5499134,"toponymName":"Alex Eske Mine","countryId":"6252001","fcl":"S","population":0,"countryCode":"US","name":"Alex Eske Mine","fclName":"spot, building, farm","countryName":"United States","fcodeName":"mine(s)","adminName1":"Nevada","lat":"39.09241","fcode":"MN"}]}