{"totalResultsCount":9,"geonames":[{"countryId":"2963597","adminCode1":"U","countryName":"Ireland","fclName":"stream, lake, ...","countryCode":"IE","lng":"-8.03333","fcodeName":"lake","toponymName":"Lough Eske","fcl":"H","name":"Lough Eske","fcode":"LK","geonameId":2964447,"lat":"54.7","adminName1":"Ulster","population":0},{"countryId":"298795","adminCode1":"58","countryName":"Turkey","fclName":"city, village,...","countryCode":"TR","lng":"37.87043","fcodeName":"populated place","toponymName":"Dikmeçay","fcl":"P","name":"Dikmeçay","fcode":"PPL","geonameId":316706,"lat":"39.40461","adminName1":"Sivas","population":0},{"countryId":"2963597","adminCode1":"U","countryName":"Ireland","fclName":"stream, lake, ...","countryCode":"IE","lng":"-8.11667","fcodeName":"stream","toponymName":"River Eske","fcl":"H","name":"River Eske","fcode":"STM","geonameId":2964389,"lat":"54.65","adminName1":"Ulster","population":0},{"countryId":"1527747","adminCode1":"07","countryName":"Kyrgyzstan","fclName":"mountain,hill,rock,... ","countryCode":"KG","lng":"76.85","fcodeName":"mountain","toponymName":"Gora Kizyl-Eske","fcl":"T","name":"Gora Kizyl-Eske","fcode":"MT","geonameId":1527911,"lat":"42.18333","adminName1":"Ysyk-Köl","population":0},{"countryId":"2963597","adminCode1":"U","countryName":"Ireland","fclName":"spot, building, farm","countryCode":"IE","lng":"-8.06778","fcodeName":"estate(s)","toponymName":"Lough Eske Castle","fcl":"S","name":"Lough Eske Castle","fcode":"EST","geonameId":2962809,"lat":"54.68611","adminName1":"Ulster","population":0},{"countryId":"2623032","adminCode1":"21","countryName":"Denmark","fclName":"spot, building, farm","countryCode":"DK","lng":"10.43197","fcodeName":"farms","toponymName":"Eske","fcl":"S","name":"Eske","fcode":"FRMS","geonameId":2622441,"lat":"54.82804","adminName1":"South Denmark","population":0},{"countryId":"6252001","adminCode1":"NV","countryName":"United States","fclName":"spot, building, farm","countryCode":"US","lng":"-119.6549","fcodeName":"mine(s)","toponymName":"Alex Eske Mine","fcl":"S","name":"Alex Eske Mine","fcode":"MN","geonameId":5499134,"lat":"39.09241","adminName1":"Nevada","population":0},{"countryId":"2963597","adminCode1":"U","countryName":"Ireland","fclName":"spot, building, farm","countryCode":"IE","lng":"-8.01667","fcodeName":"railroad station","toponymName":"Lough Eske Station","fcl":"S","name":"Lough Eske Station","fcode":"RSTN","geonameId":2962808,"lat":"54.68333","adminName1":"Ulster","population":0},{"countryId":"2963597","adminCode1":"U","countryName":"Ireland","fclName":"spot, building, farm","countryCode":"IE","lng":"-8.05242","fcodeName":"hotel","toponymName":"Lough Eske Castle. A Solis Hot","fcl":"S","name":"Lough Eske Castle. A Solis Hot","fcode":"HTL","geonameId":9254166,"lat":"54.69697","adminName1":"Ulster","population":0}]}