{"totalResultsCount":5,"geonames":[{"countryId":"2017370","adminCode1":"85","countryName":"Russia","fclName":"city, village,...","countryCode":"RU","lng":"36.9342","fcodeName":"populated place","toponymName":"Zamosh’ye","fcl":"P","name":"Zamosh'ye","fcode":"PPL","geonameId":465063,"lat":"59.8134","adminName1":"Vologda","population":0},{"countryId":"2017370","adminCode1":"69","countryName":"Russia","fclName":"city, village,...","countryCode":"RU","lng":"34.1437","fcodeName":"populated place","toponymName":"Zamosh’ye","fcl":"P","name":"Zamosh'ye","fcode":"PPL","geonameId":465087,"lat":"55.54817","adminName1":"Smolensk","population":0},{"countryId":"2017370","adminCode1":"85","countryName":"Russia","fclName":"city, village,...","countryCode":"RU","lng":"39.5481","fcodeName":"populated place","toponymName":"Zamosh’ye","fcl":"P","name":"Zamosh'ye","fcode":"PPL","geonameId":465060,"lat":"60.0693","adminName1":"Vologda","population":0},{"countryId":"2017370","adminCode1":"85","countryName":"Russia","fclName":"city, village,...","countryCode":"RU","lng":"35.88333","fcodeName":"populated place","toponymName":"Bol’shoye Zamosh’ye","fcl":"P","name":"Bol’shoye Zamosh’ye","fcode":"PPL","geonameId":573147,"lat":"59.86667","adminName1":"Vologda","population":0},{"countryId":"2017370","adminCode1":"85","countryName":"Russia","fclName":"city, village,...","countryCode":"RU","lng":"36.3915","fcodeName":"populated place","toponymName":"Zamosh’ye","fcl":"P","name":"Zamosh’ye","fcode":"PPL","geonameId":8244992,"lat":"60.6373","adminName1":"Vologda","population":0}]}