{"totalResultsCount":6,"geonames":[{"adminCode1":"00","lng":"69.32435","geonameId":1523718,"toponymName":"Ivangorod","countryId":"1522867","fcl":"P","population":0,"countryCode":"KZ","name":"Ivangorod","fclName":"city, village,...","countryName":"Kazakhstan","fcodeName":"populated place","adminName1":"","lat":"53.7732","fcode":"PPL"},{"adminCode1":"42","lng":"28.21625","geonameId":555624,"toponymName":"Ivangorod","countryId":"2017370","fcl":"P","population":11074,"countryCode":"RU","name":"Ivangorod","fclName":"city, village,...","countryName":"Russia","fcodeName":"populated place","adminName1":"Leningrad","lat":"59.37155","fcode":"PPL"},{"adminCode1":"02","lng":"32.46103","geonameId":707507,"toponymName":"Ivanhorod","countryId":"690791","fcl":"P","population":0,"countryCode":"UA","name":"Ivangorod","fclName":"city, village,...","countryName":"Ukraine","fcodeName":"populated place","adminName1":"Chernihiv","lat":"51.03071","fcode":"PPL"},{"adminCode1":"08","lng":"54.85","geonameId":555625,"toponymName":"Ivangorod","countryId":"2017370","fcl":"P","population":0,"countryCode":"RU","name":"Ivangorod","fclName":"city, village,...","countryName":"Russia","fcodeName":"populated place","adminName1":"Bashkortostan","lat":"54.41667","fcode":"PPL"},{"adminCode1":"10","lng":"32.23347","geonameId":707508,"toponymName":"Ivanhorod","countryId":"690791","fcl":"P","population":0,"countryCode":"UA","name":"Ivanhorod","fclName":"city, village,...","countryName":"Ukraine","fcodeName":"populated place","adminName1":"Kirovohrad","lat":"48.90731","fcode":"PPL"},{"adminCode1":"01","lng":"29.81577","geonameId":707509,"toponymName":"Ivangorod","countryId":"690791","fcl":"P","population":0,"countryCode":"UA","name":"Ivangorod","fclName":"city, village,...","countryName":"Ukraine","fcodeName":"populated place","adminName1":"Cherkasy","lat":"48.80623","fcode":"PPL"}]}