{"totalResultsCount":6,"geonames":[{"countryId":"1522867","adminCode1":"00","countryName":"Kazakhstan","fclName":"city, village,...","countryCode":"KZ","lng":"69.32436","fcodeName":"populated place","toponymName":"Ivangorod","fcl":"P","name":"Ivangorod","fcode":"PPL","geonameId":1523718,"lat":"53.7732","adminName1":"","population":0},{"countryId":"2017370","adminCode1":"42","countryName":"Russia","fclName":"city, village,...","countryCode":"RU","lng":"28.21625","fcodeName":"populated place","toponymName":"Ivangorod","fcl":"P","name":"Ivangorod","fcode":"PPL","geonameId":555624,"lat":"59.37155","adminName1":"Leningrad","population":11074},{"countryId":"690791","adminCode1":"02","countryName":"Ukraine","fclName":"city, village,...","countryCode":"UA","lng":"32.46103","fcodeName":"populated place","toponymName":"Ivanhorod","fcl":"P","name":"Ivangorod","fcode":"PPL","geonameId":707507,"lat":"51.03071","adminName1":"Chernihiv","population":0},{"countryId":"2017370","adminCode1":"08","countryName":"Russia","fclName":"city, village,...","countryCode":"RU","lng":"54.85","fcodeName":"populated place","toponymName":"Ivangorod","fcl":"P","name":"Ivangorod","fcode":"PPL","geonameId":555625,"lat":"54.41667","adminName1":"Bashkortostan","population":0},{"countryId":"690791","adminCode1":"01","countryName":"Ukraine","fclName":"city, village,...","countryCode":"UA","lng":"29.81578","fcodeName":"populated place","toponymName":"Ivangorod","fcl":"P","name":"Ivangorod","fcode":"PPL","geonameId":707509,"lat":"48.80623","adminName1":"Cherkasy","population":0},{"countryId":"690791","adminCode1":"10","countryName":"Ukraine","fclName":"city, village,...","countryCode":"UA","lng":"32.23347","fcodeName":"populated place","toponymName":"Ivanhorod","fcl":"P","name":"Ivanhorod","fcode":"PPL","geonameId":707508,"lat":"48.90731","adminName1":"Kirovohrad","population":0}]}