{"totalResultsCount":115,"geonames":[{"countryId":"2017370","adminCode1":"21","countryName":"Russia","fclName":"city, village,...","countryCode":"RU","lng":"40.97139","fcodeName":"seat of a first-order administrative division","toponymName":"Ivanovo","fcl":"P","name":"Ivanovo","fcode":"PPLA","geonameId":555312,"lat":"56.99719","adminName1":"Ivanovo","population":420839},{"countryId":"2017370","adminCode1":"47","countryName":"Russia","fclName":"city, village,...","countryCode":"RU","lng":"36.11434","fcodeName":"populated place","toponymName":"Ivanovo","fcl":"P","name":"Ivanovo","fcode":"PPL","geonameId":555317,"lat":"55.80836","adminName1":"Moskovskaya","population":0},{"countryId":"2017370","adminCode1":"33","countryName":"Russia","fclName":"city, village,...","countryCode":"RU","lng":"47.87801","fcodeName":"populated place","toponymName":"Ivanovo","fcl":"P","name":"Ivanovo","fcode":"PPL","geonameId":555309,"lat":"57.34029","adminName1":"Kirov","population":0},{"countryId":"2017370","adminCode1":"83","countryName":"Russia","fclName":"city, village,...","countryCode":"RU","lng":"41.47882","fcodeName":"populated place","toponymName":"Ivanovo","fcl":"P","name":"Ivanovo","fcode":"PPL","geonameId":555313,"lat":"56.18329","adminName1":"Vladimir","population":0},{"countryId":"2017370","adminCode1":"78","countryName":"Russia","fclName":"city, village,...","countryCode":"RU","lng":"67.77167","fcodeName":"populated place","toponymName":"Ivanovo","fcl":"P","name":"Ivanovo","fcode":"PPL","geonameId":1505277,"lat":"56.08722","adminName1":"Tjumen","population":0},{"countryId":"2017370","adminCode1":"85","countryName":"Russia","fclName":"city, village,...","countryCode":"RU","lng":"41.297","fcodeName":"populated place","toponymName":"Ivanovo","fcl":"P","name":"Ivanovo","fcode":"PPL","geonameId":555301,"lat":"59.61012","adminName1":"Vologda","population":0},{"countryId":"2017370","adminCode1":"85","countryName":"Russia","fclName":"city, village,...","countryCode":"RU","lng":"37.43085","fcodeName":"populated place","toponymName":"Ivanovo","fcl":"P","name":"Ivanovo","fcode":"PPL","geonameId":555302,"lat":"59.50998","adminName1":"Vologda","population":0},{"countryId":"2017370","adminCode1":"52","countryName":"Russia","fclName":"city, village,...","countryCode":"RU","lng":"33.76667","fcodeName":"populated place","toponymName":"Ivanovo","fcl":"P","name":"Ivanovo","fcode":"PPL","geonameId":555303,"lat":"59.1","adminName1":"Novgorod","population":0},{"countryId":"2017370","adminCode1":"52","countryName":"Russia","fclName":"city, village,...","countryCode":"RU","lng":"33.18884","fcodeName":"populated place","toponymName":"Ivanovo","fcl":"P","name":"Ivanovo","fcode":"PPL","geonameId":555304,"lat":"58.73023","adminName1":"Novgorod","population":0},{"countryId":"2017370","adminCode1":"37","countryName":"Russia","fclName":"city, village,...","countryCode":"RU","lng":"43.85","fcodeName":"populated place","toponymName":"Ivanovo","fcl":"P","name":"Ivanovo","fcode":"PPL","geonameId":555305,"lat":"58.66667","adminName1":"Kostroma","population":0},{"countryId":"2017370","adminCode1":"80","countryName":"Russia","fclName":"city, village,...","countryCode":"RU","lng":"52.5207","fcodeName":"populated place","toponymName":"Ivanovo","fcl":"P","name":"Ivanovo","fcode":"PPL","geonameId":555308,"lat":"58.0057","adminName1":"Udmurtiya","population":0},{"countryId":"2017370","adminCode1":"88","countryName":"Russia","fclName":"city, village,...","countryCode":"RU","lng":"38.32472","fcodeName":"populated place","toponymName":"Ivanovo","fcl":"P","name":"Ivanovo","fcode":"PPL","geonameId":555310,"lat":"57.23389","adminName1":"Jaroslavl","population":0},{"countryId":"2017370","adminCode1":"60","countryName":"Russia","fclName":"city, village,...","countryCode":"RU","lng":"29.99131","fcodeName":"populated place","toponymName":"Ivanovo","fcl":"P","name":"Ivanovo","fcode":"PPL","geonameId":555314,"lat":"56.05259","adminName1":"Pskov","population":0},{"countryId":"2017370","adminCode1":"16","countryName":"Russia","fclName":"city, village,...","countryCode":"RU","lng":"47.74581","fcodeName":"populated place","toponymName":"Ivanovo","fcl":"P","name":"Ivanovo","fcode":"PPL","geonameId":555318,"lat":"55.50396","adminName1":"Chuvashia","population":0},{"countryId":"2017370","adminCode1":"76","countryName":"Russia","fclName":"city, village,...","countryCode":"RU","lng":"36.15975","fcodeName":"populated place","toponymName":"Ivanovo","fcl":"P","name":"Ivanovo","fcode":"PPL","geonameId":555319,"lat":"53.922","adminName1":"Tula","population":0},{"countryId":"2017370","adminCode1":"60","countryName":"Russia","fclName":"city, village,...","countryCode":"RU","lng":"30.2564","fcodeName":"populated place","toponymName":"Ivanovo","fcl":"P","name":"Ivanova","fcode":"PPL","geonameId":555531,"lat":"56.464","adminName1":"Pskov","population":0},{"countryId":"2017370","adminCode1":"77","countryName":"Russia","fclName":"city, village,...","countryCode":"RU","lng":"36.1043","fcodeName":"populated place","toponymName":"Ivanovo","fcl":"P","name":"Ivanovo","fcode":"PPL","geonameId":7606578,"lat":"57.8452","adminName1":"Tverskaya","population":0},{"countryId":"2017370","adminCode1":"51","countryName":"Russia","fclName":"city, village,...","countryCode":"RU","lng":"45.3365","fcodeName":"populated place","toponymName":"Ivanovo","fcl":"P","name":"Ivanovo","fcode":"PPL","geonameId":7608015,"lat":"57.7504","adminName1":"Nizjnij Novgorod","population":0},{"countryId":"2017370","adminCode1":"88","countryName":"Russia","fclName":"city, village,...","countryCode":"RU","lng":"38.1876","fcodeName":"populated place","toponymName":"Ivanovo","fcl":"P","name":"Ivanovo","fcode":"PPL","geonameId":7587569,"lat":"57.7455","adminName1":"Jaroslavl","population":0},{"countryId":"2017370","adminCode1":"60","countryName":"Russia","fclName":"city, village,...","countryCode":"RU","lng":"29.962","fcodeName":"populated place","toponymName":"Ivanovo","fcl":"P","name":"Ivanovo","fcode":"PPL","geonameId":7597476,"lat":"56.9424","adminName1":"Pskov","population":0},{"countryId":"2017370","adminCode1":"21","countryName":"Russia","fclName":"country, state, region,...","countryCode":"RU","lng":"41","fcodeName":"second-order administrative division","toponymName":"Gorod Ivanovo","fcl":"A","name":"Gorod Ivanovo","fcode":"ADM2","geonameId":825094,"lat":"57","adminName1":"Ivanovo","population":0},{"countryId":"2017370","adminCode1":"77","countryName":"Russia","fclName":"city, village,...","countryCode":"RU","lng":"37.0884","fcodeName":"populated place","toponymName":"Ivanovo","fcl":"P","name":"Ivanovo","fcode":"PPL","geonameId":555306,"lat":"58.5482","adminName1":"Tverskaya","population":0},{"countryId":"2017370","adminCode1":"06","countryName":"Russia","fclName":"city, village,...","countryCode":"RU","lng":"38.7218","fcodeName":"populated place","toponymName":"Ivanovo","fcl":"P","name":"Ivanovo","fcode":"PPL","geonameId":555294,"lat":"60.75775","adminName1":"Arkhangelskaya","population":0},{"countryId":"2017370","adminCode1":"85","countryName":"Russia","fclName":"city, village,...","countryCode":"RU","lng":"38.7595","fcodeName":"populated place","toponymName":"Ivanovo","fcl":"P","name":"Ivanovo","fcode":"PPL","geonameId":555295,"lat":"60.6527","adminName1":"Vologda","population":0},{"countryId":"2017370","adminCode1":"42","countryName":"Russia","fclName":"city, village,...","countryCode":"RU","lng":"30.18553","fcodeName":"populated place","toponymName":"Ivanovo","fcl":"P","name":"Ivanovo","fcode":"PPL","geonameId":555296,"lat":"60.53036","adminName1":"Leningrad","population":0},{"countryId":"2017370","adminCode1":"85","countryName":"Russia","fclName":"city, village,...","countryCode":"RU","lng":"36.8663","fcodeName":"populated place","toponymName":"Ivanovo","fcl":"P","name":"Ivanovo","fcode":"PPL","geonameId":555297,"lat":"60.1679","adminName1":"Vologda","population":0},{"countryId":"2017370","adminCode1":"42","countryName":"Russia","fclName":"city, village,...","countryCode":"RU","lng":"34.25","fcodeName":"populated place","toponymName":"Ivanovo","fcl":"P","name":"Ivanovo","fcode":"PPL","geonameId":555299,"lat":"59.8","adminName1":"Leningrad","population":0},{"countryId":"2017370","adminCode1":"42","countryName":"Russia","fclName":"city, village,...","countryCode":"RU","lng":"31.1","fcodeName":"populated place","toponymName":"Ivanovo","fcl":"P","name":"Ivanovo","fcode":"PPL","geonameId":555300,"lat":"59.66667","adminName1":"Leningrad","population":0},{"countryId":"2017370","adminCode1":"21","countryName":"Russia","fclName":"city, village,...","countryCode":"RU","lng":"41.68383","fcodeName":"populated place","toponymName":"Ivanovo","fcl":"P","name":"Ivanovo","fcode":"PPL","geonameId":555311,"lat":"57.20951","adminName1":"Ivanovo","population":0},{"countryId":"2017370","adminCode1":"16","countryName":"Russia","fclName":"city, village,...","countryCode":"RU","lng":"47.49187","fcodeName":"populated place","toponymName":"Ivanovo","fcl":"P","name":"Ivanovo","fcode":"PPL","geonameId":555316,"lat":"55.82843","adminName1":"Chuvashia","population":0},{"countryId":"732800","adminCode1":"43","countryName":"Bulgaria","fclName":"country, state, region,...","countryCode":"BG","lng":"25.88333","fcodeName":"third-order administrative division","toponymName":"Ivanovo","fcl":"A","name":"Ivanovo","fcode":"ADM3","geonameId":6459523,"lat":"41.85","adminName1":"Khaskovo","population":0},{"countryId":"732800","adminCode1":"54","countryName":"Bulgaria","fclName":"country, state, region,...","countryCode":"BG","lng":"26.71667","fcodeName":"third-order administrative division","toponymName":"Ivanovo","fcl":"A","name":"Ivanovo","fcode":"ADM3","geonameId":6460705,"lat":"43.1","adminName1":"Shumen","population":0},{"countryId":"2017370","adminCode1":"71","countryName":"Russia","fclName":"stream, lake, ...","countryCode":"RU","lng":"65.9774","fcodeName":"lake","toponymName":"Ozero Ivanovo","fcl":"H","name":"Ozero Ivanovo","fcode":"LK","geonameId":7607379,"lat":"57.9998","adminName1":"Sverdlovsk","population":0},{"countryId":"732800","adminCode1":"43","countryName":"Bulgaria","fclName":"city, village,...","countryCode":"BG","lng":"25.88333","fcodeName":"populated place","toponymName":"Ivanovo","fcl":"P","name":"Ivanovo","fcode":"PPL","geonameId":730854,"lat":"41.85","adminName1":"Khaskovo","population":0},{"countryId":"2017370","adminCode1":"83","countryName":"Russia","fclName":"city, village,...","countryCode":"RU","lng":"39.21129","fcodeName":"populated place","toponymName":"Ivanovo","fcl":"P","name":"Ivanovo","fcode":"PPL","geonameId":555315,"lat":"55.94852","adminName1":"Vladimir","population":0},{"countryId":"2017370","adminCode1":"43","countryName":"Russia","fclName":"city, village,...","countryCode":"RU","lng":"40.05","fcodeName":"populated place","toponymName":"Ivanovo","fcl":"P","name":"Ivanovo","fcode":"PPL","geonameId":555321,"lat":"52","adminName1":"Lipetsk","population":0},{"countryId":"2017370","adminCode1":"75","countryName":"Russia","fclName":"stream, lake, ...","countryCode":"RU","lng":"75.9428","fcodeName":"lake","toponymName":"Ozero Ivanovo","fcl":"H","name":"Ozero Ivanovo","fcode":"LK","geonameId":7575907,"lat":"58.2458","adminName1":"Tomsk","population":0},{"countryId":"732800","adminCode1":"53","countryName":"Bulgaria","fclName":"city, village,...","countryCode":"BG","lng":"25.98333","fcodeName":"populated place","toponymName":"Ivanovo","fcl":"P","name":"Ivanovo","fcode":"PPL","geonameId":730852,"lat":"43.7","adminName1":"Ruse","population":1031},{"countryId":"732800","adminCode1":"54","countryName":"Bulgaria","fclName":"city, village,...","countryCode":"BG","lng":"26.71667","fcodeName":"populated place","toponymName":"Ivanovo","fcl":"P","name":"Ivanovo","fcode":"PPL","geonameId":730853,"lat":"43.1","adminName1":"Shumen","population":0},{"countryId":"2017370","adminCode1":"60","countryName":"Russia","fclName":"city, village,...","countryCode":"RU","lng":"28.22663","fcodeName":"populated place","toponymName":"Ivanovo","fcl":"P","name":"Ivanovo","fcode":"PPL","geonameId":7094089,"lat":"57.17469","adminName1":"Pskov","population":0},{"countryId":"2017370","adminCode1":"60","countryName":"Russia","fclName":"city, village,...","countryCode":"RU","lng":"28.86325","fcodeName":"populated place","toponymName":"Ivanovo","fcl":"P","name":"Ivanovo","fcode":"PPL","geonameId":7080016,"lat":"56.93512","adminName1":"Pskov","population":0},{"countryId":"630336","adminCode1":"07","countryName":"Belarus","fclName":"city, village,...","countryCode":"BY","lng":"27.844","fcodeName":"populated place","toponymName":"Ivanovo","fcl":"P","name":"Ivanovo","fcode":"PPL","geonameId":8207938,"lat":"55.4576","adminName1":"Vitsyebskaya Voblastsʼ","population":0},{"countryId":"630336","adminCode1":"07","countryName":"Belarus","fclName":"city, village,...","countryCode":"BY","lng":"27.9392","fcodeName":"populated place","toponymName":"Ivanovo","fcl":"P","name":"Ivanovo","fcode":"PPL","geonameId":8207984,"lat":"55.3635","adminName1":"Vitsyebskaya Voblastsʼ","population":0},{"countryId":"630336","adminCode1":"05","countryName":"Belarus","fclName":"city, village,...","countryCode":"BY","lng":"26.6995","fcodeName":"populated place","toponymName":"Ivanovo","fcl":"P","name":"Ivanovo","fcode":"PPL","geonameId":8047154,"lat":"53.1228","adminName1":"Minskaja Voblasts’","population":0},{"countryId":"2017370","adminCode1":"49","countryName":"Russia","fclName":"stream, lake, ...","countryCode":"RU","lng":"31.71927","fcodeName":"lake","toponymName":"Ozero Nizhneye Ivanovo","fcl":"H","name":"Ozero Nizhneye Ivanovo","fcode":"LK","geonameId":520965,"lat":"66.89492","adminName1":"Murmansk","population":0},{"countryId":"732800","adminCode1":"53","countryName":"Bulgaria","fclName":"country, state, region,...","countryCode":"BG","lng":"25.98333","fcodeName":"second-order administrative division","toponymName":"Obshtina Ivanovo","fcl":"A","name":"Obshtina Ivanovo","fcode":"ADM2","geonameId":730851,"lat":"43.7","adminName1":"Ruse","population":0},{"countryId":"2017370","adminCode1":"60","countryName":"Russia","fclName":"city, village,...","countryCode":"RU","lng":"27.88179","fcodeName":"populated place","toponymName":"Ivanovo-Boloto","fcl":"P","name":"Ivanovo-Boloto","fcode":"PPL","geonameId":555290,"lat":"57.85073","adminName1":"Pskov","population":0},{"countryId":"2017370","adminCode1":"21","countryName":"Russia","fclName":"country, state, region,...","countryCode":"RU","lng":"41.75","fcodeName":"first-order administrative division","toponymName":"Ivanovskaya Oblast’","fcl":"A","name":"Ivanovskaya Oblast’","fcode":"ADM1","geonameId":555235,"lat":"57","adminName1":"Ivanovo","population":0},{"countryId":"2017370","adminCode1":"80","countryName":"Russia","fclName":"city, village,...","countryCode":"RU","lng":"52.63611","fcodeName":"abandoned populated place","toponymName":"Ivanovo","fcl":"P","name":"Ivanovo","fcode":"PPLQ","geonameId":555271,"lat":"56.29384","adminName1":"Udmurtiya","population":0},{"countryId":"2017370","adminCode1":"16","countryName":"Russia","fclName":"city, village,...","countryCode":"RU","lng":"47.52768","fcodeName":"section of populated place","toponymName":"Ivanovo","fcl":"P","name":"Ivanovo","fcode":"PPLX","geonameId":6198491,"lat":"56.12205","adminName1":"Chuvashia","population":0},{"countryId":"732800","adminCode1":"38","countryName":"Bulgaria","fclName":"city, village,...","countryCode":"BG","lng":"23.06833","fcodeName":"populated place","toponymName":"Ivanovo","fcl":"P","name":"Ivanovo","fcode":"PPL","geonameId":730855,"lat":"41.53403","adminName1":"Blagoevgrad","population":0},{"countryId":"2017370","adminCode1":"60","countryName":"Russia","fclName":"city, village,...","countryCode":"RU","lng":"28.0545","fcodeName":"populated place","toponymName":"Ivanovo","fcl":"P","name":"Ivanovo","fcode":"PPL","geonameId":7093570,"lat":"57.552","adminName1":"Pskov","population":0},{"countryId":"2017370","adminCode1":"88","countryName":"Russia","fclName":"city, village,...","countryCode":"RU","lng":"39.02329","fcodeName":"populated place","toponymName":"Ivanovo","fcl":"P","name":"Ivanovo","fcode":"PPL","geonameId":7077897,"lat":"56.98992","adminName1":"Jaroslavl","population":0},{"countryId":"630336","adminCode1":"06","countryName":"Belarus","fclName":"city, village,...","countryCode":"BY","lng":"31.0213","fcodeName":"populated place","toponymName":"Ivanovo","fcl":"P","name":"Ivanovo","fcode":"PPL","geonameId":8281977,"lat":"54.2452","adminName1":"Mahilyowskaya Voblastsʼ","population":0},{"countryId":"630336","adminCode1":"07","countryName":"Belarus","fclName":"city, village,...","countryCode":"BY","lng":"29.9138","fcodeName":"populated place","toponymName":"Ivanovo","fcl":"P","name":"Ivanovo","fcode":"PPL","geonameId":8216454,"lat":"55.3611","adminName1":"Vitsyebskaya Voblastsʼ","population":0},{"countryId":"630336","adminCode1":"07","countryName":"Belarus","fclName":"city, village,...","countryCode":"BY","lng":"27.4919","fcodeName":"populated place","toponymName":"Ivanovo","fcl":"P","name":"Ivanovo","fcode":"PPL","geonameId":8221899,"lat":"54.851","adminName1":"Vitsyebskaya Voblastsʼ","population":0},{"countryId":"2017370","adminCode1":"42","countryName":"Russia","fclName":"city, village,...","countryCode":"RU","lng":"34.77278","fcodeName":"abandoned populated place","toponymName":"Ivanovo","fcl":"P","name":"Ivanovo","fcode":"PPLQ","geonameId":555298,"lat":"59.86694","adminName1":"Leningrad","population":0},{"countryId":"2017370","adminCode1":"60","countryName":"Russia","fclName":"city, village,...","countryCode":"RU","lng":"28.6185","fcodeName":"abandoned populated place","toponymName":"Ivanovo","fcl":"P","name":"Ivanovo","fcode":"PPLQ","geonameId":7610926,"lat":"58.0541","adminName1":"Pskov","population":0},{"countryId":"2017370","adminCode1":"33","countryName":"Russia","fclName":"city, village,...","countryCode":"RU","lng":"47.1502","fcodeName":"abandoned populated place","toponymName":"Ivanovo","fcl":"P","name":"Ivanovo","fcode":"PPLQ","geonameId":7513258,"lat":"60.6143","adminName1":"Kirov","population":0},{"countryId":"2017370","adminCode1":"52","countryName":"Russia","fclName":"city, village,...","countryCode":"RU","lng":"35.5917","fcodeName":"populated place","toponymName":"Zvanovo","fcl":"P","name":"Zvanovo","fcode":"PPL","geonameId":555307,"lat":"58.50185","adminName1":"Novgorod","population":0},{"countryId":"2017370","adminCode1":"90","countryName":"Russia","fclName":"city, village,...","countryCode":"RU","lng":"56.2787","fcodeName":"abandoned populated place","toponymName":"Ivanovo","fcl":"P","name":"Ivanovo","fcode":"PPLQ","geonameId":8246313,"lat":"59.9322","adminName1":"Perm","population":0},{"countryId":"2017370","adminCode1":"45","countryName":"Russia","fclName":"city, village,...","countryCode":"RU","lng":"46.35935","fcodeName":"populated place","toponymName":"Krasnoye Ivanovo","fcl":"P","name":"Krasnoye Ivanovo","fcode":"PPL","geonameId":542032,"lat":"56.50222","adminName1":"Mariy-El","population":0},{"countryId":"2017370","adminCode1":"61","countryName":"Russia","fclName":"city, village,...","countryCode":"RU","lng":"39.91333","fcodeName":"populated place","toponymName":"Ivanovo-Shamshevo","fcl":"P","name":"Ivano-Shamshevo","fcode":"PPL","geonameId":555538,"lat":"46.875","adminName1":"Rostov","population":0},{"countryId":"2017370","adminCode1":"54","countryName":"Russia","fclName":"city, village,...","countryCode":"RU","lng":"72.47852","fcodeName":"populated place","toponymName":"Ivanovo-Sergiyevka","fcl":"P","name":"Ivano-Sergeyevka","fcode":"PPL","geonameId":1505341,"lat":"56.14842","adminName1":"Omsk","population":0},{"countryId":"2017370","adminCode1":"45","countryName":"Russia","fclName":"city, village,...","countryCode":"RU","lng":"48.63806","fcodeName":"populated place","toponymName":"Maloye Ivanovo","fcl":"P","name":"Maloye Ivanovo","fcode":"PPL","geonameId":529940,"lat":"56.07","adminName1":"Mariy-El","population":0},{"countryId":"2017370","adminCode1":"61","countryName":"Russia","fclName":"city, village,...","countryCode":"RU","lng":"38.9859","fcodeName":"populated place","toponymName":"Ivanovo-Yasinovka","fcl":"P","name":"Ivanovo-Yasinovka","fcode":"PPL","geonameId":517673,"lat":"47.70861","adminName1":"Rostov","population":0},{"countryId":"2017370","adminCode1":"80","countryName":"Russia","fclName":"city, village,...","countryCode":"RU","lng":"52.7855","fcodeName":"populated place","toponymName":"Ivanovo-Samarskoye","fcl":"P","name":"Ivanovo-Samarskoye","fcode":"PPL","geonameId":555288,"lat":"56.69792","adminName1":"Udmurtiya","population":0},{"countryId":"2017370","adminCode1":"69","countryName":"Russia","fclName":"city, village,...","countryCode":"RU","lng":"33.40995","fcodeName":"populated place","toponymName":"Ivanovo-Gudino","fcl":"P","name":"Ivanovo-Gudino","fcode":"PPL","geonameId":555289,"lat":"54.6432","adminName1":"Smolensk","population":0},{"countryId":"2017370","adminCode1":"67","countryName":"Russia","fclName":"city, village,...","countryCode":"RU","lng":"45.21071","fcodeName":"populated place","toponymName":"Ivanovo-Yazykovka","fcl":"P","name":"Ivanovo-Yazykovka","fcode":"PPL","geonameId":6315194,"lat":"51.65636","adminName1":"Saratov","population":0},{"countryId":"2017370","adminCode1":"85","countryName":"Russia","fclName":"parks,area, ...","countryCode":"RU","lng":"35.7023","fcodeName":"area","toponymName":"Urochishche Ivanovo","fcl":"L","name":"Urochishche Ivanovo","fcode":"AREA","geonameId":7494049,"lat":"59.6941","adminName1":"Vologda","population":0},{"countryId":"2017370","adminCode1":"49","countryName":"Russia","fclName":"stream, lake, ...","countryCode":"RU","lng":"32.31831","fcodeName":"lake","toponymName":"Ozero Ivanovo","fcl":"H","name":"Ozero Ivanovo","fcode":"LK","geonameId":871359,"lat":"66.42095","adminName1":"Murmansk","population":0},{"countryId":"630336","adminCode1":"01","countryName":"Belarus","fclName":"city, village,...","countryCode":"BY","lng":"25.5365","fcodeName":"seat of a second-order administrative division","toponymName":"Ivanava","fcl":"P","name":"Ivanava","fcode":"PPLA2","geonameId":627811,"lat":"52.1451","adminName1":"Brestskaya Voblastsʼ","population":13614},{"countryId":"2017370","adminCode1":"49","countryName":"Russia","fclName":"stream, lake, ...","countryCode":"RU","lng":"31.63788","fcodeName":"lake","toponymName":"Ozero Verkhneye Ivanovo","fcl":"H","name":"Ozero Verkhneye Ivanovo","fcode":"LK","geonameId":475380,"lat":"66.90045","adminName1":"Murmansk","population":0},{"countryId":"2017370","adminCode1":"06","countryName":"Russia","fclName":"stream, lake, ...","countryCode":"RU","lng":"39.23802","fcodeName":"lake","toponymName":"Ozero Ivanovo","fcl":"H","name":"Ozero Ivanovo","fcode":"LK","geonameId":555292,"lat":"61.42175","adminName1":"Arkhangelskaya","population":0},{"countryId":"2017370","adminCode1":"88","countryName":"Russia","fclName":"stream, lake, ...","countryCode":"RU","lng":"40.28333","fcodeName":"lake","toponymName":"Ozero Ivanovo","fcl":"H","name":"Ozero Ivanovo","fcode":"LK","geonameId":555293,"lat":"57.7","adminName1":"Jaroslavl","population":0},{"countryId":"2017370","adminCode1":"51","countryName":"Russia","fclName":"city, village,...","countryCode":"RU","lng":"43.41589","fcodeName":"populated place","toponymName":"Ivanovo","fcl":"P","name":"Ivanovo","fcode":"PPL","geonameId":6608392,"lat":"56.69119","adminName1":"Nizjnij Novgorod","population":0},{"countryId":"2017370","adminCode1":"21","countryName":"Russia","fclName":"city, village,...","countryCode":"RU","lng":"42.72996","fcodeName":"populated place","toponymName":"Ivanovo","fcl":"P","name":"Ivanovo","fcode":"PPL","geonameId":6610257,"lat":"56.57914","adminName1":"Ivanovo","population":0},{"countryId":"2017370","adminCode1":"28","countryName":"Russia","fclName":"stream, lake, ...","countryCode":"RU","lng":"32.95143","fcodeName":"lake","toponymName":"Ozero Ivanovo","fcl":"H","name":"Ozero Ivanovo","fcode":"LK","geonameId":8469044,"lat":"65.39344","adminName1":"Kareliya","population":0},{"countryId":"2017370","adminCode1":"21","countryName":"Russia","fclName":"spot, building, farm","countryCode":"RU","lng":"40.9408","fcodeName":"airport","toponymName":"Ivanovo South Airport","fcl":"S","name":"Ivanovo South Airport","fcode":"AIRP","geonameId":7730204,"lat":"56.9394","adminName1":"Ivanovo","population":0},{"countryId":"2017370","adminCode1":"86","countryName":"Russia","fclName":"city, village,...","countryCode":"RU","lng":"41.14861","fcodeName":"populated place","toponymName":"Ivanovo-Aleksandrovka","fcl":"P","name":"Ivanovo-Aleksandrovka","fcode":"PPL","geonameId":555291,"lat":"51.3375","adminName1":"Voronezj","population":0},{"countryId":"2017370","adminCode1":"28","countryName":"Russia","fclName":"stream, lake, ...","countryCode":"RU","lng":"31.68333","fcodeName":"lake","toponymName":"Ozero Ivanovo-Yarvi","fcl":"H","name":"Ozero Ivanovo-Yarvi","fcode":"LK","geonameId":555286,"lat":"65.38333","adminName1":"Kareliya","population":0},{"countryId":"3202326","adminCode1":"01","countryName":"Croatia","fclName":"city, village,...","countryCode":"HR","lng":"17.25222","fcodeName":"populated place","toponymName":"Ivanovo Selo","fcl":"P","name":"Ivanovo Selo","fcode":"PPL","geonameId":3199043,"lat":"45.67222","adminName1":"Bjelovarsko-Bilogorska","population":0},{"countryId":"3202326","adminCode1":"01","countryName":"Croatia","fclName":"city, village,...","countryCode":"HR","lng":"17.14","fcodeName":"populated place","toponymName":"Ivanovo Polje","fcl":"P","name":"Ivanovo Polje","fcode":"PPL","geonameId":3216049,"lat":"45.58833","adminName1":"Bjelovarsko-Bilogorska","population":0},{"countryId":"1527747","adminCode1":"06","countryName":"Kyrgyzstan","fclName":"city, village,...","countryCode":"KG","lng":"72.20921","fcodeName":"seat of a second-order administrative division","toponymName":"Ivanovo-Alekseyevka","fcl":"P","name":"Ivanovo-Alekseyevka","fcode":"PPLA2","geonameId":1528253,"lat":"42.54688","adminName1":"Talas","population":0},{"countryId":"6290252","adminCode1":"00","countryName":"Serbia","fclName":"city, village,...","countryCode":"RS","lng":"20.69778","fcodeName":"populated place","toponymName":"Ivanovo","fcl":"P","name":"Ivanovo","fcode":"PPL","geonameId":789982,"lat":"44.73949","adminName1":"","population":0},{"countryId":"690791","adminCode1":"18","countryName":"Ukraine","fclName":"city, village,...","countryCode":"UA","lng":"33.55374","fcodeName":"populated place","toponymName":"Ivanovo Selishche","fcl":"P","name":"Ivanovo Selishche","fcode":"PPL","geonameId":707359,"lat":"49.51793","adminName1":"Poltava","population":0},{"countryId":"2017370","adminCode1":"62","countryName":"Russia","fclName":"city, village,...","countryCode":"RU","lng":"39.8516","fcodeName":"populated place","toponymName":"Ivanovskoye","fcl":"P","name":"Ivanovskoye","fcode":"PPL","geonameId":555190,"lat":"54.2389","adminName1":"Rjazan","population":0},{"countryId":"2017370","adminCode1":"10","countryName":"Russia","fclName":"city, village,...","countryCode":"RU","lng":"34.66004","fcodeName":"populated place","toponymName":"Podivanovskiy","fcl":"P","name":"Podivanovskiy","fcode":"PPL","geonameId":555320,"lat":"52.4873","adminName1":"Brjansk","population":0},{"countryId":"2017370","adminCode1":"69","countryName":"Russia","fclName":"city, village,...","countryCode":"RU","lng":"31.40006","fcodeName":"populated place","toponymName":"Ivanova","fcl":"P","name":"Ivanova","fcode":"PPL","geonameId":555532,"lat":"55.4724","adminName1":"Smolensk","population":0},{"countryId":"732800","adminCode1":"53","countryName":"Bulgaria","fclName":"city, village,...","countryCode":"BG","lng":"25.98333","fcodeName":"section of populated place","toponymName":"Gara Ivanovo","fcl":"P","name":"Gara Ivanovo","fcode":"PPLX","geonameId":731521,"lat":"43.7","adminName1":"Ruse","population":0},{"countryId":"2017370","adminCode1":"25","countryName":"Russia","fclName":"spot, building, farm","countryCode":"RU","lng":"34.39936","fcodeName":"railroad station","toponymName":"Stantsiya Ivanovo-Sergiyevskiy","fcl":"S","name":"Stantsiya Ivanovo-Sergiyevskiy","fcode":"RSTN","geonameId":555287,"lat":"53.96828","adminName1":"Kaluga","population":0},{"countryId":"2017370","adminCode1":"33","countryName":"Russia","fclName":"stream, lake, ...","countryCode":"RU","lng":"48.57333","fcodeName":"marsh(es)","toponymName":"Boloto Ivanovo","fcl":"H","name":"Boloto Ivanovo","fcode":"MRSH","geonameId":6311357,"lat":"58.20361","adminName1":"Kirov","population":0},{"countryId":"2017370","adminCode1":"08","countryName":"Russia","fclName":"stream, lake, ...","countryCode":"RU","lng":"56.24629","fcodeName":"oxbow lake","toponymName":"Ozero Ivanovo","fcl":"H","name":"Ozero Ivanovo","fcode":"LKO","geonameId":7552678,"lat":"54.80375","adminName1":"Bashkortostan","population":0},{"countryId":"2017370","adminCode1":"21","countryName":"Russia","fclName":"city, village,...","countryCode":"RU","lng":"41.65695","fcodeName":"populated place","toponymName":"Ivanovo-Il’ino","fcl":"P","name":"Ivanovo-Il’ino","fcode":"PPL","geonameId":6423169,"lat":"56.75188","adminName1":"Ivanovo","population":0},{"countryId":"2017370","adminCode1":"37","countryName":"Russia","fclName":"city, village,...","countryCode":"RU","lng":"42.16811","fcodeName":"abandoned populated place","toponymName":"Ivanovo","fcl":"P","name":"Ivanovo","fcode":"PPLQ","geonameId":6423300,"lat":"57.98166","adminName1":"Kostroma","population":0},{"countryId":"2017370","adminCode1":"67","countryName":"Russia","fclName":"parks,area, ...","countryCode":"RU","lng":"46.54516","fcodeName":"area","toponymName":"Urochishche Ivanovo","fcl":"L","name":"Urochishche Ivanovo","fcode":"AREA","geonameId":6611999,"lat":"51.87869","adminName1":"Saratov","population":0},{"countryId":"6290252","adminCode1":"00","countryName":"Serbia","fclName":"mountain,hill,rock,... ","countryCode":"RS","lng":"20.69778","fcodeName":"island","toponymName":"Ivanovo Ostrvo","fcl":"T","name":"Ivanovo Ostrvo","fcode":"ISL","geonameId":837264,"lat":"44.7225","adminName1":"","population":0},{"countryId":"3277605","adminCode1":"02","countryName":"Bosnia and Herzegovina","fclName":"mountain,hill,rock,... ","countryCode":"BA","lng":"17.425","fcodeName":"mountain","toponymName":"Ivanovo Brdo","fcl":"T","name":"Ivanovo Brdo","fcode":"MT","geonameId":3234851,"lat":"44.46194","adminName1":"Republika Srpska","population":0},{"countryId":"3202326","adminCode1":"03","countryName":"Croatia","fclName":"parks,area, ...","countryCode":"HR","lng":"17.44","fcodeName":"locality","toponymName":"Ivanovo Polje","fcl":"L","name":"Ivanovo Polje","fcode":"LCTY","geonameId":3287100,"lat":"42.76389","adminName1":"Dubrovačko-Neretvanska","population":0},{"countryId":"3277605","adminCode1":"01","countryName":"Bosnia and Herzegovina","fclName":"parks,area, ...","countryCode":"BA","lng":"18.25151","fcodeName":"locality","toponymName":"Ivanovo Polje","fcl":"L","name":"Ivanovo Polje","fcode":"LCTY","geonameId":3266485,"lat":"43.6886","adminName1":"Federation of Bosnia and Herzegovina","population":0}]}