{"totalResultsCount":18,"geonames":[{"countryId":"2017370","adminCode1":"05","countryName":"Russia","fclName":"city, village,...","countryCode":"RU","lng":"131.02927","fcodeName":"populated place","toponymName":"Isa","fcl":"P","name":"Isa","fcode":"PPL","geonameId":8701851,"lat":"51.75808","adminName1":"Amur","population":0},{"countryId":"1522867","adminCode1":"00","countryName":"Kazakhstan","fclName":"city, village,...","countryCode":"KZ","lng":"48.3","fcodeName":"populated place","toponymName":"Isa","fcl":"P","name":"Isa","fcode":"PPL","geonameId":609787,"lat":"48.6","adminName1":"","population":0},{"countryId":"1522867","adminCode1":"00","countryName":"Kazakhstan","fclName":"city, village,...","countryCode":"KZ","lng":"79.26667","fcodeName":"populated place","toponymName":"Isa","fcl":"P","name":"Isa","fcode":"PPL","geonameId":1523761,"lat":"50.18333","adminName1":"","population":0},{"countryId":"1522867","adminCode1":"10","countryName":"Kazakhstan","fclName":"city, village,...","countryCode":"KZ","lng":"68.28333","fcodeName":"populated place","toponymName":"Isa-Kulokanov","fcl":"P","name":"Isa-Kulokanov","fcode":"PPL","geonameId":1523759,"lat":"43.68333","adminName1":"Ongtüstik Qazaqstan","population":0},{"countryId":"298795","adminCode1":"37","countryName":"Turkey","fclName":"city, village,...","countryCode":"TR","lng":"34.13715","fcodeName":"populated place","toponymName":"Taşçılar","fcl":"P","name":"Taşçılar","fcode":"PPL","geonameId":747316,"lat":"41.19945","adminName1":"Kastamonu","population":0},{"countryId":"298795","adminCode1":"85","countryName":"Turkey","fclName":"city, village,...","countryCode":"TR","lng":"31.50884","fcodeName":"populated place","toponymName":"İsafakılı","fcl":"P","name":"İsafakılı","fcode":"PPL","geonameId":745131,"lat":"41.13628","adminName1":"Zonguldak","population":0},{"countryId":"1873107","adminCode1":"17","countryName":"North Korea","fclName":"city, village,...","countryCode":"KP","lng":"129.3525","fcodeName":"populated place","toponymName":"Isa-dong","fcl":"P","name":"Isa-dong","fcode":"PPL","geonameId":2043691,"lat":"40.87167","adminName1":"Hamgyŏng-bukto","population":0},{"countryId":"130758","adminCode1":"01","countryName":"Iran","fclName":"city, village,...","countryCode":"IR","lng":"44.8343","fcodeName":"populated place","toponymName":"‘Īsá Kandī","fcl":"P","name":"‘Īsá Kandī","fcode":"PPL","geonameId":14019,"lat":"39.5978","adminName1":"Āz̄ārbāyjān-e Gharbī","population":0},{"countryId":"130758","adminCode1":"01","countryName":"Iran","fclName":"city, village,...","countryCode":"IR","lng":"44.5919","fcodeName":"populated place","toponymName":"‘Īsá Khān","fcl":"P","name":"‘Īsá Khān","fcode":"PPL","geonameId":14020,"lat":"39.4783","adminName1":"Āz̄ārbāyjān-e Gharbī","population":0},{"countryId":"130758","adminCode1":"01","countryName":"Iran","fclName":"city, village,...","countryCode":"IR","lng":"44.272","fcodeName":"populated place","toponymName":"‘Īsá Golīk","fcl":"P","name":"‘Īsá Golīk","fcode":"PPL","geonameId":14018,"lat":"39.064","adminName1":"Āz̄ārbāyjān-e Gharbī","population":0},{"countryId":"298795","adminCode1":"60","countryName":"Turkey","fclName":"city, village,...","countryCode":"TR","lng":"35.79332","fcodeName":"populated place","toponymName":"Küçüközlü","fcl":"P","name":"Küçüközlü","fcode":"PPL","geonameId":742343,"lat":"40.14069","adminName1":"Tokat","population":0},{"countryId":"130758","adminCode1":"32","countryName":"Iran","fclName":"city, village,...","countryCode":"IR","lng":"47.7055","fcodeName":"populated place","toponymName":"Qeshlāq-e Ḩājj ‘Īsá","fcl":"P","name":"Qeshlāq-e Ḩājj ‘Īsá","fcode":"PPL","geonameId":6731137,"lat":"39.2743","adminName1":"Ardabīl","population":0},{"countryId":"130758","adminCode1":"32","countryName":"Iran","fclName":"city, village,...","countryCode":"IR","lng":"47.7345","fcodeName":"populated place","toponymName":"Qeshlāq-e Ḩājj ‘Īsá","fcl":"P","name":"Qeshlāq-e Ḩājj ‘Īsá","fcode":"PPL","geonameId":6731138,"lat":"39.2776","adminName1":"Ardabīl","population":0},{"countryId":"298795","adminCode1":"37","countryName":"Turkey","fclName":"city, village,...","countryCode":"TR","lng":"32.90143","fcodeName":"populated place","toponymName":"İsaköy","fcl":"P","name":"İsaköy","fcode":"PPL","geonameId":745128,"lat":"41.85949","adminName1":"Kastamonu","population":0},{"countryId":"1512440","adminCode1":"08","countryName":"Uzbekistan","fclName":"city, village,...","countryCode":"UZ","lng":"65.471","fcodeName":"populated place","toponymName":"Hammaesaboy","fcl":"P","name":"Hammaesaboy","fcode":"PPL","geonameId":1217225,"lat":"39.01392","adminName1":"Qashqadaryo","population":0},{"countryId":"298795","adminCode1":"34","countryName":"Turkey","fclName":"city, village,...","countryCode":"TR","lng":"29.8241","fcodeName":"populated place","toponymName":"İsaköy","fcl":"P","name":"İsaköy","fcode":"PPL","geonameId":745129,"lat":"41.10723","adminName1":"Istanbul","population":0},{"countryId":"174982","adminCode1":"06","countryName":"Armenia","fclName":"city, village,...","countryCode":"AM","lng":"44.15511","fcodeName":"populated place","toponymName":"Meghvahovit","fcl":"P","name":"Meghvahovit","fcode":"PPL","geonameId":616423,"lat":"41.09919","adminName1":"Lorri","population":0},{"countryId":"130758","adminCode1":"32","countryName":"Iran","fclName":"city, village,...","countryCode":"IR","lng":"48.1489","fcodeName":"populated place","toponymName":"Qeshlāq-e Ḩājjī ‘Īsá","fcl":"P","name":"Qeshlāq-e Ḩājjī ‘Īsá","fcode":"PPL","geonameId":6689419,"lat":"39.4328","adminName1":"Ardabīl","population":0}]}