{"totalResultsCount":748,"geonames":[{"countryId":"290291","adminCode1":"19","countryName":"Bahrain","fclName":"city, village,...","countryCode":"BH","lng":"50.54778","fcodeName":"populated place","toponymName":"Madīnat ‘Īsá","fcl":"P","name":"Madīnat ‘Īsá","fcode":"PPL","geonameId":290187,"lat":"26.17361","adminName1":"Northern","population":38090},{"countryId":"2077456","adminCode1":"04","countryName":"Australia","fclName":"country, state, region,...","countryCode":"AU","lng":"139.01443","fcodeName":"second-order administrative division","toponymName":"Mount Isa","fcl":"A","name":"Mount Isa","fcode":"ADM2","geonameId":7839378,"lat":"-19.74831","adminName1":"Queensland","population":22779},{"countryId":"2077456","adminCode1":"04","countryName":"Australia","fclName":"city, village,...","countryCode":"AU","lng":"139.49727","fcodeName":"populated place","toponymName":"Mount Isa","fcl":"P","name":"Mount Isa","fcode":"PPL","geonameId":2065594,"lat":"-20.72523","adminName1":"Queensland","population":22785},{"countryId":"357994","adminCode1":"03","countryName":"Egypt","fclName":"city, village,...","countryCode":"EG","lng":"30.29018","fcodeName":"populated place","toponymName":"Ḩawsh ‘Īsá","fcl":"P","name":"Ḩawsh ‘Īsá","fcode":"PPL","geonameId":356000,"lat":"30.9128","adminName1":"Al Buḩayrah","population":85352},{"countryId":"2017370","adminCode1":"05","countryName":"Russia","fclName":"city, village,...","countryCode":"RU","lng":"131.02927","fcodeName":"populated place","toponymName":"Isa","fcl":"P","name":"Isa","fcode":"PPL","geonameId":8701851,"lat":"51.75808","adminName1":"Amur","population":0},{"countryId":"2328926","adminCode1":"51","countryName":"Nigeria","fclName":"country, state, region,...","countryCode":"NG","lng":"6.33803","fcodeName":"second-order administrative division","toponymName":"Isa Local Government Area","fcl":"A","name":"Isa Local Government Area","fcode":"ADM2","geonameId":8632717,"lat":"13.22201","adminName1":"Sokoto","population":0},{"countryId":"1861060","adminCode1":"47","countryName":"Japan","fclName":"city, village,...","countryCode":"JP","lng":"127.75673","fcodeName":"populated place","toponymName":"Isa","fcl":"P","name":"Isa","fcode":"PPL","geonameId":1861468,"lat":"26.28984","adminName1":"Okinawa","population":0},{"countryId":"2077456","adminCode1":"04","countryName":"Australia","fclName":"spot, building, farm","countryCode":"AU","lng":"139.48861","fcodeName":"airport","toponymName":"Mount Isa Airport","fcl":"S","name":"Mount Isa Airport","fcode":"AIRP","geonameId":6301298,"lat":"-20.66389","adminName1":"Queensland","population":0},{"countryId":"1522867","adminCode1":"00","countryName":"Kazakhstan","fclName":"city, village,...","countryCode":"KZ","lng":"48.3","fcodeName":"populated place","toponymName":"Isa","fcl":"P","name":"Isa","fcode":"PPL","geonameId":609787,"lat":"48.6","adminName1":"","population":0},{"countryId":"2440476","adminCode1":"09","countryName":"Niger","fclName":"city, village,...","countryCode":"NE","lng":"3.9063","fcodeName":"populated place","toponymName":"Isa","fcl":"P","name":"Isa","fcode":"PPL","geonameId":2443042,"lat":"14.8689","adminName1":"Tillabéri","population":0},{"countryId":"1168579","adminCode1":"02","countryName":"Pakistan","fclName":"city, village,...","countryCode":"PK","lng":"66.7","fcodeName":"populated place","toponymName":"Īsa","fcl":"P","name":"Īsa","fcode":"PPL","geonameId":1176659,"lat":"24.95","adminName1":"Balochistān","population":0},{"countryId":"99237","adminCode1":"11","countryName":"Iraq","fclName":"city, village,...","countryCode":"IQ","lng":"44.1546","fcodeName":"populated place","toponymName":"Latah ‘Īsá","fcl":"P","name":"Latah ‘Īsá","fcode":"PPL","geonameId":94008,"lat":"37.20978","adminName1":"Arbīl","population":0},{"countryId":"357994","adminCode1":"03","countryName":"Egypt","fclName":"country, state, region,...","countryCode":"EG","lng":"30.28333","fcodeName":"second-order administrative division","toponymName":"Markaz Ḩawsh ‘Īsá","fcl":"A","name":"Markaz Ḩawsh ‘Īsá","fcode":"ADM2","geonameId":355999,"lat":"30.91667","adminName1":"Al Buḩayrah","population":0},{"countryId":"298795","adminCode1":"71","countryName":"Turkey","fclName":"city, village,...","countryCode":"TR","lng":"31.77859","fcodeName":"populated place","toponymName":"İsa","fcl":"P","name":"İsa","fcode":"PPL","geonameId":311221,"lat":"37.75361","adminName1":"Konya","population":0},{"countryId":"2661886","adminCode1":"14","countryName":"Sweden","fclName":"stream, lake, ...","countryCode":"SE","lng":"20.58333","fcodeName":"lake","toponymName":"Isa Kuolpajärvi","fcl":"H","name":"Isa Kuolpajärvi","fcode":"LK","geonameId":605582,"lat":"67.01667","adminName1":"Norrbotten","population":0},{"countryId":"2245662","adminCode1":"14","countryName":"Senegal","fclName":"city, village,...","countryCode":"SN","lng":"-16.48962","fcodeName":"seat of a first-order administrative division","toponymName":"Saint-Louis","fcl":"P","name":"Saint-Louis","fcode":"PPLA","geonameId":2246452,"lat":"16.01793","adminName1":"Saint-Louis","population":176000},{"countryId":"1835841","adminCode1":"14","countryName":"South Korea","fclName":"city, village,...","countryCode":"KR","lng":"129.0069","fcodeName":"populated place","toponymName":"Isa-ri","fcl":"P","name":"Isa-ri","fcode":"PPL","geonameId":1880908,"lat":"36.4376","adminName1":"Gyeongsangbuk-do","population":0},{"countryId":"1168579","adminCode1":"04","countryName":"Pakistan","fclName":"city, village,...","countryCode":"PK","lng":"70.94923","fcodeName":"populated place","toponymName":"Karor","fcl":"P","name":"Karor","fcode":"PPL","geonameId":1174720,"lat":"31.22741","adminName1":"Punjab","population":25634},{"countryId":"1168579","adminCode1":"04","countryName":"Pakistan","fclName":"city, village,...","countryCode":"PK","lng":"71.28111","fcodeName":"populated place","toponymName":"Īsā Khel","fcl":"P","name":"Īsā Khel","fcode":"PPL","geonameId":1176647,"lat":"32.67472","adminName1":"Punjab","population":0},{"countryId":"1861060","adminCode1":"18","countryName":"Japan","fclName":"country, state, region,...","countryCode":"JP","lng":"130.60104","fcodeName":"second-order administrative division","toponymName":"Isa Shi","fcl":"A","name":"Isa Shi","fcode":"ADM2","geonameId":7383991,"lat":"32.05835","adminName1":"Kagoshima","population":0},{"countryId":"1168579","adminCode1":"03","countryName":"Pakistan","fclName":"city, village,...","countryCode":"PK","lng":"73.09808","fcodeName":"populated place","toponymName":"Īsa","fcl":"P","name":"Īsa","fcode":"PPL","geonameId":7075923,"lat":"33.87913","adminName1":"Khyber Pakhtunkhwa","population":0},{"countryId":"6252001","adminCode1":"WY","countryName":"United States","fclName":"stream, lake, ...","countryCode":"US","lng":"-110.7191","fcodeName":"lake","toponymName":"Isa Lake","fcl":"H","name":"Isa Lake","fcode":"LK","geonameId":5828501,"lat":"44.44077","adminName1":"Wyoming","population":0},{"countryId":"6251999","adminCode1":"10","countryName":"Canada","fclName":"stream, lake, ...","countryCode":"CA","lng":"-67.70639","fcodeName":"lake","toponymName":"Lac Isa","fcl":"H","name":"Lac Isa","fcode":"LK","geonameId":6025239,"lat":"50.62389","adminName1":"Quebec","population":0},{"countryId":"2328926","adminCode1":"57","countryName":"Nigeria","fclName":"city, village,...","countryCode":"NG","lng":"6.40708","fcodeName":"populated place","toponymName":"Isa","fcl":"P","name":"Isa","fcode":"PPL","geonameId":2337275,"lat":"13.20029","adminName1":"Zamfara","population":0},{"countryId":"2328926","adminCode1":"00","countryName":"Nigeria","fclName":"city, village,...","countryCode":"NG","lng":"10.05","fcodeName":"populated place","toponymName":"Isa","fcl":"P","name":"Isa","fcode":"PPL","geonameId":2337276,"lat":"7.36667","adminName1":"","population":0},{"countryId":"2328926","adminCode1":"00","countryName":"Nigeria","fclName":"city, village,...","countryCode":"NG","lng":"10.13333","fcodeName":"populated place","toponymName":"Isa","fcl":"P","name":"Isa","fcode":"PPL","geonameId":2337277,"lat":"7.31667","adminName1":"","population":0},{"countryId":"1861060","adminCode1":"45","countryName":"Japan","fclName":"city, village,...","countryCode":"JP","lng":"131.21667","fcodeName":"populated place","toponymName":"Isa","fcl":"P","name":"Isa","fcode":"PPL","geonameId":1861466,"lat":"34.16667","adminName1":"Yamaguchi","population":0},{"countryId":"1861060","adminCode1":"20","countryName":"Japan","fclName":"city, village,...","countryCode":"JP","lng":"133.01234","fcodeName":"populated place","toponymName":"Isa","fcl":"P","name":"Isa","fcode":"PPL","geonameId":1861467,"lat":"32.7258","adminName1":"Kōchi","population":0},{"countryId":"1168579","adminCode1":"03","countryName":"Pakistan","fclName":"city, village,...","countryCode":"PK","lng":"72.6343","fcodeName":"populated place","toponymName":"Īsa","fcl":"P","name":"Īsa","fcode":"PPL","geonameId":1420383,"lat":"34.00455","adminName1":"Khyber Pakhtunkhwa","population":0},{"countryId":"1168579","adminCode1":"02","countryName":"Pakistan","fclName":"stream, lake, ...","countryCode":"PK","lng":"63.7325","fcodeName":"lake","toponymName":"Īsa-i-Āb","fcl":"H","name":"Īsa-i-Āb","fcode":"LK","geonameId":1462841,"lat":"26.50139","adminName1":"Balochistān","population":0},{"countryId":"1168579","adminCode1":"04","countryName":"Pakistan","fclName":"city, village,...","countryCode":"PK","lng":"74.71866","fcodeName":"populated place","toponymName":"Īsa","fcl":"P","name":"Īsa","fcode":"PPL","geonameId":1176656,"lat":"32.28455","adminName1":"Punjab","population":0},{"countryId":"1168579","adminCode1":"04","countryName":"Pakistan","fclName":"city, village,...","countryCode":"PK","lng":"75.01667","fcodeName":"populated place","toponymName":"Isa","fcl":"P","name":"Isa","fcode":"PPL","geonameId":1176657,"lat":"32.21667","adminName1":"Punjab","population":0},{"countryId":"1168579","adminCode1":"04","countryName":"Pakistan","fclName":"city, village,...","countryCode":"PK","lng":"72.315","fcodeName":"populated place","toponymName":"Īsa","fcl":"P","name":"Īsa","fcode":"PPL","geonameId":1176658,"lat":"29.67","adminName1":"Punjab","population":0},{"countryId":"1168579","adminCode1":"03","countryName":"Pakistan","fclName":"city, village,...","countryCode":"PK","lng":"73.10794","fcodeName":"populated place","toponymName":"Isa","fcl":"P","name":"Isa","fcode":"PPL","geonameId":1389524,"lat":"34.5389","adminName1":"Khyber Pakhtunkhwa","population":0},{"countryId":"1168579","adminCode1":"02","countryName":"Pakistan","fclName":"stream, lake, ...","countryCode":"PK","lng":"65.51282","fcodeName":"lake","toponymName":"Īsa Nāwar","fcl":"H","name":"Īsa Nāwar","fcode":"LK","geonameId":1375157,"lat":"29.59235","adminName1":"Balochistān","population":0},{"countryId":"1522867","adminCode1":"00","countryName":"Kazakhstan","fclName":"city, village,...","countryCode":"KZ","lng":"79.26667","fcodeName":"populated place","toponymName":"Isa","fcl":"P","name":"Isa","fcode":"PPL","geonameId":1523761,"lat":"50.18333","adminName1":"","population":0},{"countryId":"2434508","adminCode1":"06","countryName":"Chad","fclName":"mountain,hill,rock,... ","countryCode":"TD","lng":"14.38593","fcodeName":"blowout(s)","toponymName":"Isa","fcl":"T","name":"Isa","fcode":"BLOW","geonameId":2431224,"lat":"14.85927","adminName1":"Kanem","population":0},{"countryId":"1168579","adminCode1":"02","countryName":"Pakistan","fclName":"parks,area, ...","countryCode":"PK","lng":"67.52766","fcodeName":"tribal area","toponymName":"Isā Khel","fcl":"L","name":"Isā Khel","fcode":"TRB","geonameId":6273595,"lat":"30.90744","adminName1":"Balochistān","population":0},{"countryId":"1168579","adminCode1":"05","countryName":"Pakistan","fclName":"city, village,...","countryCode":"PK","lng":"67.22942","fcodeName":"populated place","toponymName":"Hāji Īsa","fcl":"P","name":"Hāji Īsa","fcode":"PPL","geonameId":1177994,"lat":"24.88864","adminName1":"Sindh","population":0},{"countryId":"1643084","adminCode1":"17","countryName":"Indonesia","fclName":"city, village,...","countryCode":"ID","lng":"118.931","fcodeName":"populated place","toponymName":"Isa","fcl":"P","name":"Isa","fcode":"PPL","geonameId":7384231,"lat":"-8.3997","adminName1":"West Nusa Tenggara","population":0},{"countryId":"1643084","adminCode1":"18","countryName":"Indonesia","fclName":"city, village,...","countryCode":"ID","lng":"121.1942","fcodeName":"populated place","toponymName":"Isa","fcl":"P","name":"Isa","fcode":"PPL","geonameId":7415175,"lat":"-8.6806","adminName1":"East Nusa Tenggara","population":0},{"countryId":"1522867","adminCode1":"10","countryName":"Kazakhstan","fclName":"city, village,...","countryCode":"KZ","lng":"68.28333","fcodeName":"populated place","toponymName":"Isa-Kulokanov","fcl":"P","name":"Isa-Kulokanov","fcode":"PPL","geonameId":1523759,"lat":"43.68333","adminName1":"Ongtüstik Qazaqstan","population":0},{"countryId":"69543","adminCode1":"08","countryName":"Yemen","fclName":"city, village,...","countryCode":"YE","lng":"42.66253","fcodeName":"populated place","toponymName":"Qaryat ‘Īsá","fcl":"P","name":"Qaryat ‘Īsá","fcode":"PPL","geonameId":74406,"lat":"15.1882","adminName1":"Al Ḩudaydah","population":0},{"countryId":"2328926","adminCode1":"23","countryName":"Nigeria","fclName":"city, village,...","countryCode":"NG","lng":"8.14765","fcodeName":"populated place","toponymName":"Gidan Isa","fcl":"P","name":"Gidan Isa","fcode":"PPL","geonameId":2340978,"lat":"11.43942","adminName1":"Kaduna","population":0},{"countryId":"1835841","adminCode1":"19","countryName":"South Korea","fclName":"city, village,...","countryCode":"KR","lng":"127.43736","fcodeName":"populated locality","toponymName":"Isa-dong","fcl":"P","name":"Isa-dong","fcode":"PPLL","geonameId":1886449,"lat":"36.28664","adminName1":"Daejeon","population":0},{"countryId":"1269750","adminCode1":"23","countryName":"India","fclName":"city, village,...","countryCode":"IN","lng":"75.13763","fcodeName":"populated place","toponymName":"Kot Ïsa Khān","fcl":"P","name":"Kot Ïsa Khān","fcode":"PPL","geonameId":1265974,"lat":"30.94523","adminName1":"Punjab","population":9639},{"countryId":"1149361","adminCode1":"14","countryName":"Afghanistan","fclName":"city, village,...","countryCode":"AF","lng":"69.66216","fcodeName":"populated place","toponymName":"‘Īsá Khēl","fcl":"P","name":"‘Īsá Khēl","fcode":"PPL","geonameId":1472535,"lat":"34.84855","adminName1":"Kāpīsā","population":0},{"countryId":"1149361","adminCode1":"24","countryName":"Afghanistan","fclName":"city, village,...","countryCode":"AF","lng":"68.84369","fcodeName":"populated place","toponymName":"‘Īsá Khēl","fcl":"P","name":"‘Īsá Khēl","fcode":"PPL","geonameId":1467995,"lat":"36.67081","adminName1":"Kunduz","population":0},{"countryId":"1149361","adminCode1":"19","countryName":"Afghanistan","fclName":"city, village,...","countryCode":"AF","lng":"62.17463","fcodeName":"populated place","toponymName":"‘Īsá Khān","fcl":"P","name":"‘Īsá Khān","fcode":"PPL","geonameId":1438887,"lat":"31.23852","adminName1":"Nīmrūz","population":0},{"countryId":"1168579","adminCode1":"04","countryName":"Pakistan","fclName":"city, village,...","countryCode":"PK","lng":"72.19334","fcodeName":"populated place","toponymName":"Kot Īsa Shāh","fcl":"P","name":"Kot Īsa Shāh","fcode":"PPL","geonameId":1173219,"lat":"31.6883","adminName1":"Punjab","population":0},{"countryId":"1168579","adminCode1":"02","countryName":"Pakistan","fclName":"city, village,...","countryCode":"PK","lng":"62.11858","fcodeName":"populated place","toponymName":"Īsa Goth","fcl":"P","name":"Īsa Goth","fcode":"PPL","geonameId":1181407,"lat":"25.29481","adminName1":"Balochistān","population":0},{"countryId":"630336","adminCode1":"00","countryName":"Belarus","fclName":"stream, lake, ...","countryCode":"BY","lng":"25.3332","fcodeName":"stream","toponymName":"Isa","fcl":"H","name":"Isa","fcode":"STM","geonameId":627835,"lat":"53.1012","adminName1":"","population":0},{"countryId":"2440476","adminCode1":"06","countryName":"Niger","fclName":"city, village,...","countryCode":"NE","lng":"5.968","fcodeName":"populated place","toponymName":"Guidan-Isa","fcl":"P","name":"Guidan-Isa","fcode":"PPL","geonameId":7015601,"lat":"13.82871","adminName1":"Tahoua","population":0},{"countryId":"934292","adminCode1":"18","countryName":"Mauritius","fclName":"city, village,...","countryCode":"MU","lng":"57.49889","fcodeName":"capital of a political entity","toponymName":"Port Louis","fcl":"P","name":"Port Louis","fcode":"PPLC","geonameId":934154,"lat":"-20.16194","adminName1":"Port Louis","population":155226},{"countryId":"298795","adminCode1":"37","countryName":"Turkey","fclName":"city, village,...","countryCode":"TR","lng":"34.13715","fcodeName":"populated place","toponymName":"Taşçılar","fcl":"P","name":"Taşçılar","fcode":"PPL","geonameId":747316,"lat":"41.19945","adminName1":"Kastamonu","population":0},{"countryId":"1149361","adminCode1":"23","countryName":"Afghanistan","fclName":"mountain,hill,rock,... ","countryCode":"AF","lng":"65.28148","fcodeName":"dune(s)","toponymName":"‘Īsá","fcl":"T","name":"‘Īsá","fcode":"DUNE","geonameId":1142479,"lat":"29.6023","adminName1":"Kandahār","population":0},{"countryId":"99237","adminCode1":"05","countryName":"Iraq","fclName":"city, village,...","countryCode":"IQ","lng":"45.27999","fcodeName":"populated place","toponymName":"Drawzahnah Shaykh ‘Īsá","fcl":"P","name":"Drawzahnah Shaykh ‘Īsá","fcode":"PPL","geonameId":96923,"lat":"35.12629","adminName1":"As Sulaymānīyah","population":0},{"countryId":"2017370","adminCode1":"71","countryName":"Russia","fclName":"stream, lake, ...","countryCode":"RU","lng":"60.4546","fcodeName":"stream","toponymName":"Isa","fcl":"H","name":"Isa","fcode":"STM","geonameId":1505489,"lat":"57.9859","adminName1":"Sverdlovsk","population":0},{"countryId":"130758","adminCode1":"04","countryName":"Iran","fclName":"city, village,...","countryCode":"IR","lng":"61.42316","fcodeName":"populated place","toponymName":"Deh-e ‘Īsá-ye ‘Olyā","fcl":"P","name":"Deh-e ‘Īsá-ye ‘Olyā","fcode":"PPL","geonameId":1160938,"lat":"31.09773","adminName1":"Sīstān va Balūchestān","population":0},{"countryId":"1149361","adminCode1":"10","countryName":"Afghanistan","fclName":"city, village,...","countryCode":"AF","lng":"64.77226","fcodeName":"populated place","toponymName":"Kārēz-e ‘Īsá Khān","fcl":"P","name":"Kārēz-e ‘Īsá Khān","fcode":"PPL","geonameId":1137981,"lat":"32.16074","adminName1":"Helmand","population":0},{"countryId":"163843","adminCode1":"09","countryName":"Syria","fclName":"city, village,...","countryCode":"SY","lng":"37.14688","fcodeName":"populated place","toponymName":"Shaykh ‘Īsá","fcl":"P","name":"Shaykh ‘Īsá","fcode":"PPL","geonameId":172684,"lat":"36.47937","adminName1":"Aleppo","population":0},{"countryId":"2017370","adminCode1":"05","countryName":"Russia","fclName":"stream, lake, ...","countryCode":"RU","lng":"131.08759","fcodeName":"stream","toponymName":"Isa","fcl":"H","name":"Isa","fcode":"STM","geonameId":2023452,"lat":"51.99469","adminName1":"Amur","population":0},{"countryId":"1168579","adminCode1":"03","countryName":"Pakistan","fclName":"city, village,...","countryCode":"PK","lng":"71.59812","fcodeName":"populated place","toponymName":"Īsa Khel","fcl":"P","name":"Īsa Khel","fcode":"PPL","geonameId":1176646,"lat":"34.14092","adminName1":"Khyber Pakhtunkhwa","population":0},{"countryId":"1168579","adminCode1":"05","countryName":"Pakistan","fclName":"city, village,...","countryCode":"PK","lng":"67.2296","fcodeName":"populated place","toponymName":"Goth Mulla Isa","fcl":"P","name":"Goth Mulla Īsa","fcode":"PPL","geonameId":7046254,"lat":"24.8904","adminName1":"Sindh","population":0},{"countryId":"163843","adminCode1":"02","countryName":"Syria","fclName":"city, village,...","countryCode":"SY","lng":"36.09713","fcodeName":"populated place","toponymName":"‘Īsá Bīnār","fcl":"P","name":"‘Īsá Bīnār","fcode":"PPL","geonameId":169366,"lat":"35.81283","adminName1":"Latakia","population":0},{"countryId":"2440476","adminCode1":"04","countryName":"Niger","fclName":"city, village,...","countryCode":"NE","lng":"7.56573","fcodeName":"populated place","toponymName":"Guidan Isa","fcl":"P","name":"Guidan Isa","fcode":"PPL","geonameId":2443819,"lat":"14.11071","adminName1":"Maradi","population":0},{"countryId":"1873107","adminCode1":"17","countryName":"North Korea","fclName":"city, village,...","countryCode":"KP","lng":"129.3525","fcodeName":"populated place","toponymName":"Isa-dong","fcl":"P","name":"Isa-dong","fcode":"PPL","geonameId":2043691,"lat":"40.87167","adminName1":"Hamgyŏng-bukto","population":0},{"countryId":"1149361","adminCode1":"36","countryName":"Afghanistan","fclName":"city, village,...","countryCode":"AF","lng":"69.30292","fcodeName":"populated place","toponymName":"‘Īsá Khēl","fcl":"P","name":"‘Īsá Khēl","fcode":"PPL","geonameId":1139833,"lat":"33.63823","adminName1":"Paktia","population":0},{"countryId":"1835841","adminCode1":"14","countryName":"South Korea","fclName":"city, village,...","countryCode":"KR","lng":"128.2289","fcodeName":"populated place","toponymName":"Isa-gol","fcl":"P","name":"Isa-gol","fcode":"PPL","geonameId":6889885,"lat":"36.4437","adminName1":"Gyeongsangbuk-do","population":0},{"countryId":"1149361","adminCode1":"37","countryName":"Afghanistan","fclName":"city, village,...","countryCode":"AF","lng":"69.7602","fcodeName":"populated place","toponymName":"‘Īsá Khēl","fcl":"P","name":"‘Īsá Khēl","fcode":"PPL","geonameId":1434372,"lat":"33.16488","adminName1":"Khowst","population":0},{"countryId":"2434508","adminCode1":"01","countryName":"Chad","fclName":"city, village,...","countryCode":"TD","lng":"18.3568","fcodeName":"populated place","toponymName":"Ouled Isa","fcl":"P","name":"Ouled Isa","fcode":"PPL","geonameId":2426401,"lat":"13.2322","adminName1":"Batha","population":0},{"countryId":"99237","adminCode1":"05","countryName":"Iraq","fclName":"city, village,...","countryCode":"IQ","lng":"45.97441","fcodeName":"populated place","toponymName":"Shayshikal Ḩājī ‘Īsá","fcl":"P","name":"Shayshikal Ḩājī ‘Īsá","fcode":"PPL","geonameId":90891,"lat":"35.26637","adminName1":"As Sulaymānīyah","population":0},{"countryId":"1168579","adminCode1":"03","countryName":"Pakistan","fclName":"city, village,...","countryCode":"PK","lng":"70.38972","fcodeName":"populated place","toponymName":"Kot Isa Khān","fcl":"P","name":"Kot Isa Khān","fcode":"PPL","geonameId":1173222,"lat":"31.79583","adminName1":"Khyber Pakhtunkhwa","population":0},{"countryId":"6254930","adminCode1":"WE","countryName":"Palestine","fclName":"city, village,...","countryCode":"PS","lng":"35.05888","fcodeName":"populated place","toponymName":"Nazlat ‘Īsá","fcl":"P","name":"Nazlat ‘Īsá","fcode":"PPL","geonameId":282540,"lat":"32.41562","adminName1":"West Bank","population":2313},{"countryId":"2328926","adminCode1":"48","countryName":"Nigeria","fclName":"city, village,...","countryCode":"NG","lng":"5.1131","fcodeName":"populated place","toponymName":"Odo-Isa","fcl":"P","name":"Odo-Isa","fcode":"PPL","geonameId":6832786,"lat":"7.0587","adminName1":"Ondo","population":0},{"countryId":"2328926","adminCode1":"48","countryName":"Nigeria","fclName":"city, village,...","countryCode":"NG","lng":"5.2052","fcodeName":"populated place","toponymName":"Ala-Isa","fcl":"P","name":"Ala-Isa","fcode":"PPL","geonameId":6832794,"lat":"7.0709","adminName1":"Ondo","population":0},{"countryId":"298795","adminCode1":"85","countryName":"Turkey","fclName":"city, village,...","countryCode":"TR","lng":"31.50884","fcodeName":"populated place","toponymName":"İsafakılı","fcl":"P","name":"İsafakılı","fcode":"PPL","geonameId":745131,"lat":"41.13628","adminName1":"Zonguldak","population":0},{"countryId":"2328926","adminCode1":"51","countryName":"Nigeria","fclName":"city, village,...","countryCode":"NG","lng":"5.11575","fcodeName":"populated place","toponymName":"Gidan-Isa","fcl":"P","name":"Gidan-Isa","fcode":"PPL","geonameId":7017633,"lat":"13.09832","adminName1":"Sokoto","population":0},{"countryId":"99237","adminCode1":"10","countryName":"Iraq","fclName":"city, village,...","countryCode":"IQ","lng":"44.46194","fcodeName":"populated place","toponymName":"‘Īsá al Ḩamzah","fcl":"P","name":"‘Īsá al Ḩamzah","fcode":"PPL","geonameId":95435,"lat":"33.51528","adminName1":"Diyālá","population":0},{"countryId":"99237","adminCode1":"05","countryName":"Iraq","fclName":"city, village,...","countryCode":"IQ","lng":"45.01667","fcodeName":"populated place","toponymName":"Isa Begī","fcl":"P","name":"Isa Begī","fcode":"PPL","geonameId":95438,"lat":"35.8","adminName1":"As Sulaymānīyah","population":0},{"countryId":"99237","adminCode1":"10","countryName":"Iraq","fclName":"city, village,...","countryCode":"IQ","lng":"44.52693","fcodeName":"populated place","toponymName":"‘Īsá al ‘Az̧mah","fcl":"P","name":"‘Īsá al ‘Az̧mah","fcode":"PPL","geonameId":95442,"lat":"33.74278","adminName1":"Diyālá","population":0},{"countryId":"130758","adminCode1":"36","countryName":"Iran","fclName":"city, village,...","countryCode":"IR","lng":"48.1499","fcodeName":"populated place","toponymName":"‘Īsá Beyglū","fcl":"P","name":"‘Īsá Beyglū","fcode":"PPL","geonameId":130737,"lat":"36.1092","adminName1":"Zanjan","population":0},{"countryId":"99237","adminCode1":"06","countryName":"Iraq","fclName":"parks,area, ...","countryCode":"IQ","lng":"44.91597","fcodeName":"locality","toponymName":"Īsá al Luhaymī","fcl":"L","name":"Īsá al Luhaymī","fcode":"LCTY","geonameId":6788628,"lat":"32.33634","adminName1":"Bābil","population":0},{"countryId":"163843","adminCode1":"09","countryName":"Syria","fclName":"city, village,...","countryCode":"SY","lng":"37.00089","fcodeName":"populated place","toponymName":"Ash Shaykh ‘Īsá","fcl":"P","name":"Ash Shaykh ‘Īsá","fcode":"PPL","geonameId":7887800,"lat":"35.99466","adminName1":"Aleppo","population":0},{"countryId":"2215636","adminCode1":"57","countryName":"Libya","fclName":"city, village,...","countryCode":"LY","lng":"12.68944","fcodeName":"populated place","toponymName":"Awlād ‘Īsá","fcl":"P","name":"Awlād ‘Īsá","fcode":"PPL","geonameId":2219137,"lat":"32.07583","adminName1":"LY.57","population":0},{"countryId":"2215636","adminCode1":"24","countryName":"Libya","fclName":"city, village,...","countryCode":"LY","lng":"12.23807","fcodeName":"populated place","toponymName":"Awlād ‘Īsá","fcl":"P","name":"Awlād ‘Īsá","fcode":"PPL","geonameId":2219138,"lat":"31.93766","adminName1":"Jadu","population":0},{"countryId":"2215636","adminCode1":"53","countryName":"Libya","fclName":"city, village,...","countryCode":"LY","lng":"12.63105","fcodeName":"populated place","toponymName":"Abū ‘Īsá","fcl":"P","name":"Abū ‘Īsá","fcode":"PPL","geonameId":2220468,"lat":"32.75306","adminName1":"LY.53","population":0},{"countryId":"2328926","adminCode1":"29","countryName":"Nigeria","fclName":"mountain,hill,rock,... ","countryCode":"NG","lng":"8.21907","fcodeName":"hill","toponymName":"Dutsen Dan Isa","fcl":"T","name":"Dutsen Dan Isa","fcode":"HLL","geonameId":2345310,"lat":"11.94182","adminName1":"Kano","population":0},{"countryId":"1168579","adminCode1":"05","countryName":"Pakistan","fclName":"city, village,...","countryCode":"PK","lng":"68.11373","fcodeName":"populated place","toponymName":"Goth Isa Wāhan","fcl":"P","name":"Goth Isa Wāhan","fcode":"PPL","geonameId":1176709,"lat":"27.40022","adminName1":"Sindh","population":0},{"countryId":"1168579","adminCode1":"01","countryName":"Pakistan","fclName":"parks,area, ...","countryCode":"PK","lng":"71.46478","fcodeName":"tribal area","toponymName":"Īsa Khel","fcl":"L","name":"Īsa Khel","fcode":"TRB","geonameId":1106969,"lat":"34.47918","adminName1":"Federally Administered Tribal Areas","population":0},{"countryId":"1168579","adminCode1":"04","countryName":"Pakistan","fclName":"city, village,...","countryCode":"PK","lng":"73.46667","fcodeName":"populated place","toponymName":"Pindi Ïsa","fcl":"P","name":"Pindi Ïsa","fcode":"PPL","geonameId":1168012,"lat":"31.21667","adminName1":"Punjab","population":0},{"countryId":"1168579","adminCode1":"03","countryName":"Pakistan","fclName":"city, village,...","countryCode":"PK","lng":"71.98028","fcodeName":"populated place","toponymName":"Miān Īsa","fcl":"P","name":"Miān Īsa","fcode":"PPL","geonameId":1170455,"lat":"34.39889","adminName1":"Khyber Pakhtunkhwa","population":0},{"countryId":"1168579","adminCode1":"02","countryName":"Pakistan","fclName":"city, village,...","countryCode":"PK","lng":"66.79872","fcodeName":"populated place","toponymName":"Goth Īsa","fcl":"P","name":"Goth Īsa","fcode":"PPL","geonameId":1343755,"lat":"25.5945","adminName1":"Balochistān","population":0},{"countryId":"1168579","adminCode1":"02","countryName":"Pakistan","fclName":"city, village,...","countryCode":"PK","lng":"66.81131","fcodeName":"populated place","toponymName":"Goth Īsa","fcl":"P","name":"Goth Īsa","fcode":"PPL","geonameId":1344352,"lat":"25.05496","adminName1":"Balochistān","population":0},{"countryId":"1168579","adminCode1":"05","countryName":"Pakistan","fclName":"city, village,...","countryCode":"PK","lng":"67.63231","fcodeName":"populated place","toponymName":"Goth Īsa","fcl":"P","name":"Goth Īsa","fcode":"PPL","geonameId":1345107,"lat":"24.79798","adminName1":"Sindh","population":0},{"countryId":"1168579","adminCode1":"03","countryName":"Pakistan","fclName":"city, village,...","countryCode":"PK","lng":"71.57222","fcodeName":"populated place","toponymName":"Miān Īsa","fcl":"P","name":"Miān Īsa","fcode":"PPL","geonameId":1333972,"lat":"34.24444","adminName1":"Khyber Pakhtunkhwa","population":0},{"countryId":"1168579","adminCode1":"03","countryName":"Pakistan","fclName":"city, village,...","countryCode":"PK","lng":"70.91674","fcodeName":"populated place","toponymName":"Īsa Khel","fcl":"P","name":"Īsa Khel","fcode":"PPL","geonameId":1334523,"lat":"32.88208","adminName1":"Khyber Pakhtunkhwa","population":0},{"countryId":"1168579","adminCode1":"02","countryName":"Pakistan","fclName":"city, village,...","countryCode":"PK","lng":"67.06496","fcodeName":"populated place","toponymName":"Īsa Kārez","fcl":"P","name":"Īsa Kārez","fcode":"PPL","geonameId":1342056,"lat":"30.54322","adminName1":"Balochistān","population":0},{"countryId":"1168579","adminCode1":"02","countryName":"Pakistan","fclName":"city, village,...","countryCode":"PK","lng":"67.82002","fcodeName":"populated place","toponymName":"Isā Khān","fcl":"P","name":"Isā Khān","fcode":"PPL","geonameId":1410593,"lat":"28.37961","adminName1":"Balochistān","population":0},{"countryId":"2017370","adminCode1":"05","countryName":"Russia","fclName":"spot, building, farm","countryCode":"RU","lng":"131.03115","fcodeName":"railroad station","toponymName":"Stantsiya Isa","fcl":"S","name":"Stantsiya Isa","fcode":"RSTN","geonameId":8701850,"lat":"51.75244","adminName1":"Amur","population":0}]}