{"totalResultsCount":747,"geonames":[{"adminCode1":"19","lng":"50.54778","geonameId":290187,"toponymName":"Madīnat ‘Īsá","countryId":"290291","fcl":"P","population":38090,"countryCode":"BH","name":"Madīnat ‘Īsá","fclName":"city, village,...","countryName":"Bahrain","fcodeName":"populated place","adminName1":"Northern","lat":"26.17361","fcode":"PPL"},{"adminCode1":"04","lng":"139.01443","geonameId":7839378,"toponymName":"Mount Isa","countryId":"2077456","fcl":"A","population":0,"countryCode":"AU","name":"Mount Isa","fclName":"country, state, region,...","countryName":"Australia","fcodeName":"second-order administrative division","adminName1":"Queensland","lat":"-19.74831","fcode":"ADM2"},{"adminCode1":"04","lng":"139.49727","geonameId":2065594,"toponymName":"Mount Isa","countryId":"2077456","fcl":"P","population":22785,"countryCode":"AU","name":"Mount Isa","fclName":"city, village,...","countryName":"Australia","fcodeName":"populated place","adminName1":"Queensland","lat":"-20.72523","fcode":"PPL"},{"adminCode1":"03","lng":"30.29019","geonameId":356000,"toponymName":"Ḩawsh ‘Īsá","countryId":"357994","fcl":"P","population":85352,"countryCode":"EG","name":"Ḩawsh ‘Īsá","fclName":"city, village,...","countryName":"Egypt","fcodeName":"populated place","adminName1":"Al Buḩayrah","lat":"30.9128","fcode":"PPL"},{"adminCode1":"05","lng":"131.02927","geonameId":8701851,"toponymName":"Isa","countryId":"2017370","fcl":"P","population":0,"countryCode":"RU","name":"Isa","fclName":"city, village,...","countryName":"Russia","fcodeName":"populated place","adminName1":"Amur","lat":"51.75808","fcode":"PPL"},{"adminCode1":"51","lng":"6.33803","geonameId":8632717,"toponymName":"Isa Local Government Area","countryId":"2328926","fcl":"A","population":0,"countryCode":"NG","name":"Isa Local Government Area","fclName":"country, state, region,...","countryName":"Nigeria","fcodeName":"second-order administrative division","adminName1":"Sokoto","lat":"13.22201","fcode":"ADM2"},{"adminCode1":"47","lng":"127.75673","geonameId":1861468,"toponymName":"Isa","countryId":"1861060","fcl":"P","population":0,"countryCode":"JP","name":"Isa","fclName":"city, village,...","countryName":"Japan","fcodeName":"populated place","adminName1":"Okinawa","lat":"26.28984","fcode":"PPL"},{"adminCode1":"04","lng":"139.48861","geonameId":6301298,"toponymName":"Mount Isa Airport","countryId":"2077456","fcl":"S","population":0,"countryCode":"AU","name":"Mount Isa Airport","fclName":"spot, building, farm","countryName":"Australia","fcodeName":"airport","adminName1":"Queensland","lat":"-20.66389","fcode":"AIRP"},{"adminCode1":"00","lng":"48.3","geonameId":609787,"toponymName":"Isa","countryId":"1522867","fcl":"P","population":0,"countryCode":"KZ","name":"Isa","fclName":"city, village,...","countryName":"Kazakhstan","fcodeName":"populated place","adminName1":"","lat":"48.6","fcode":"PPL"},{"adminCode1":"09","lng":"3.9063","geonameId":2443042,"toponymName":"Isa","countryId":"2440476","fcl":"P","population":0,"countryCode":"NE","name":"Isa","fclName":"city, village,...","countryName":"Niger","fcodeName":"populated place","adminName1":"Tillabéri","lat":"14.8689","fcode":"PPL"},{"adminCode1":"02","lng":"66.7","geonameId":1176659,"toponymName":"Īsa","countryId":"1168579","fcl":"P","population":0,"countryCode":"PK","name":"Īsa","fclName":"city, village,...","countryName":"Pakistan","fcodeName":"populated place","adminName1":"Balochistān","lat":"24.95","fcode":"PPL"},{"adminCode1":"11","lng":"44.1546","geonameId":94008,"toponymName":"Latah ‘Īsá","countryId":"99237","fcl":"P","population":0,"countryCode":"IQ","name":"Latah ‘Īsá","fclName":"city, village,...","countryName":"Iraq","fcodeName":"populated place","adminName1":"Arbīl","lat":"37.20978","fcode":"PPL"},{"adminCode1":"03","lng":"30.28333","geonameId":355999,"toponymName":"Markaz Ḩawsh ‘Īsá","countryId":"357994","fcl":"A","population":0,"countryCode":"EG","name":"Markaz Ḩawsh ‘Īsá","fclName":"country, state, region,...","countryName":"Egypt","fcodeName":"second-order administrative division","adminName1":"Al Buḩayrah","lat":"30.91667","fcode":"ADM2"},{"adminCode1":"71","lng":"31.77859","geonameId":311221,"toponymName":"İsa","countryId":"298795","fcl":"P","population":0,"countryCode":"TR","name":"İsa","fclName":"city, village,...","countryName":"Turkey","fcodeName":"populated place","adminName1":"Konya","lat":"37.75361","fcode":"PPL"},{"adminCode1":"14","lng":"20.58333","geonameId":605582,"toponymName":"Isa Kuolpajärvi","countryId":"2661886","fcl":"H","population":0,"countryCode":"SE","name":"Isa Kuolpajärvi","fclName":"stream, lake, ...","countryName":"Sweden","fcodeName":"lake","adminName1":"Norrbotten","lat":"67.01667","fcode":"LK"},{"adminCode1":"14","lng":"-16.48962","geonameId":2246452,"toponymName":"Saint-Louis","countryId":"2245662","fcl":"P","population":176000,"countryCode":"SN","name":"Saint-Louis","fclName":"city, village,...","countryName":"Senegal","fcodeName":"seat of a first-order administrative division","adminName1":"Saint-Louis Region","lat":"16.01793","fcode":"PPLA"},{"adminCode1":"14","lng":"129.0069","geonameId":1880908,"toponymName":"Isa-ri","countryId":"1835841","fcl":"P","population":0,"countryCode":"KR","name":"Isa-ri","fclName":"city, village,...","countryName":"South Korea","fcodeName":"populated place","adminName1":"Gyeongsangbuk-do","lat":"36.4376","fcode":"PPL"},{"adminCode1":"04","lng":"70.94923","geonameId":1174720,"toponymName":"Karor","countryId":"1168579","fcl":"P","population":25634,"countryCode":"PK","name":"Karor","fclName":"city, village,...","countryName":"Pakistan","fcodeName":"populated place","adminName1":"Punjab","lat":"31.22741","fcode":"PPL"},{"adminCode1":"04","lng":"71.28111","geonameId":1176647,"toponymName":"Īsā Khel","countryId":"1168579","fcl":"P","population":0,"countryCode":"PK","name":"Īsā Khel","fclName":"city, village,...","countryName":"Pakistan","fcodeName":"populated place","adminName1":"Punjab","lat":"32.67472","fcode":"PPL"},{"adminCode1":"03","lng":"73.09808","geonameId":7075923,"toponymName":"Īsa","countryId":"1168579","fcl":"P","population":0,"countryCode":"PK","name":"Īsa","fclName":"city, village,...","countryName":"Pakistan","fcodeName":"populated place","adminName1":"Khyber Pakhtunkhwa","lat":"33.87913","fcode":"PPL"},{"adminCode1":"18","lng":"130.60104","geonameId":7383991,"toponymName":"Isa Shi","countryId":"1861060","fcl":"A","population":0,"countryCode":"JP","name":"Isa Shi","fclName":"country, state, region,...","countryName":"Japan","fcodeName":"second-order administrative division","adminName1":"Kagoshima","lat":"32.05835","fcode":"ADM2"},{"adminCode1":"02","lng":"65.51282","geonameId":1375157,"toponymName":"Īsa Nāwar","countryId":"1168579","fcl":"H","population":0,"countryCode":"PK","name":"Īsa Nāwar","fclName":"stream, lake, ...","countryName":"Pakistan","fcodeName":"lake","adminName1":"Balochistān","lat":"29.59235","fcode":"LK"},{"adminCode1":"03","lng":"73.10794","geonameId":1389524,"toponymName":"Isa","countryId":"1168579","fcl":"P","population":0,"countryCode":"PK","name":"Isa","fclName":"city, village,...","countryName":"Pakistan","fcodeName":"populated place","adminName1":"Khyber Pakhtunkhwa","lat":"34.5389","fcode":"PPL"},{"adminCode1":"03","lng":"72.6343","geonameId":1420383,"toponymName":"Īsa","countryId":"1168579","fcl":"P","population":0,"countryCode":"PK","name":"Īsa","fclName":"city, village,...","countryName":"Pakistan","fcodeName":"populated place","adminName1":"Khyber Pakhtunkhwa","lat":"34.00455","fcode":"PPL"},{"adminCode1":"00","lng":"79.26667","geonameId":1523761,"toponymName":"Isa","countryId":"1522867","fcl":"P","population":0,"countryCode":"KZ","name":"Isa","fclName":"city, village,...","countryName":"Kazakhstan","fcodeName":"populated place","adminName1":"","lat":"50.18333","fcode":"PPL"},{"adminCode1":"06","lng":"14.38593","geonameId":2431224,"toponymName":"Isa","countryId":"2434508","fcl":"T","population":0,"countryCode":"TD","name":"Isa","fclName":"mountain,hill,rock,... ","countryName":"Chad","fcodeName":"blowout(s)","adminName1":"Kanem","lat":"14.85927","fcode":"BLOW"},{"adminCode1":"57","lng":"6.40708","geonameId":2337275,"toponymName":"Isa","countryId":"2328926","fcl":"P","population":0,"countryCode":"NG","name":"Isa","fclName":"city, village,...","countryName":"Nigeria","fcodeName":"populated place","adminName1":"Zamfara","lat":"13.20029","fcode":"PPL"},{"adminCode1":"00","lng":"10.05","geonameId":2337276,"toponymName":"Isa","countryId":"2328926","fcl":"P","population":0,"countryCode":"NG","name":"Isa","fclName":"city, village,...","countryName":"Nigeria","fcodeName":"populated place","adminName1":"","lat":"7.36667","fcode":"PPL"},{"adminCode1":"00","lng":"10.13333","geonameId":2337277,"toponymName":"Isa","countryId":"2328926","fcl":"P","population":0,"countryCode":"NG","name":"Isa","fclName":"city, village,...","countryName":"Nigeria","fcodeName":"populated place","adminName1":"","lat":"7.31667","fcode":"PPL"},{"adminCode1":"45","lng":"131.21667","geonameId":1861466,"toponymName":"Isa","countryId":"1861060","fcl":"P","population":0,"countryCode":"JP","name":"Isa","fclName":"city, village,...","countryName":"Japan","fcodeName":"populated place","adminName1":"Yamaguchi","lat":"34.16667","fcode":"PPL"},{"adminCode1":"20","lng":"133.01234","geonameId":1861467,"toponymName":"Isa","countryId":"1861060","fcl":"P","population":0,"countryCode":"JP","name":"Isa","fclName":"city, village,...","countryName":"Japan","fcodeName":"populated place","adminName1":"Kōchi","lat":"32.7258","fcode":"PPL"},{"adminCode1":"02","lng":"63.7325","geonameId":1462841,"toponymName":"Īsa-i-Āb","countryId":"1168579","fcl":"H","population":0,"countryCode":"PK","name":"Īsa-i-Āb","fclName":"stream, lake, ...","countryName":"Pakistan","fcodeName":"lake","adminName1":"Balochistān","lat":"26.50139","fcode":"LK"},{"adminCode1":"04","lng":"74.71866","geonameId":1176656,"toponymName":"Īsa","countryId":"1168579","fcl":"P","population":0,"countryCode":"PK","name":"Īsa","fclName":"city, village,...","countryName":"Pakistan","fcodeName":"populated place","adminName1":"Punjab","lat":"32.28455","fcode":"PPL"},{"adminCode1":"04","lng":"75.01667","geonameId":1176657,"toponymName":"Isa","countryId":"1168579","fcl":"P","population":0,"countryCode":"PK","name":"Isa","fclName":"city, village,...","countryName":"Pakistan","fcodeName":"populated place","adminName1":"Punjab","lat":"32.21667","fcode":"PPL"},{"adminCode1":"04","lng":"72.315","geonameId":1176658,"toponymName":"Īsa","countryId":"1168579","fcl":"P","population":0,"countryCode":"PK","name":"Īsa","fclName":"city, village,...","countryName":"Pakistan","fcodeName":"populated place","adminName1":"Punjab","lat":"29.67","fcode":"PPL"},{"adminCode1":"WY","lng":"-110.7191","geonameId":5828501,"toponymName":"Isa Lake","countryId":"6252001","fcl":"H","population":0,"countryCode":"US","name":"Isa Lake","fclName":"stream, lake, ...","countryName":"United States","fcodeName":"lake","adminName1":"Wyoming","lat":"44.44077","fcode":"LK"},{"adminCode1":"10","lng":"-67.70639","geonameId":6025239,"toponymName":"Lac Isa","countryId":"6251999","fcl":"H","population":0,"countryCode":"CA","name":"Lac Isa","fclName":"stream, lake, ...","countryName":"Canada","fcodeName":"lake","adminName1":"Quebec","lat":"50.62389","fcode":"LK"},{"adminCode1":"02","lng":"67.52766","geonameId":6273595,"toponymName":"Isā Khel","countryId":"1168579","fcl":"L","population":0,"countryCode":"PK","name":"Isā Khel","fclName":"parks,area, ...","countryName":"Pakistan","fcodeName":"tribal area","adminName1":"Balochistān","lat":"30.90744","fcode":"TRB"},{"adminCode1":"05","lng":"67.22943","geonameId":1177994,"toponymName":"Hāji Īsa","countryId":"1168579","fcl":"P","population":0,"countryCode":"PK","name":"Hāji Īsa","fclName":"city, village,...","countryName":"Pakistan","fcodeName":"populated place","adminName1":"Sindh","lat":"24.88865","fcode":"PPL"},{"adminCode1":"10","lng":"68.28333","geonameId":1523759,"toponymName":"Isa-Kulokanov","countryId":"1522867","fcl":"P","population":0,"countryCode":"KZ","name":"Isa-Kulokanov","fclName":"city, village,...","countryName":"Kazakhstan","fcodeName":"populated place","adminName1":"Ongtüstik Qazaqstan","lat":"43.68333","fcode":"PPL"},{"adminCode1":"17","lng":"118.931","geonameId":7384231,"toponymName":"Isa","countryId":"1643084","fcl":"P","population":0,"countryCode":"ID","name":"Isa","fclName":"city, village,...","countryName":"Indonesia","fcodeName":"populated place","adminName1":"West Nusa Tenggara","lat":"-8.3997","fcode":"PPL"},{"adminCode1":"18","lng":"121.1942","geonameId":7415175,"toponymName":"Isa","countryId":"1643084","fcl":"P","population":0,"countryCode":"ID","name":"Isa","fclName":"city, village,...","countryName":"Indonesia","fcodeName":"populated place","adminName1":"East Nusa Tenggara","lat":"-8.6806","fcode":"PPL"},{"adminCode1":"08","lng":"42.66253","geonameId":74406,"toponymName":"Qaryat ‘Īsá","countryId":"69543","fcl":"P","population":0,"countryCode":"YE","name":"Qaryat ‘Īsá","fclName":"city, village,...","countryName":"Yemen","fcodeName":"populated place","adminName1":"Al Ḩudaydah","lat":"15.1882","fcode":"PPL"},{"adminCode1":"18","lng":"57.49889","geonameId":934154,"toponymName":"Port Louis","countryId":"934292","fcl":"P","population":155226,"countryCode":"MU","name":"Port Louis","fclName":"city, village,...","countryName":"Mauritius","fcodeName":"capital of a political entity","adminName1":"Port Louis","lat":"-20.16194","fcode":"PPLC"},{"adminCode1":"23","lng":"75.13763","geonameId":1265974,"toponymName":"Kot Ïsa Khān","countryId":"1269750","fcl":"P","population":9639,"countryCode":"IN","name":"Kot Ïsa Khān","fclName":"city, village,...","countryName":"India","fcodeName":"populated place","adminName1":"Punjab","lat":"30.94523","fcode":"PPL"},{"adminCode1":"19","lng":"62.17463","geonameId":1438887,"toponymName":"‘Īsá Khān","countryId":"1149361","fcl":"P","population":0,"countryCode":"AF","name":"‘Īsá Khān","fclName":"city, village,...","countryName":"Afghanistan","fcodeName":"populated place","adminName1":"Nīmrūz","lat":"31.23852","fcode":"PPL"},{"adminCode1":"14","lng":"69.66216","geonameId":1472535,"toponymName":"‘Īsá Khēl","countryId":"1149361","fcl":"P","population":0,"countryCode":"AF","name":"‘Īsá Khēl","fclName":"city, village,...","countryName":"Afghanistan","fcodeName":"populated place","adminName1":"Kāpīsā","lat":"34.84855","fcode":"PPL"},{"adminCode1":"23","lng":"8.14765","geonameId":2340978,"toponymName":"Gidan Isa","countryId":"2328926","fcl":"P","population":0,"countryCode":"NG","name":"Gidan Isa","fclName":"city, village,...","countryName":"Nigeria","fcodeName":"populated place","adminName1":"Kaduna","lat":"11.43942","fcode":"PPL"},{"adminCode1":"19","lng":"127.43736","geonameId":1886449,"toponymName":"Isa-dong","countryId":"1835841","fcl":"P","population":0,"countryCode":"KR","name":"Isa-dong","fclName":"city, village,...","countryName":"South Korea","fcodeName":"populated locality","adminName1":"Daejeon","lat":"36.28665","fcode":"PPLL"},{"adminCode1":"24","lng":"68.84369","geonameId":1467995,"toponymName":"‘Īsá Khēl","countryId":"1149361","fcl":"P","population":0,"countryCode":"AF","name":"‘Īsá Khēl","fclName":"city, village,...","countryName":"Afghanistan","fcodeName":"populated place","adminName1":"Kunduz","lat":"36.67081","fcode":"PPL"},{"adminCode1":"04","lng":"72.19334","geonameId":1173219,"toponymName":"Kot Īsa Shāh","countryId":"1168579","fcl":"P","population":0,"countryCode":"PK","name":"Kot Īsa Shāh","fclName":"city, village,...","countryName":"Pakistan","fcodeName":"populated place","adminName1":"Punjab","lat":"31.6883","fcode":"PPL"},{"adminCode1":"02","lng":"62.11859","geonameId":1181407,"toponymName":"Īsa Goth","countryId":"1168579","fcl":"P","population":0,"countryCode":"PK","name":"Īsa Goth","fclName":"city, village,...","countryName":"Pakistan","fcodeName":"populated place","adminName1":"Balochistān","lat":"25.29481","fcode":"PPL"},{"adminCode1":"00","lng":"25.3332","geonameId":627835,"toponymName":"Isa","countryId":"630336","fcl":"H","population":0,"countryCode":"BY","name":"Isa","fclName":"stream, lake, ...","countryName":"Belarus","fcodeName":"stream","adminName1":"","lat":"53.1012","fcode":"STM"},{"adminCode1":"06","lng":"5.968","geonameId":7015601,"toponymName":"Guidan-Isa","countryId":"2440476","fcl":"P","population":0,"countryCode":"NE","name":"Guidan-Isa","fclName":"city, village,...","countryName":"Niger","fcodeName":"populated place","adminName1":"Tahoua","lat":"13.82871","fcode":"PPL"},{"adminCode1":"37","lng":"34.13715","geonameId":747316,"toponymName":"Taşçılar","countryId":"298795","fcl":"P","population":0,"countryCode":"TR","name":"Taşçılar","fclName":"city, village,...","countryName":"Turkey","fcodeName":"populated place","adminName1":"Kastamonu","lat":"41.19945","fcode":"PPL"},{"adminCode1":"23","lng":"65.28148","geonameId":1142479,"toponymName":"‘Īsá","countryId":"1149361","fcl":"T","population":0,"countryCode":"AF","name":"‘Īsá","fclName":"mountain,hill,rock,... ","countryName":"Afghanistan","fcodeName":"dune(s)","adminName1":"Kandahār","lat":"29.6023","fcode":"DUNE"},{"adminCode1":"05","lng":"45.27999","geonameId":96923,"toponymName":"Drawzahnah Shaykh ‘Īsá","countryId":"99237","fcl":"P","population":0,"countryCode":"IQ","name":"Drawzahnah Shaykh ‘Īsá","fclName":"city, village,...","countryName":"Iraq","fcodeName":"populated place","adminName1":"As Sulaymānīyah","lat":"35.12629","fcode":"PPL"},{"adminCode1":"71","lng":"60.4546","geonameId":1505489,"toponymName":"Isa","countryId":"2017370","fcl":"H","population":0,"countryCode":"RU","name":"Isa","fclName":"stream, lake, ...","countryName":"Russia","fcodeName":"stream","adminName1":"Sverdlovsk","lat":"57.9859","fcode":"STM"},{"adminCode1":"05","lng":"131.08759","geonameId":2023452,"toponymName":"Isa","countryId":"2017370","fcl":"H","population":0,"countryCode":"RU","name":"Isa","fclName":"stream, lake, ...","countryName":"Russia","fcodeName":"stream","adminName1":"Amur","lat":"51.99469","fcode":"STM"},{"adminCode1":"10","lng":"64.77226","geonameId":1137981,"toponymName":"Kārēz-e ‘Īsá Khān","countryId":"1149361","fcl":"P","population":0,"countryCode":"AF","name":"Kārēz-e ‘Īsá Khān","fclName":"city, village,...","countryName":"Afghanistan","fcodeName":"populated place","adminName1":"Helmand","lat":"32.16074","fcode":"PPL"},{"adminCode1":"04","lng":"61.42316","geonameId":1160938,"toponymName":"Deh-e ‘Īsá-ye ‘Olyā","countryId":"130758","fcl":"P","population":0,"countryCode":"IR","name":"Deh-e ‘Īsá-ye ‘Olyā","fclName":"city, village,...","countryName":"Iran","fcodeName":"populated place","adminName1":"Sīstān va Balūchestān","lat":"31.09773","fcode":"PPL"},{"adminCode1":"09","lng":"37.14688","geonameId":172684,"toponymName":"Shaykh ‘Īsá","countryId":"163843","fcl":"P","population":0,"countryCode":"SY","name":"Shaykh ‘Īsá","fclName":"city, village,...","countryName":"Syria","fcodeName":"populated place","adminName1":"Aleppo","lat":"36.47937","fcode":"PPL"},{"adminCode1":"03","lng":"71.59812","geonameId":1176646,"toponymName":"Īsa Khel","countryId":"1168579","fcl":"P","population":0,"countryCode":"PK","name":"Īsa Khel","fclName":"city, village,...","countryName":"Pakistan","fcodeName":"populated place","adminName1":"Khyber Pakhtunkhwa","lat":"34.14092","fcode":"PPL"},{"adminCode1":"05","lng":"67.2296","geonameId":7046254,"toponymName":"Goth Mulla Isa","countryId":"1168579","fcl":"P","population":0,"countryCode":"PK","name":"Goth Mulla Īsa","fclName":"city, village,...","countryName":"Pakistan","fcodeName":"populated place","adminName1":"Sindh","lat":"24.8904","fcode":"PPL"},{"adminCode1":"02","lng":"36.09713","geonameId":169366,"toponymName":"‘Īsá Bīnār","countryId":"163843","fcl":"P","population":0,"countryCode":"SY","name":"‘Īsá Bīnār","fclName":"city, village,...","countryName":"Syria","fcodeName":"populated place","adminName1":"Latakia","lat":"35.81283","fcode":"PPL"},{"adminCode1":"04","lng":"7.56573","geonameId":2443819,"toponymName":"Guidan Isa","countryId":"2440476","fcl":"P","population":0,"countryCode":"NE","name":"Guidan Isa","fclName":"city, village,...","countryName":"Niger","fcodeName":"populated place","adminName1":"Maradi","lat":"14.11071","fcode":"PPL"},{"adminCode1":"01","lng":"18.3568","geonameId":2426401,"toponymName":"Ouled Isa","countryId":"2434508","fcl":"P","population":0,"countryCode":"TD","name":"Ouled Isa","fclName":"city, village,...","countryName":"Chad","fcodeName":"populated place","adminName1":"Batha","lat":"13.2322","fcode":"PPL"},{"adminCode1":"17","lng":"129.3525","geonameId":2043691,"toponymName":"Isa-dong","countryId":"1873107","fcl":"P","population":0,"countryCode":"KP","name":"Isa-dong","fclName":"city, village,...","countryName":"North Korea","fcodeName":"populated place","adminName1":"Hamgyŏng-bukto","lat":"40.87167","fcode":"PPL"},{"adminCode1":"37","lng":"69.7602","geonameId":1434372,"toponymName":"‘Īsá Khēl","countryId":"1149361","fcl":"P","population":0,"countryCode":"AF","name":"‘Īsá Khēl","fclName":"city, village,...","countryName":"Afghanistan","fcodeName":"populated place","adminName1":"Khowst","lat":"33.16488","fcode":"PPL"},{"adminCode1":"36","lng":"69.30293","geonameId":1139833,"toponymName":"‘Īsá Khēl","countryId":"1149361","fcl":"P","population":0,"countryCode":"AF","name":"‘Īsá Khēl","fclName":"city, village,...","countryName":"Afghanistan","fcodeName":"populated place","adminName1":"Paktia","lat":"33.63823","fcode":"PPL"},{"adminCode1":"14","lng":"128.2289","geonameId":6889885,"toponymName":"Isa-gol","countryId":"1835841","fcl":"P","population":0,"countryCode":"KR","name":"Isa-gol","fclName":"city, village,...","countryName":"South Korea","fcodeName":"populated place","adminName1":"Gyeongsangbuk-do","lat":"36.4437","fcode":"PPL"},{"adminCode1":"05","lng":"45.97441","geonameId":90891,"toponymName":"Shayshikal Ḩājī ‘Īsá","countryId":"99237","fcl":"P","population":0,"countryCode":"IQ","name":"Shayshikal Ḩājī ‘Īsá","fclName":"city, village,...","countryName":"Iraq","fcodeName":"populated place","adminName1":"As Sulaymānīyah","lat":"35.26637","fcode":"PPL"},{"adminCode1":"03","lng":"70.38972","geonameId":1173222,"toponymName":"Kot Isa Khān","countryId":"1168579","fcl":"P","population":0,"countryCode":"PK","name":"Kot Isa Khān","fclName":"city, village,...","countryName":"Pakistan","fcodeName":"populated place","adminName1":"Khyber Pakhtunkhwa","lat":"31.79583","fcode":"PPL"},{"adminCode1":"WE","lng":"35.05888","geonameId":282540,"toponymName":"Nazlat ‘Īsá","countryId":"6254930","fcl":"P","population":2313,"countryCode":"PS","name":"Nazlat ‘Īsá","fclName":"city, village,...","countryName":"Palestine","fcodeName":"populated place","adminName1":"West Bank","lat":"32.41562","fcode":"PPL"},{"adminCode1":"85","lng":"31.50884","geonameId":745131,"toponymName":"İsafakılı","countryId":"298795","fcl":"P","population":0,"countryCode":"TR","name":"İsafakılı","fclName":"city, village,...","countryName":"Turkey","fcodeName":"populated place","adminName1":"Zonguldak","lat":"41.13629","fcode":"PPL"},{"adminCode1":"48","lng":"5.1131","geonameId":6832786,"toponymName":"Odo-Isa","countryId":"2328926","fcl":"P","population":0,"countryCode":"NG","name":"Odo-Isa","fclName":"city, village,...","countryName":"Nigeria","fcodeName":"populated place","adminName1":"Ondo","lat":"7.0587","fcode":"PPL"},{"adminCode1":"48","lng":"5.2052","geonameId":6832794,"toponymName":"Ala-Isa","countryId":"2328926","fcl":"P","population":0,"countryCode":"NG","name":"Ala-Isa","fclName":"city, village,...","countryName":"Nigeria","fcodeName":"populated place","adminName1":"Ondo","lat":"7.0709","fcode":"PPL"},{"adminCode1":"51","lng":"5.11575","geonameId":7017633,"toponymName":"Gidan-Isa","countryId":"2328926","fcl":"P","population":0,"countryCode":"NG","name":"Gidan-Isa","fclName":"city, village,...","countryName":"Nigeria","fcodeName":"populated place","adminName1":"Sokoto","lat":"13.09832","fcode":"PPL"},{"adminCode1":"05","lng":"131.03115","geonameId":8701850,"toponymName":"Stantsiya Isa","countryId":"2017370","fcl":"S","population":0,"countryCode":"RU","name":"Stantsiya Isa","fclName":"spot, building, farm","countryName":"Russia","fcodeName":"railroad station","adminName1":"Amur","lat":"51.75244","fcode":"RSTN"},{"adminCode1":"10","lng":"44.46194","geonameId":95435,"toponymName":"‘Īsá al Ḩamzah","countryId":"99237","fcl":"P","population":0,"countryCode":"IQ","name":"‘Īsá al Ḩamzah","fclName":"city, village,...","countryName":"Iraq","fcodeName":"populated place","adminName1":"Diyala Province","lat":"33.51528","fcode":"PPL"},{"adminCode1":"05","lng":"45.01667","geonameId":95438,"toponymName":"Isa Begī","countryId":"99237","fcl":"P","population":0,"countryCode":"IQ","name":"Isa Begī","fclName":"city, village,...","countryName":"Iraq","fcodeName":"populated place","adminName1":"As Sulaymānīyah","lat":"35.8","fcode":"PPL"},{"adminCode1":"10","lng":"44.52693","geonameId":95442,"toponymName":"‘Īsá al ‘Az̧mah","countryId":"99237","fcl":"P","population":0,"countryCode":"IQ","name":"‘Īsá al ‘Az̧mah","fclName":"city, village,...","countryName":"Iraq","fcodeName":"populated place","adminName1":"Diyala Province","lat":"33.74278","fcode":"PPL"},{"adminCode1":"36","lng":"48.1499","geonameId":130737,"toponymName":"‘Īsá Beyglū","countryId":"130758","fcl":"P","population":0,"countryCode":"IR","name":"‘Īsá Beyglū","fclName":"city, village,...","countryName":"Iran","fcodeName":"populated place","adminName1":"Zanjan","lat":"36.1092","fcode":"PPL"},{"adminCode1":"02","lng":"67.06496","geonameId":1342056,"toponymName":"Īsa Kārez","countryId":"1168579","fcl":"P","population":0,"countryCode":"PK","name":"Īsa Kārez","fclName":"city, village,...","countryName":"Pakistan","fcodeName":"populated place","adminName1":"Balochistān","lat":"30.54322","fcode":"PPL"},{"adminCode1":"02","lng":"66.79872","geonameId":1343755,"toponymName":"Goth Īsa","countryId":"1168579","fcl":"P","population":0,"countryCode":"PK","name":"Goth Īsa","fclName":"city, village,...","countryName":"Pakistan","fcodeName":"populated place","adminName1":"Balochistān","lat":"25.5945","fcode":"PPL"},{"adminCode1":"02","lng":"66.81131","geonameId":1344352,"toponymName":"Goth Īsa","countryId":"1168579","fcl":"P","population":0,"countryCode":"PK","name":"Goth Īsa","fclName":"city, village,...","countryName":"Pakistan","fcodeName":"populated place","adminName1":"Balochistān","lat":"25.05496","fcode":"PPL"},{"adminCode1":"05","lng":"67.63231","geonameId":1345107,"toponymName":"Goth Īsa","countryId":"1168579","fcl":"P","population":0,"countryCode":"PK","name":"Goth Īsa","fclName":"city, village,...","countryName":"Pakistan","fcodeName":"populated place","adminName1":"Sindh","lat":"24.79798","fcode":"PPL"},{"adminCode1":"02","lng":"67.82002","geonameId":1410593,"toponymName":"Isā Khān","countryId":"1168579","fcl":"P","population":0,"countryCode":"PK","name":"Isā Khān","fclName":"city, village,...","countryName":"Pakistan","fcodeName":"populated place","adminName1":"Balochistān","lat":"28.37961","fcode":"PPL"},{"adminCode1":"03","lng":"71.57222","geonameId":1333972,"toponymName":"Miān Īsa","countryId":"1168579","fcl":"P","population":0,"countryCode":"PK","name":"Miān Īsa","fclName":"city, village,...","countryName":"Pakistan","fcodeName":"populated place","adminName1":"Khyber Pakhtunkhwa","lat":"34.24444","fcode":"PPL"},{"adminCode1":"03","lng":"70.91674","geonameId":1334523,"toponymName":"Īsa Khel","countryId":"1168579","fcl":"P","population":0,"countryCode":"PK","name":"Īsa Khel","fclName":"city, village,...","countryName":"Pakistan","fcodeName":"populated place","adminName1":"Khyber Pakhtunkhwa","lat":"32.88208","fcode":"PPL"},{"adminCode1":"57","lng":"12.68944","geonameId":2219137,"toponymName":"Awlād ‘Īsá","countryId":"2215636","fcl":"P","population":0,"countryCode":"LY","name":"Awlād ‘Īsá","fclName":"city, village,...","countryName":"Libya","fcodeName":"populated place","adminName1":"LY.57","lat":"32.07583","fcode":"PPL"},{"adminCode1":"24","lng":"12.23807","geonameId":2219138,"toponymName":"Awlād ‘Īsá","countryId":"2215636","fcl":"P","population":0,"countryCode":"LY","name":"Awlād ‘Īsá","fclName":"city, village,...","countryName":"Libya","fcodeName":"populated place","adminName1":"Jadu","lat":"31.93766","fcode":"PPL"},{"adminCode1":"53","lng":"12.63105","geonameId":2220468,"toponymName":"Abū ‘Īsá","countryId":"2215636","fcl":"P","population":0,"countryCode":"LY","name":"Abū ‘Īsá","fclName":"city, village,...","countryName":"Libya","fcodeName":"populated place","adminName1":"LY.53","lat":"32.75306","fcode":"PPL"},{"adminCode1":"29","lng":"8.21907","geonameId":2345310,"toponymName":"Dutsen Dan Isa","countryId":"2328926","fcl":"T","population":0,"countryCode":"NG","name":"Dutsen Dan Isa","fclName":"mountain,hill,rock,... ","countryName":"Nigeria","fcodeName":"hill","adminName1":"Kano","lat":"11.94182","fcode":"HLL"},{"adminCode1":"05","lng":"68.11373","geonameId":1176709,"toponymName":"Goth Isa Wāhan","countryId":"1168579","fcl":"P","population":0,"countryCode":"PK","name":"Goth Isa Wāhan","fclName":"city, village,...","countryName":"Pakistan","fcodeName":"populated place","adminName1":"Sindh","lat":"27.40021","fcode":"PPL"},{"adminCode1":"01","lng":"71.46478","geonameId":1106969,"toponymName":"Īsa Khel","countryId":"1168579","fcl":"L","population":0,"countryCode":"PK","name":"Īsa Khel","fclName":"parks,area, ...","countryName":"Pakistan","fcodeName":"tribal area","adminName1":"Federally Administered Tribal Areas","lat":"34.47918","fcode":"TRB"},{"adminCode1":"04","lng":"73.46667","geonameId":1168012,"toponymName":"Pindi Ïsa","countryId":"1168579","fcl":"P","population":0,"countryCode":"PK","name":"Pindi Ïsa","fclName":"city, village,...","countryName":"Pakistan","fcodeName":"populated place","adminName1":"Punjab","lat":"31.21667","fcode":"PPL"},{"adminCode1":"03","lng":"71.98028","geonameId":1170455,"toponymName":"Miān Īsa","countryId":"1168579","fcl":"P","population":0,"countryCode":"PK","name":"Miān Īsa","fclName":"city, village,...","countryName":"Pakistan","fcodeName":"populated place","adminName1":"Khyber Pakhtunkhwa","lat":"34.39889","fcode":"PPL"},{"adminCode1":"09","lng":"37.00089","geonameId":7887800,"toponymName":"Ash Shaykh ‘Īsá","countryId":"163843","fcl":"P","population":0,"countryCode":"SY","name":"Ash Shaykh ‘Īsá","fclName":"city, village,...","countryName":"Syria","fcodeName":"populated place","adminName1":"Aleppo","lat":"35.99466","fcode":"PPL"},{"adminCode1":"06","lng":"44.91597","geonameId":6788628,"toponymName":"Īsá al Luhaymī","countryId":"99237","fcl":"L","population":0,"countryCode":"IQ","name":"Īsá al Luhaymī","fclName":"parks,area, ...","countryName":"Iraq","fcodeName":"locality","adminName1":"Bābil","lat":"32.33634","fcode":"LCTY"}]}