{"totalResultsCount":426,"geonames":[{"adminCode1":"09","lng":"35.68333","geonameId":250621,"toponymName":"Al Karm","countryId":"248816","fcl":"T","population":0,"countryCode":"JO","name":"Al Karm","fclName":"mountain,hill,rock,... ","countryName":"Jordan","fcodeName":"mountain","adminName1":"Karak","lat":"31.21667","fcode":"MT"},{"adminCode1":"14","lng":"35.99393","geonameId":168549,"toponymName":"Al Karm","countryId":"163843","fcl":"P","population":0,"countryCode":"SY","name":"Al Karm","fclName":"city, village,...","countryName":"Syria","fcodeName":"populated place","adminName1":"Tartus","lat":"34.84139","fcode":"PPL"},{"adminCode1":"14","lng":"36.08082","geonameId":168553,"toponymName":"Karm at Tīnah","countryId":"163843","fcl":"P","population":0,"countryCode":"SY","name":"Karm at Tīnah","fclName":"city, village,...","countryName":"Syria","fcodeName":"populated place","adminName1":"Tartus","lat":"35.09674","fcode":"PPL"},{"lng":"57.51222","geonameId":6635900,"toponymName":"Karm Island","countryId":"6697173","fcl":"T","population":0,"countryCode":"AQ","name":"Karm Island","fclName":"mountain,hill,rock,... ","countryName":"Antarctica","fcodeName":"island","adminName1":"","lat":"-66.98833","fcode":"ISL"},{"adminCode1":"22","lng":"29.65","geonameId":348982,"toponymName":"Karm ash Shuwayliḩī","countryId":"357994","fcl":"T","population":0,"countryCode":"EG","name":"Karm ash Shuwayliḩī","fclName":"mountain,hill,rock,... ","countryName":"Egypt","fcodeName":"mound(s)","adminName1":"Maţrūḩ","lat":"30.81667","fcode":"MND"},{"adminCode1":"02","lng":"36.14633","geonameId":168550,"toponymName":"Karm Ziyādīyah","countryId":"163843","fcl":"P","population":0,"countryCode":"SY","name":"Karm Ziyādīyah","fclName":"city, village,...","countryName":"Syria","fcodeName":"populated place","adminName1":"Latakia","lat":"35.33764","fcode":"PPL"},{"adminCode1":"02","lng":"66.42841","geonameId":1350854,"toponymName":"Karm","countryId":"1168579","fcl":"P","population":0,"countryCode":"PK","name":"Karm","fclName":"city, village,...","countryName":"Pakistan","fcodeName":"populated place","adminName1":"Balochistān","lat":"30.64523","fcode":"PPL"},{"adminCode1":"02","lng":"11.29532","geonameId":2892767,"toponymName":"Karm","countryId":"2921044","fcl":"P","population":0,"countryCode":"DE","name":"Karm","fclName":"city, village,...","countryName":"Germany","fcodeName":"populated place","adminName1":"Bavaria","lat":"49.14747","fcode":"PPL"},{"adminCode1":"22","lng":"29.65","geonameId":354912,"toponymName":"Karm al Juwayrah","countryId":"357994","fcl":"T","population":0,"countryCode":"EG","name":"Karm al Juwayrah","fclName":"mountain,hill,rock,... ","countryName":"Egypt","fcodeName":"mound(s)","adminName1":"Maţrūḩ","lat":"30.85","fcode":"MND"},{"adminCode1":"22","lng":"29.66667","geonameId":359392,"toponymName":"Karm al Bahmah","countryId":"357994","fcl":"T","population":0,"countryCode":"EG","name":"Karm al Bahmah","fclName":"mountain,hill,rock,... ","countryName":"Egypt","fcodeName":"mound(s)","adminName1":"Maţrūḩ","lat":"30.9","fcode":"MND"},{"adminCode1":"01","lng":"40.7508","geonameId":163528,"toponymName":"Tall Karm","countryId":"163843","fcl":"P","population":0,"countryCode":"SY","name":"Tall Karm","fclName":"city, village,...","countryName":"Syria","fcodeName":"populated place","adminName1":"Al-Hasakah","lat":"37.06696","fcode":"PPL"},{"adminCode1":"12","lng":"36.50189","geonameId":164376,"toponymName":"Karm Shaybar","countryId":"163843","fcl":"P","population":0,"countryCode":"SY","name":"Karm Shaybar","fclName":"city, village,...","countryName":"Syria","fcodeName":"populated place","adminName1":"Idlib","lat":"36.12478","fcode":"PPL"},{"adminCode1":"02","lng":"36.04608","geonameId":168555,"toponymName":"Karm Fawzī","countryId":"163843","fcl":"P","population":0,"countryCode":"SY","name":"Karm Fawzī","fclName":"city, village,...","countryName":"Syria","fcodeName":"populated place","adminName1":"Latakia","lat":"35.38964","fcode":"PPL"},{"adminCode1":"22","lng":"29.58333","geonameId":346172,"toponymName":"Karm az Zalaţ","countryId":"357994","fcl":"T","population":0,"countryCode":"EG","name":"Karm az Zalaţ","fclName":"mountain,hill,rock,... ","countryName":"Egypt","fcodeName":"mound(s)","adminName1":"Maţrūḩ","lat":"30.81667","fcode":"MND"},{"adminCode1":"00","lng":"10.31667","geonameId":2473626,"toponymName":"Al Karm","countryId":"2464461","fcl":"P","population":0,"countryCode":"TN","name":"Al Karm","fclName":"city, village,...","countryName":"Tunisia","fcodeName":"populated place","adminName1":"","lat":"36.83333","fcode":"PPL"},{"adminCode1":"03","lng":"29.86667","geonameId":353951,"toponymName":"Karm Kandarah","countryId":"357994","fcl":"T","population":0,"countryCode":"EG","name":"Karm Kandarah","fclName":"mountain,hill,rock,... ","countryName":"Egypt","fcodeName":"mound(s)","adminName1":"Al Buḩayrah","lat":"30.9","fcode":"MND"},{"adminCode1":"06","lng":"29.71667","geonameId":347832,"toponymName":"Karm Subayyiq","countryId":"357994","fcl":"T","population":0,"countryCode":"EG","name":"Karm Subayyiq","fclName":"mountain,hill,rock,... ","countryName":"Egypt","fcodeName":"mound(s)","adminName1":"Alexandria","lat":"30.86667","fcode":"MND"},{"adminCode1":"06","lng":"29.78333","geonameId":358053,"toponymName":"Karm Dulaymah","countryId":"357994","fcl":"T","population":0,"countryCode":"EG","name":"Karm Dulaymah","fclName":"mountain,hill,rock,... ","countryName":"Egypt","fcodeName":"mound(s)","adminName1":"Alexandria","lat":"30.93333","fcode":"MND"},{"adminCode1":"06","lng":"35.36167","geonameId":272718,"toponymName":"Karm Mazied","countryId":"272103","fcl":"T","population":0,"countryCode":"LB","name":"Karm Mazied","fclName":"mountain,hill,rock,... ","countryName":"Lebanon","fcodeName":"saddle","adminName1":"Liban-Sud","lat":"33.27306","fcode":"SDL"},{"adminCode1":"WE","lng":"35.02863","geonameId":281577,"toponymName":"Ţūlkarm","countryId":"6254930","fcl":"P","population":44169,"countryCode":"PS","name":"Tulkarm","fclName":"city, village,...","countryName":"Palestine","fcodeName":"populated place","adminName1":"West Bank","lat":"32.31037","fcode":"PPL"},{"adminCode1":"22","lng":"29.66667","geonameId":349607,"toponymName":"Karm Şaqqārah","countryId":"357994","fcl":"T","population":0,"countryCode":"EG","name":"Karm Şaqqārah","fclName":"mountain,hill,rock,... ","countryName":"Egypt","fcodeName":"mound(s)","adminName1":"Maţrūḩ","lat":"30.8","fcode":"MND"},{"adminCode1":"06","lng":"29.76667","geonameId":359470,"toponymName":"Karm ‘Azzibah","countryId":"357994","fcl":"T","population":0,"countryCode":"EG","name":"Karm ‘Azzibah","fclName":"mountain,hill,rock,... ","countryName":"Egypt","fcodeName":"mound(s)","adminName1":"Alexandria","lat":"31.01667","fcode":"MND"},{"adminCode1":"22","lng":"29.6","geonameId":363125,"toponymName":"Karm ‘Abbās","countryId":"357994","fcl":"T","population":0,"countryCode":"EG","name":"Karm ‘Abbās","fclName":"mountain,hill,rock,... ","countryName":"Egypt","fcodeName":"mound(s)","adminName1":"Maţrūḩ","lat":"30.85","fcode":"MND"},{"adminCode1":"11","lng":"36.22361","geonameId":272710,"toponymName":"Karm Aaqaïl","countryId":"272103","fcl":"P","population":0,"countryCode":"LB","name":"Karm Aaqaïl","fclName":"city, village,...","countryName":"Lebanon","fcodeName":"populated place","adminName1":"Baalbek-Hermel","lat":"34.1425","fcode":"PPL"},{"adminCode1":"09","lng":"35.89111","geonameId":272723,"toponymName":"Karm Saddé","countryId":"272103","fcl":"P","population":0,"countryCode":"LB","name":"Karm Saddé","fclName":"city, village,...","countryName":"Lebanon","fcodeName":"populated place","adminName1":"Liban-Nord","lat":"34.30583","fcode":"PPL"},{"adminCode1":"06","lng":"35.39657","geonameId":435122,"toponymName":"Karm Houâch","countryId":"272103","fcl":"P","population":0,"countryCode":"LB","name":"Karm Houâch","fclName":"city, village,...","countryName":"Lebanon","fcodeName":"populated place","adminName1":"Liban-Sud","lat":"33.55587","fcode":"PPL"},{"adminCode1":"12","lng":"36.56256","geonameId":168545,"toponymName":"Karm Şāliḩ","countryId":"163843","fcl":"L","population":0,"countryCode":"SY","name":"Karm Şāliḩ","fclName":"parks,area, ...","countryName":"Syria","fcodeName":"area","adminName1":"Idlib","lat":"35.86391","fcode":"AREA"},{"adminCode1":"12","lng":"36.81633","geonameId":168551,"toponymName":"Karm ‘Ayyāsh","countryId":"163843","fcl":"L","population":0,"countryCode":"SY","name":"Karm ‘Ayyāsh","fclName":"parks,area, ...","countryName":"Syria","fcodeName":"area","adminName1":"Idlib","lat":"35.76954","fcode":"AREA"},{"adminCode1":"22","lng":"29.61667","geonameId":362890,"toponymName":"Karm Abū al Jurūf","countryId":"357994","fcl":"T","population":0,"countryCode":"EG","name":"Karm Abū al Jurūf","fclName":"mountain,hill,rock,... ","countryName":"Egypt","fcodeName":"mound(s)","adminName1":"Maţrūḩ","lat":"30.8","fcode":"MND"},{"adminCode1":"22","lng":"29.63333","geonameId":353594,"toponymName":"Karm Khiḑr","countryId":"357994","fcl":"T","population":0,"countryCode":"EG","name":"Karm Khiḑr","fclName":"mountain,hill,rock,... ","countryName":"Egypt","fcodeName":"mound(s)","adminName1":"Maţrūḩ","lat":"30.88333","fcode":"MND"},{"adminCode1":"14","lng":"29.7","geonameId":355803,"toponymName":"Karm Hulayyil","countryId":"357994","fcl":"T","population":0,"countryCode":"EG","name":"Karm Hulayyil","fclName":"mountain,hill,rock,... ","countryName":"Egypt","fcodeName":"mound(s)","adminName1":"Eastern Province","lat":"30.98333","fcode":"MND"},{"adminCode1":"22","lng":"29.65","geonameId":362035,"toponymName":"Karm Abū Şuwayliḩ","countryId":"357994","fcl":"T","population":0,"countryCode":"EG","name":"Karm Abū Şuwayliḩ","fclName":"mountain,hill,rock,... ","countryName":"Egypt","fcodeName":"mound(s)","adminName1":"Maţrūḩ","lat":"30.86667","fcode":"MND"},{"adminCode1":"06","lng":"29.8","geonameId":362443,"toponymName":"Karm Abū Khulayf","countryId":"357994","fcl":"T","population":0,"countryCode":"EG","name":"Karm Abū Khulayf","fclName":"mountain,hill,rock,... ","countryName":"Egypt","fcodeName":"mound(s)","adminName1":"Alexandria","lat":"30.95","fcode":"MND"},{"adminCode1":"03","lng":"29.91667","geonameId":362749,"toponymName":"Karm Abū Dhahab","countryId":"357994","fcl":"T","population":0,"countryCode":"EG","name":"Karm Abū Dhahab","fclName":"mountain,hill,rock,... ","countryName":"Egypt","fcodeName":"mound(s)","adminName1":"Al Buḩayrah","lat":"30.95","fcode":"MND"},{"adminCode1":"10","lng":"36.32861","geonameId":272715,"toponymName":"Tallet Karm Rashed","countryId":"272103","fcl":"T","population":0,"countryCode":"LB","name":"Tallet Karm Rashed","fclName":"mountain,hill,rock,... ","countryName":"Lebanon","fcodeName":"hill","adminName1":"Aakkâr","lat":"34.55639","fcode":"HLL"},{"adminCode1":"08","lng":"35.6625","geonameId":272717,"toponymName":"Karm Moussa","countryId":"272103","fcl":"T","population":0,"countryCode":"LB","name":"Karm Moussa","fclName":"mountain,hill,rock,... ","countryName":"Lebanon","fcodeName":"slope(s)","adminName1":"Béqaa","lat":"33.44417","fcode":"SLP"},{"adminCode1":"07","lng":"35.35389","geonameId":272725,"toponymName":"Karm ech Cheïkh","countryId":"272103","fcl":"T","population":0,"countryCode":"LB","name":"Karm ech Cheïkh","fclName":"mountain,hill,rock,... ","countryName":"Lebanon","fcodeName":"ridge(s)","adminName1":"Nabatîyé","lat":"33.31944","fcode":"RDGE"},{"adminCode1":"11","lng":"36.33","geonameId":272726,"toponymName":"Karm ech Cheïkh","countryId":"272103","fcl":"T","population":0,"countryCode":"LB","name":"Karm ech Cheïkh","fclName":"mountain,hill,rock,... ","countryName":"Lebanon","fcodeName":"mountain","adminName1":"Baalbek-Hermel","lat":"34.115","fcode":"MT"},{"adminCode1":"09","lng":"35.82556","geonameId":272742,"toponymName":"Qornet Karm el Aafs","countryId":"272103","fcl":"T","population":0,"countryCode":"LB","name":"Qornet Karm el Aafs","fclName":"mountain,hill,rock,... ","countryName":"Lebanon","fcodeName":"mountain","adminName1":"Liban-Nord","lat":"34.24778","fcode":"MT"},{"adminCode1":"06","lng":"35.39361","geonameId":272744,"toponymName":"Karm ed Dahr","countryId":"272103","fcl":"T","population":0,"countryCode":"LB","name":"Karm ed Dahr","fclName":"mountain,hill,rock,... ","countryName":"Lebanon","fcodeName":"hill","adminName1":"Liban-Sud","lat":"33.25917","fcode":"HLL"},{"adminCode1":"09","lng":"35.89167","geonameId":272747,"toponymName":"Dahr el Karm","countryId":"272103","fcl":"T","population":0,"countryCode":"LB","name":"Dahr el Karm","fclName":"mountain,hill,rock,... ","countryName":"Lebanon","fcodeName":"talus slope","adminName1":"Liban-Nord","lat":"34.33","fcode":"TAL"},{"adminCode1":"14","lng":"36.14519","geonameId":168546,"toponymName":"Karm Mughayzil","countryId":"163843","fcl":"P","population":0,"countryCode":"SY","name":"Karm Mughayzil","fclName":"city, village,...","countryName":"Syria","fcodeName":"populated place","adminName1":"Tartus","lat":"34.84927","fcode":"PPL"},{"adminCode1":"04","lng":"38.79636","geonameId":168006,"toponymName":"Khirbat Karm","countryId":"163843","fcl":"P","population":0,"countryCode":"SY","name":"Khirbat Karm","fclName":"city, village,...","countryName":"Syria","fcodeName":"populated place","adminName1":"Ar-Raqqah","lat":"36.44647","fcode":"PPL"},{"adminCode1":"04","lng":"72.98333","geonameId":1174735,"toponymName":"Karm Sar","countryId":"1168579","fcl":"P","population":0,"countryCode":"PK","name":"Karm Sar","fclName":"city, village,...","countryName":"Pakistan","fcodeName":"populated place","adminName1":"Punjab","lat":"31.13333","fcode":"PPL"},{"adminCode1":"04","lng":"73.18333","geonameId":1174738,"toponymName":"Karm Baloch","countryId":"1168579","fcl":"P","population":0,"countryCode":"PK","name":"Karm Baloch","fclName":"city, village,...","countryName":"Pakistan","fcodeName":"populated place","adminName1":"Punjab","lat":"30.88333","fcode":"PPL"},{"adminCode1":"03","lng":"35.88564","geonameId":8457215,"toponymName":"Al Karm","countryId":"163843","fcl":"P","population":0,"countryCode":"SY","name":"Al Karm","fclName":"city, village,...","countryName":"Syria","fcodeName":"populated place","adminName1":"Quneitra","lat":"33.10772","fcode":"PPL"},{"adminCode1":"29","lng":"58.3178","geonameId":9074387,"toponymName":"Karm","countryId":"130758","fcl":"P","population":0,"countryCode":"IR","name":"Karm","fclName":"city, village,...","countryName":"Iran","fcodeName":"farm village","adminName1":"Kermān","lat":"28.13944","fcode":"PPLF"},{"adminCode1":"03","lng":"29.88333","geonameId":350911,"toponymName":"Karm an Nuşf","countryId":"357994","fcl":"T","population":0,"countryCode":"EG","name":"Karm an Nuşf","fclName":"mountain,hill,rock,... ","countryName":"Egypt","fcodeName":"mound(s)","adminName1":"Al Buḩayrah","lat":"30.96667","fcode":"MND"},{"adminCode1":"22","lng":"29.6","geonameId":351732,"toponymName":"Karm al Muwayliḩī","countryId":"357994","fcl":"T","population":0,"countryCode":"EG","name":"Karm al Muwayliḩī","fclName":"mountain,hill,rock,... ","countryName":"Egypt","fcodeName":"mound(s)","adminName1":"Maţrūḩ","lat":"30.83333","fcode":"MND"},{"adminCode1":"06","lng":"29.68333","geonameId":352712,"toponymName":"Karm al Maşāni‘","countryId":"357994","fcl":"T","population":0,"countryCode":"EG","name":"Karm al Maşāni‘","fclName":"mountain,hill,rock,... ","countryName":"Egypt","fcodeName":"mound(s)","adminName1":"Alexandria","lat":"30.86667","fcode":"MND"},{"adminCode1":"03","lng":"29.95","geonameId":355080,"toponymName":"Karm al Jibālī","countryId":"357994","fcl":"T","population":0,"countryCode":"EG","name":"Karm al Jibālī","fclName":"mountain,hill,rock,... ","countryName":"Egypt","fcodeName":"mound(s)","adminName1":"Al Buḩayrah","lat":"30.93333","fcode":"MND"},{"adminCode1":"06","lng":"29.85","geonameId":347309,"toponymName":"Karm aţ Ţiflah","countryId":"357994","fcl":"T","population":0,"countryCode":"EG","name":"Karm aţ Ţiflah","fclName":"mountain,hill,rock,... ","countryName":"Egypt","fcodeName":"mound(s)","adminName1":"Alexandria","lat":"30.85","fcode":"MND"},{"adminCode1":"06","lng":"29.76667","geonameId":348070,"toponymName":"Karm Sīdī Shu‘ayb","countryId":"357994","fcl":"T","population":0,"countryCode":"EG","name":"Karm Sīdī Shu‘ayb","fclName":"mountain,hill,rock,... ","countryName":"Egypt","fcodeName":"mound(s)","adminName1":"Alexandria","lat":"30.93333","fcode":"MND"},{"adminCode1":"03","lng":"29.9","geonameId":349279,"toponymName":"Karm ash Shaybūnī","countryId":"357994","fcl":"T","population":0,"countryCode":"EG","name":"Karm ash Shaybūnī","fclName":"mountain,hill,rock,... ","countryName":"Egypt","fcodeName":"mound(s)","adminName1":"Al Buḩayrah","lat":"30.91667","fcode":"MND"},{"adminCode1":"03","lng":"29.86667","geonameId":349656,"toponymName":"Karm as Sanājirah","countryId":"357994","fcl":"T","population":0,"countryCode":"EG","name":"Karm as Sanājirah","fclName":"mountain,hill,rock,... ","countryName":"Egypt","fcodeName":"mound(s)","adminName1":"Al Buḩayrah","lat":"30.95","fcode":"MND"},{"adminCode1":"03","lng":"29.8","geonameId":350124,"toponymName":"Karm ar Rikāzī","countryId":"357994","fcl":"T","population":0,"countryCode":"EG","name":"Karm ar Rikāzī","fclName":"mountain,hill,rock,... ","countryName":"Egypt","fcodeName":"mound(s)","adminName1":"Al Buḩayrah","lat":"30.91667","fcode":"MND"},{"adminCode1":"06","lng":"29.71667","geonameId":355597,"toponymName":"Karm al Iḩbārīyah","countryId":"357994","fcl":"T","population":0,"countryCode":"EG","name":"Karm al Iḩbārīyah","fclName":"mountain,hill,rock,... ","countryName":"Egypt","fcodeName":"mound(s)","adminName1":"Alexandria","lat":"30.9","fcode":"MND"},{"adminCode1":"03","lng":"29.85","geonameId":355601,"toponymName":"Karm al ‘Ifrītah","countryId":"357994","fcl":"T","population":0,"countryCode":"EG","name":"Karm al ‘Ifrītah","fclName":"mountain,hill,rock,... ","countryName":"Egypt","fcodeName":"mound(s)","adminName1":"Al Buḩayrah","lat":"30.9","fcode":"MND"},{"adminCode1":"03","lng":"29.83333","geonameId":355605,"toponymName":"Karm al ‘Ifrīt","countryId":"357994","fcl":"T","population":0,"countryCode":"EG","name":"Karm al ‘Ifrīt","fclName":"mountain,hill,rock,... ","countryName":"Egypt","fcodeName":"mound(s)","adminName1":"Al Buḩayrah","lat":"30.9","fcode":"MND"},{"adminCode1":"03","lng":"29.85","geonameId":355606,"toponymName":"Karm al ‘Ifrīt","countryId":"357994","fcl":"T","population":0,"countryCode":"EG","name":"Karm al ‘Ifrīt","fclName":"mountain,hill,rock,... ","countryName":"Egypt","fcodeName":"mound(s)","adminName1":"Al Buḩayrah","lat":"30.88333","fcode":"MND"},{"adminCode1":"06","lng":"29.85","geonameId":355726,"toponymName":"Karm al Ḩūtīyah","countryId":"357994","fcl":"T","population":0,"countryCode":"EG","name":"Karm al Ḩūtīyah","fclName":"mountain,hill,rock,... ","countryName":"Egypt","fcodeName":"mound(s)","adminName1":"Alexandria","lat":"30.96667","fcode":"MND"},{"adminCode1":"06","lng":"29.73333","geonameId":356325,"toponymName":"Karm Ḩalaqat Qāsim","countryId":"357994","fcl":"T","population":0,"countryCode":"EG","name":"Karm Ḩalaqat Qāsim","fclName":"mountain,hill,rock,... ","countryName":"Egypt","fcodeName":"mound(s)","adminName1":"Alexandria","lat":"30.86667","fcode":"MND"},{"adminCode1":"06","lng":"29.81667","geonameId":356357,"toponymName":"Karm al Ḩājj","countryId":"357994","fcl":"T","population":0,"countryCode":"EG","name":"Karm al Ḩājj","fclName":"mountain,hill,rock,... ","countryName":"Egypt","fcodeName":"mound(s)","adminName1":"Alexandria","lat":"30.93333","fcode":"MND"},{"adminCode1":"06","lng":"29.93333","geonameId":357043,"toponymName":"Karm al Faḩḩām","countryId":"357994","fcl":"T","population":0,"countryCode":"EG","name":"Karm al Faḩḩām","fclName":"mountain,hill,rock,... ","countryName":"Egypt","fcodeName":"mound(s)","adminName1":"Alexandria","lat":"30.93333","fcode":"MND"},{"adminCode1":"06","lng":"29.95","geonameId":359532,"toponymName":"Karm al ‘Ayyāţ","countryId":"357994","fcl":"T","population":0,"countryCode":"EG","name":"Karm al ‘Ayyāţ","fclName":"mountain,hill,rock,... ","countryName":"Egypt","fcodeName":"mound(s)","adminName1":"Alexandria","lat":"30.91667","fcode":"MND"},{"adminCode1":"06","lng":"29.78333","geonameId":359566,"toponymName":"Karm al ‘Awwāmī","countryId":"357994","fcl":"T","population":0,"countryCode":"EG","name":"Karm al ‘Awwāmī","fclName":"mountain,hill,rock,... ","countryName":"Egypt","fcodeName":"mound(s)","adminName1":"Alexandria","lat":"30.8","fcode":"MND"},{"adminCode1":"06","lng":"29.7","geonameId":361679,"toponymName":"Karm al ‘Ajram","countryId":"357994","fcl":"T","population":0,"countryCode":"EG","name":"Karm al ‘Ajram","fclName":"mountain,hill,rock,... ","countryName":"Egypt","fcodeName":"mound(s)","adminName1":"Alexandria","lat":"30.9","fcode":"MND"},{"adminCode1":"06","lng":"29.8","geonameId":362580,"toponymName":"Karm Abū Ḩawīyah","countryId":"357994","fcl":"T","population":0,"countryCode":"EG","name":"Karm Abū Ḩawīyah","fclName":"mountain,hill,rock,... ","countryName":"Egypt","fcodeName":"mound(s)","adminName1":"Alexandria","lat":"30.86667","fcode":"MND"},{"adminCode1":"06","lng":"29.71667","geonameId":362819,"toponymName":"Karm Abū ‘Azīzah","countryId":"357994","fcl":"T","population":0,"countryCode":"EG","name":"Karm Abū ‘Azīzah","fclName":"mountain,hill,rock,... ","countryName":"Egypt","fcodeName":"mound(s)","adminName1":"Alexandria","lat":"30.98333","fcode":"MND"},{"adminCode1":"05","lng":"35.74917","geonameId":266355,"toponymName":"Ouâdi el Karm","countryId":"272103","fcl":"P","population":0,"countryCode":"LB","name":"Ouâdi el Karm","fclName":"city, village,...","countryName":"Lebanon","fcodeName":"populated place","adminName1":"Mont-Liban","lat":"33.94861","fcode":"PPL"},{"adminCode1":"10","lng":"36.26667","geonameId":272714,"toponymName":"Aarîd Karm Sbât","countryId":"272103","fcl":"T","population":0,"countryCode":"LB","name":"Aarîd Karm Sbât","fclName":"mountain,hill,rock,... ","countryName":"Lebanon","fcodeName":"slope(s)","adminName1":"Aakkâr","lat":"34.47972","fcode":"SLP"},{"adminCode1":"08","lng":"35.80056","geonameId":272720,"toponymName":"Karm Bou Zraïdi","countryId":"272103","fcl":"T","population":0,"countryCode":"LB","name":"Karm Bou Zraïdi","fclName":"mountain,hill,rock,... ","countryName":"Lebanon","fcodeName":"mountain","adminName1":"Béqaa","lat":"33.61889","fcode":"MT"},{"adminCode1":"11","lng":"36.36417","geonameId":272721,"toponymName":"Karm Bou Terkhâne","countryId":"272103","fcl":"T","population":0,"countryCode":"LB","name":"Karm Bou Terkhâne","fclName":"mountain,hill,rock,... ","countryName":"Lebanon","fcodeName":"mountain","adminName1":"Baalbek-Hermel","lat":"34.40139","fcode":"MT"},{"adminCode1":"06","lng":"35.32417","geonameId":272732,"toponymName":"Karm en Nezzâl","countryId":"272103","fcl":"T","population":0,"countryCode":"LB","name":"Karm en Nezzâl","fclName":"mountain,hill,rock,... ","countryName":"Lebanon","fcodeName":"slope(s)","adminName1":"Liban-Sud","lat":"33.28417","fcode":"SLP"},{"adminCode1":"10","lng":"36.06111","geonameId":272733,"toponymName":"Karm el Aasfoûr","countryId":"272103","fcl":"P","population":0,"countryCode":"LB","name":"Karm el Aasfoûr","fclName":"city, village,...","countryName":"Lebanon","fcodeName":"populated place","adminName1":"Aakkâr","lat":"34.52694","fcode":"PPL"},{"adminCode1":"14","lng":"36.22416","geonameId":172205,"toponymName":"‘Ayn al Karm","countryId":"163843","fcl":"P","population":0,"countryCode":"SY","name":"‘Ayn al Karm","fclName":"city, village,...","countryName":"Syria","fcodeName":"populated place","adminName1":"Tartus","lat":"35.01791","fcode":"PPL"},{"adminCode1":"02","lng":"36.08333","geonameId":168554,"toponymName":"Karm al Ḩalwānī","countryId":"163843","fcl":"P","population":0,"countryCode":"SY","name":"Karm al Ḩalwānī","fclName":"city, village,...","countryName":"Syria","fcodeName":"populated place","adminName1":"Latakia","lat":"35.51667","fcode":"PPL"},{"adminCode1":"03","lng":"29.85","geonameId":350530,"toponymName":"Karm Qird al Kabīr","countryId":"357994","fcl":"T","population":0,"countryCode":"EG","name":"Karm Qird al Kabīr","fclName":"mountain,hill,rock,... ","countryName":"Egypt","fcodeName":"mound(s)","adminName1":"Al Buḩayrah","lat":"30.93333","fcode":"MND"},{"adminCode1":"10","lng":"30.81667","geonameId":357868,"toponymName":"El-Karm","countryId":"357994","fcl":"P","population":0,"countryCode":"EG","name":"El-Karm","fclName":"city, village,...","countryName":"Egypt","fcodeName":"populated place","adminName1":"Al Minyā","lat":"27.93333","fcode":"PPL"},{"adminCode1":"26","lng":"34.38333","geonameId":357869,"toponymName":"El-Karm","countryId":"357994","fcl":"T","population":0,"countryCode":"EG","name":"El-Karm","fclName":"mountain,hill,rock,... ","countryName":"Egypt","fcodeName":"peak","adminName1":"South Sinai","lat":"29.11667","fcode":"PK"},{"adminCode1":"06","lng":"29.71667","geonameId":352273,"toponymName":"Karm al Mishmish","countryId":"357994","fcl":"T","population":0,"countryCode":"EG","name":"Karm al Mishmish","fclName":"mountain,hill,rock,... ","countryName":"Egypt","fcodeName":"mound(s)","adminName1":"Alexandria","lat":"30.9","fcode":"MND"},{"adminCode1":"03","lng":"29.88333","geonameId":356090,"toponymName":"Karm al Hars","countryId":"357994","fcl":"T","population":0,"countryCode":"EG","name":"Karm al Hars","fclName":"mountain,hill,rock,... ","countryName":"Egypt","fcodeName":"mound(s)","adminName1":"Al Buḩayrah","lat":"30.91667","fcode":"MND"},{"adminCode1":"10","lng":"36.86604","geonameId":168559,"toponymName":"Jabal al Karm","countryId":"163843","fcl":"T","population":0,"countryCode":"SY","name":"Jabal al Karm","fclName":"mountain,hill,rock,... ","countryName":"Syria","fcodeName":"mountain","adminName1":"Hama","lat":"35.18624","fcode":"MT"},{"adminCode1":"01","lng":"34.56667","geonameId":294473,"toponymName":"Kharm","countryId":"294640","fcl":"L","population":0,"countryCode":"IL","name":"Kharm","fclName":"parks,area, ...","countryName":"Israel","fcodeName":"locality","adminName1":"Southern District","lat":"31.26667","fcode":"LCTY"},{"adminCode1":"15","lng":"48.21667","geonameId":128538,"toponymName":"Karm ‘Alī","countryId":"130758","fcl":"P","population":0,"countryCode":"IR","name":"Karm ‘Alī","fclName":"city, village,...","countryName":"Iran","fcodeName":"populated place","adminName1":"Khūzestān","lat":"32.25","fcode":"PPL"},{"adminCode1":"04","lng":"72.2205","geonameId":1370798,"toponymName":"Angra","countryId":"1168579","fcl":"P","population":0,"countryCode":"PK","name":"Angra","fclName":"city, village,...","countryName":"Pakistan","fcodeName":"populated place","adminName1":"Punjab","lat":"32.36523","fcode":"PPL"},{"adminCode1":"08","lng":"36.02032","geonameId":8041207,"toponymName":"Karm ‘Alī","countryId":"163843","fcl":"P","population":0,"countryCode":"SY","name":"Karm ‘Alī","fclName":"city, village,...","countryName":"Syria","fcodeName":"populated place","adminName1":"Rif-dimashq","lat":"33.40356","fcode":"PPL"},{"adminCode1":"14","lng":"35.94381","geonameId":8266765,"toponymName":"Z̧ahr Karm Sa‘īd","countryId":"163843","fcl":"T","population":0,"countryCode":"SY","name":"Z̧ahr Karm Sa‘īd","fclName":"mountain,hill,rock,... ","countryName":"Syria","fcodeName":"hill","adminName1":"Tartus","lat":"34.9277","fcode":"HLL"},{"adminCode1":"06","lng":"29.73333","geonameId":347623,"toponymName":"Karm Ţā’il Mūsá","countryId":"357994","fcl":"T","population":0,"countryCode":"EG","name":"Karm Ţā’il Mūsá","fclName":"mountain,hill,rock,... ","countryName":"Egypt","fcodeName":"mound(s)","adminName1":"Alexandria","lat":"30.88333","fcode":"MND"},{"adminCode1":"05","lng":"35.79722","geonameId":268772,"toponymName":"Râs el Karm","countryId":"272103","fcl":"P","population":0,"countryCode":"LB","name":"Râs el Karm","fclName":"city, village,...","countryName":"Lebanon","fcodeName":"populated place","adminName1":"Mont-Liban","lat":"34.06667","fcode":"PPL"},{"adminCode1":"06","lng":"35.21806","geonameId":272729,"toponymName":"Karm er Râs","countryId":"272103","fcl":"T","population":0,"countryCode":"LB","name":"Karm er Râs","fclName":"mountain,hill,rock,... ","countryName":"Lebanon","fcodeName":"ridge(s)","adminName1":"Liban-Sud","lat":"33.19472","fcode":"RDGE"},{"adminCode1":"06","lng":"35.31417","geonameId":272730,"toponymName":"Karm er Râs","countryId":"272103","fcl":"L","population":0,"countryCode":"LB","name":"Karm er Râs","fclName":"parks,area, ...","countryName":"Lebanon","fcodeName":"area","adminName1":"Liban-Sud","lat":"33.22472","fcode":"AREA"},{"adminCode1":"06","lng":"35.26361","geonameId":272731,"toponymName":"Karm er Râs","countryId":"272103","fcl":"T","population":0,"countryCode":"LB","name":"Karm er Râs","fclName":"mountain,hill,rock,... ","countryName":"Lebanon","fcodeName":"hill","adminName1":"Liban-Sud","lat":"33.16667","fcode":"HLL"},{"adminCode1":"00","lng":"9.83333","geonameId":2469986,"toponymName":"Ra’s al Karm","countryId":"2464461","fcl":"T","population":0,"countryCode":"TN","name":"Ra’s al Karm","fclName":"mountain,hill,rock,... ","countryName":"Tunisia","fcodeName":"point","adminName1":"","lat":"37.25","fcode":"PT"},{"adminCode1":"03","lng":"29.81667","geonameId":353931,"toponymName":"‘Ilwat Karm al Ḩājj","countryId":"357994","fcl":"T","population":0,"countryCode":"EG","name":"‘Ilwat Karm al Ḩājj","fclName":"mountain,hill,rock,... ","countryName":"Egypt","fcodeName":"mound(s)","adminName1":"Al Buḩayrah","lat":"30.91667","fcode":"MND"},{"adminCode1":"11","lng":"36.32278","geonameId":266354,"toponymName":"Jabal Ouâdi el Karm","countryId":"272103","fcl":"T","population":0,"countryCode":"LB","name":"Jabal Ouâdi el Karm","fclName":"mountain,hill,rock,... ","countryName":"Lebanon","fcodeName":"mountains","adminName1":"Baalbek-Hermel","lat":"34.3475","fcode":"MTS"},{"adminCode1":"06","lng":"35.38","geonameId":268326,"toponymName":"Sahrîj Karm el Hammâr","countryId":"272103","fcl":"T","population":0,"countryCode":"LB","name":"Sahrîj Karm el Hammâr","fclName":"mountain,hill,rock,... ","countryName":"Lebanon","fcodeName":"ridge(s)","adminName1":"Liban-Sud","lat":"33.26417","fcode":"RDGE"},{"adminCode1":"10","lng":"36.11778","geonameId":272722,"toponymName":"Tellet Karm et Tîne","countryId":"272103","fcl":"T","population":0,"countryCode":"LB","name":"Tellet Karm et Tîne","fclName":"mountain,hill,rock,... ","countryName":"Lebanon","fcodeName":"hill","adminName1":"Aakkâr","lat":"34.55278","fcode":"HLL"},{"adminCode1":"07","lng":"35.41778","geonameId":272728,"toponymName":"Tell Karm ech Chqîf","countryId":"272103","fcl":"T","population":0,"countryCode":"LB","name":"Tell Karm ech Chqîf","fclName":"mountain,hill,rock,... ","countryName":"Lebanon","fcodeName":"hill","adminName1":"Nabatîyé","lat":"33.41889","fcode":"HLL"},{"adminCode1":"04","lng":"35.5293","geonameId":6274966,"toponymName":"Karm ez Zaïtoun","countryId":"272103","fcl":"P","population":0,"countryCode":"LB","name":"Karm ez Zaïtoun","fclName":"city, village,...","countryName":"Lebanon","fcodeName":"section of populated place","adminName1":"Beyrouth","lat":"33.88729","fcode":"PPLX"}]}