{"totalResultsCount":28,"geonames":[{"countryId":"2017370","adminCode1":"69","countryName":"Russia","fclName":"city, village,...","countryCode":"RU","lng":"33.51086","fcodeName":"populated place","toponymName":"Kamenets","fcl":"P","name":"Kamenets","fcode":"PPL","geonameId":553798,"lat":"54.46932","adminName1":"Smolensk","population":0},{"countryId":"2017370","adminCode1":"52","countryName":"Russia","fclName":"city, village,...","countryCode":"RU","lng":"34.53316","fcodeName":"populated place","toponymName":"Kamenets","fcl":"P","name":"Kamenets","fcode":"PPL","geonameId":553794,"lat":"58.26837","adminName1":"Novgorod","population":0},{"countryId":"2017370","adminCode1":"77","countryName":"Russia","fclName":"city, village,...","countryCode":"RU","lng":"35.33572","fcodeName":"populated place","toponymName":"Kamenets","fcl":"P","name":"Kamenets","fcode":"PPL","geonameId":553795,"lat":"58.0336","adminName1":"Tverskaya","population":0},{"countryId":"2017370","adminCode1":"69","countryName":"Russia","fclName":"city, village,...","countryCode":"RU","lng":"33.71278","fcodeName":"populated place","toponymName":"Kamenets","fcl":"P","name":"Kamenets","fcode":"PPL","geonameId":553796,"lat":"55.5225","adminName1":"Smolensk","population":0},{"countryId":"2017370","adminCode1":"62","countryName":"Russia","fclName":"city, village,...","countryCode":"RU","lng":"39.86667","fcodeName":"populated place","toponymName":"Kamenets","fcl":"P","name":"Kamenets","fcode":"PPL","geonameId":553797,"lat":"54.51667","adminName1":"Rjazan","population":0},{"countryId":"2017370","adminCode1":"56","countryName":"Russia","fclName":"city, village,...","countryCode":"RU","lng":"35.79986","fcodeName":"populated place","toponymName":"Kamenets","fcl":"P","name":"Kamenets","fcode":"PPL","geonameId":553800,"lat":"52.77569","adminName1":"Orjol","population":0},{"countryId":"2017370","adminCode1":"41","countryName":"Russia","fclName":"city, village,...","countryCode":"RU","lng":"35.3241","fcodeName":"populated place","toponymName":"Kamenets","fcl":"P","name":"Kamenets","fcode":"PPL","geonameId":553802,"lat":"52.2587","adminName1":"Kursk","population":0},{"countryId":"2017370","adminCode1":"56","countryName":"Russia","fclName":"city, village,...","countryCode":"RU","lng":"35.30059","fcodeName":"populated place","toponymName":"Kamenets","fcl":"P","name":"Kamenets","fcode":"PPL","geonameId":818637,"lat":"52.70207","adminName1":"Orjol","population":0},{"countryId":"2017370","adminCode1":"10","countryName":"Russia","fclName":"city, village,...","countryCode":"RU","lng":"34.795","fcodeName":"populated place","toponymName":"Kamenets","fcl":"P","name":"Kamenets","fcode":"PPL","geonameId":819398,"lat":"52.37917","adminName1":"Brjansk","population":0},{"countryId":"2017370","adminCode1":"69","countryName":"Russia","fclName":"city, village,...","countryCode":"RU","lng":"34.05916","fcodeName":"populated place","toponymName":"Kamenets","fcl":"P","name":"Kamenets","fcode":"PPL","geonameId":812285,"lat":"55.54869","adminName1":"Smolensk","population":0},{"countryId":"2017370","adminCode1":"25","countryName":"Russia","fclName":"city, village,...","countryCode":"RU","lng":"33.76278","fcodeName":"populated place","toponymName":"Kamenets","fcl":"P","name":"Kamenets","fcode":"PPL","geonameId":810895,"lat":"54.31694","adminName1":"Kaluga","population":0},{"countryId":"2017370","adminCode1":"42","countryName":"Russia","fclName":"city, village,...","countryCode":"RU","lng":"28.5837","fcodeName":"populated place","toponymName":"Kamenets","fcl":"P","name":"Kamenets","fcode":"PPL","geonameId":7611441,"lat":"58.8866","adminName1":"Leningrad","population":0},{"countryId":"2017370","adminCode1":"41","countryName":"Russia","fclName":"city, village,...","countryCode":"RU","lng":"36.4923","fcodeName":"populated place","toponymName":"Kamenets","fcl":"P","name":"Kamenets","fcode":"PPL","geonameId":7451711,"lat":"52.1771","adminName1":"Kursk","population":0},{"countryId":"2017370","adminCode1":"56","countryName":"Russia","fclName":"city, village,...","countryCode":"RU","lng":"35.9443","fcodeName":"populated place","toponymName":"Kamenets","fcl":"P","name":"Kamenets","fcode":"PPL","geonameId":553801,"lat":"52.4856","adminName1":"Orjol","population":0},{"countryId":"732800","adminCode1":"44","countryName":"Bulgaria","fclName":"city, village,...","countryCode":"BG","lng":"25.41667","fcodeName":"populated place","toponymName":"Kamenets","fcl":"P","name":"Kamenets","fcode":"PPL","geonameId":730700,"lat":"41.46667","adminName1":"Kŭrdzhali","population":0},{"countryId":"732800","adminCode1":"50","countryName":"Bulgaria","fclName":"city, village,...","countryCode":"BG","lng":"25","fcodeName":"populated place","toponymName":"Kamenets","fcl":"P","name":"Kamenets","fcode":"PPL","geonameId":730698,"lat":"43.33333","adminName1":"Pleven","population":0},{"countryId":"630336","adminCode1":"05","countryName":"Belarus","fclName":"city, village,...","countryCode":"BY","lng":"27.4249","fcodeName":"populated place","toponymName":"Kamenets","fcl":"P","name":"Kamenets","fcode":"PPL","geonameId":627657,"lat":"54.171","adminName1":"Minskaja Voblasts’","population":0},{"countryId":"2017370","adminCode1":"10","countryName":"Russia","fclName":"city, village,...","countryCode":"RU","lng":"33.0113","fcodeName":"populated place","toponymName":"Kamenets","fcl":"P","name":"Kamenets","fcode":"PPL","geonameId":553799,"lat":"53.31538","adminName1":"Brjansk","population":0},{"countryId":"630336","adminCode1":"07","countryName":"Belarus","fclName":"city, village,...","countryCode":"BY","lng":"29.2981","fcodeName":"populated place","toponymName":"Kamenets","fcl":"P","name":"Kamenets","fcode":"PPL","geonameId":8232936,"lat":"54.7135","adminName1":"Vitsyebskaya Voblastsʼ","population":0},{"countryId":"2017370","adminCode1":"60","countryName":"Russia","fclName":"city, village,...","countryCode":"RU","lng":"28.87281","fcodeName":"populated place","toponymName":"Kamenets","fcl":"P","name":"Kamenets","fcode":"PPL","geonameId":7094323,"lat":"57.02861","adminName1":"Pskov","population":0},{"countryId":"2017370","adminCode1":"60","countryName":"Russia","fclName":"city, village,...","countryCode":"RU","lng":"28.367","fcodeName":"populated place","toponymName":"Kamenets","fcl":"P","name":"Kamenets","fcode":"PPL","geonameId":7080763,"lat":"56.3806","adminName1":"Pskov","population":0},{"countryId":"2017370","adminCode1":"90","countryName":"Russia","fclName":"city, village,...","countryCode":"RU","lng":"54.16818","fcodeName":"populated place","toponymName":"Kamenets-Podol’skiy","fcl":"P","name":"Kamenets-Podol’skiy","fcode":"PPL","geonameId":553790,"lat":"58.43757","adminName1":"Perm","population":0},{"countryId":"2017370","adminCode1":"41","countryName":"Russia","fclName":"city, village,...","countryCode":"RU","lng":"35.65972","fcodeName":"populated place","toponymName":"Bol’shoy Kamenets","fcl":"P","name":"Bol’shoy Kamenets","fcode":"PPL","geonameId":573094,"lat":"51.33","adminName1":"Kursk","population":0},{"countryId":"2017370","adminCode1":"41","countryName":"Russia","fclName":"city, village,...","countryCode":"RU","lng":"35.66528","fcodeName":"populated place","toponymName":"Malyy Kamenets","fcl":"P","name":"Malyy Kamenets","fcode":"PPL","geonameId":529933,"lat":"51.2325","adminName1":"Kursk","population":0},{"countryId":"2017370","adminCode1":"30","countryName":"Russia","fclName":"city, village,...","countryCode":"RU","lng":"135.52164","fcodeName":"populated place","toponymName":"Kamenets-Podol’sk","fcl":"P","name":"Kamenets-Podol'sk","fcode":"PPL","geonameId":2023252,"lat":"47.8341","adminName1":"Khabarovsk Krai","population":0},{"countryId":"630336","adminCode1":"05","countryName":"Belarus","fclName":"city, village,...","countryCode":"BY","lng":"29.0762","fcodeName":"populated place","toponymName":"Bol’shoy Kamenets","fcl":"P","name":"Bol’shoy Kamenets","fcode":"PPL","geonameId":629843,"lat":"54.5386","adminName1":"Minskaja Voblasts’","population":0},{"countryId":"732800","adminCode1":"65","countryName":"Bulgaria","fclName":"city, village,...","countryCode":"BG","lng":"26.73333","fcodeName":"populated place","toponymName":"Kamenets","fcl":"P","name":"Kamenets","fcode":"PPL","geonameId":730699,"lat":"42.33333","adminName1":"Yambol","population":0},{"countryId":"630336","adminCode1":"05","countryName":"Belarus","fclName":"city, village,...","countryCode":"BY","lng":"29.08","fcodeName":"populated place","toponymName":"Malyy Kamenets","fcl":"P","name":"Malyy Kamenets","fcode":"PPL","geonameId":8330401,"lat":"54.5647","adminName1":"Minskaja Voblasts’","population":0}]}