{"totalResultsCount":15,"geonames":[{"countryId":"2017370","adminCode1":"30","countryName":"Russia","fclName":"city, village,...","countryCode":"RU","lng":"143.35","fcodeName":"populated place","toponymName":"Kavkaz","fcl":"P","name":"Kavkaz","fcode":"PPL","geonameId":2124944,"lat":"59.36667","adminName1":"Khabarovsk Krai","population":0},{"countryId":"2017370","adminCode1":"08","countryName":"Russia","fclName":"city, village,...","countryCode":"RU","lng":"54.9","fcodeName":"populated place","toponymName":"Kavkaz","fcl":"P","name":"Kavkaz","fcode":"PPL","geonameId":551672,"lat":"55.11667","adminName1":"Bashkortostan","population":0},{"countryId":"2017370","adminCode1":"38","countryName":"Russia","fclName":"city, village,...","countryCode":"RU","lng":"36.68111","fcodeName":"populated place","toponymName":"Kavkaz","fcl":"P","name":"Kavkaz","fcode":"PPL","geonameId":551673,"lat":"45.34222","adminName1":"Krasnodarskiy","population":0},{"countryId":"2017370","adminCode1":"04","countryName":"Russia","fclName":"city, village,...","countryCode":"RU","lng":"81.76667","fcodeName":"populated place","toponymName":"Kavkaz","fcl":"P","name":"Kavkaz","fcode":"PPL","geonameId":1504163,"lat":"51.25","adminName1":"Altai Krai","population":0},{"countryId":"2017370","adminCode1":"20","countryName":"Russia","fclName":"city, village,...","countryCode":"RU","lng":"101.53333","fcodeName":"populated place","toponymName":"Kavkaz","fcl":"P","name":"Kavkaz","fcode":"PPL","geonameId":2023052,"lat":"53.43333","adminName1":"Irkutsk","population":0},{"countryId":"630336","adminCode1":"02","countryName":"Belarus","fclName":"city, village,...","countryCode":"BY","lng":"30.8286","fcodeName":"populated place","toponymName":"Kavkaz","fcl":"P","name":"Kavkaz","fcode":"PPL","geonameId":812517,"lat":"53.0592","adminName1":"Gomel","population":0},{"countryId":"690791","adminCode1":"14","countryName":"Ukraine","fclName":"city, village,...","countryCode":"UA","lng":"39.80302","fcodeName":"populated place","toponymName":"Uralo-Kavkaz","fcl":"P","name":"Uralo-Kavkaz","fcode":"PPL","geonameId":690673,"lat":"48.3211","adminName1":"Luhansk","population":3033},{"countryId":"2017370","adminCode1":"01","countryName":"Russia","fclName":"city, village,...","countryCode":"RU","lng":"40.26667","fcodeName":"populated place","toponymName":"Novyy Kavkaz","fcl":"P","name":"Novyy Kavkaz","fcode":"PPL","geonameId":517006,"lat":"44.73333","adminName1":"Adygeya","population":0},{"countryId":"2017370","adminCode1":"20","countryName":"Russia","fclName":"city, village,...","countryCode":"RU","lng":"98.3403","fcodeName":"populated place","toponymName":"Trakt-Kavkaz","fcl":"P","name":"Trakt-Kavkaz","fcode":"PPL","geonameId":1489316,"lat":"56.3022","adminName1":"Irkutsk","population":0},{"countryId":"3686110","adminCode1":"02","countryName":"Colombia","fclName":"city, village,...","countryCode":"CO","lng":"-75.19349","fcodeName":"populated place","toponymName":"Caucasia","fcl":"P","name":"Caucasia","fcode":"PPL","geonameId":3687025,"lat":"7.98654","adminName1":"Antioquia","population":58034},{"countryId":"690791","adminCode1":"16","countryName":"Ukraine","fclName":"city, village,...","countryCode":"UA","lng":"30.9","fcodeName":"populated place","toponymName":"Kavkaz","fcl":"P","name":"Kavkaz","fcode":"PPL","geonameId":706609,"lat":"47.33333","adminName1":"Mykolaiv","population":0},{"countryId":"690791","adminCode1":"16","countryName":"Ukraine","fclName":"city, village,...","countryCode":"UA","lng":"33.06483","fcodeName":"populated place","toponymName":"Kavkaz","fcl":"P","name":"Kavkaz","fcode":"PPL","geonameId":706610,"lat":"47.28758","adminName1":"Mykolaiv","population":0},{"countryId":"690791","adminCode1":"05","countryName":"Ukraine","fclName":"city, village,...","countryCode":"UA","lng":"36.86083","fcodeName":"populated place","toponymName":"Novyy Kavkaz","fcl":"P","name":"Novyy Kavkaz","fcode":"PPL","geonameId":699522,"lat":"48.75434","adminName1":"Donetsk","population":0},{"countryId":"690791","adminCode1":"14","countryName":"Ukraine","fclName":"city, village,...","countryCode":"UA","lng":"39.65972","fcodeName":"populated place","toponymName":"Krasnyy Kavkaz","fcl":"P","name":"Krasnyy Kavkaz","fcode":"PPL","geonameId":704216,"lat":"48.74028","adminName1":"Luhansk","population":0},{"countryId":"2017370","adminCode1":"62","countryName":"Russia","fclName":"city, village,...","countryCode":"RU","lng":"41.61667","fcodeName":"populated place","toponymName":"Vesëlyy Kavkaz","fcl":"P","name":"Vesëlyy Kavkaz","fcode":"PPL","geonameId":474023,"lat":"54.11667","adminName1":"Rjazan","population":0}]}