{"totalResultsCount":15,"geonames":[{"countryId":"2017370","adminCode1":"69","countryName":"Russia","fclName":"city, village,...","countryCode":"RU","lng":"33.51086","fcodeName":"populated place","toponymName":"Kamenets","fcl":"P","name":"Kamenets","fcode":"PPL","geonameId":553798,"lat":"54.46932","adminName1":"Smolensk","population":0},{"countryId":"2017370","adminCode1":"52","countryName":"Russia","fclName":"city, village,...","countryCode":"RU","lng":"34.53316","fcodeName":"populated place","toponymName":"Kamenets","fcl":"P","name":"Kamenets","fcode":"PPL","geonameId":553794,"lat":"58.26837","adminName1":"Novgorod","population":0},{"countryId":"2017370","adminCode1":"69","countryName":"Russia","fclName":"city, village,...","countryCode":"RU","lng":"33.71278","fcodeName":"populated place","toponymName":"Kamenets","fcl":"P","name":"Kamenets","fcode":"PPL","geonameId":553796,"lat":"55.5225","adminName1":"Smolensk","population":0},{"countryId":"2017370","adminCode1":"10","countryName":"Russia","fclName":"city, village,...","countryCode":"RU","lng":"34.795","fcodeName":"populated place","toponymName":"Kamenets","fcl":"P","name":"Kamenets","fcode":"PPL","geonameId":819398,"lat":"52.37917","adminName1":"Brjansk","population":0},{"countryId":"2017370","adminCode1":"69","countryName":"Russia","fclName":"city, village,...","countryCode":"RU","lng":"34.05916","fcodeName":"populated place","toponymName":"Kamenets","fcl":"P","name":"Kamenets","fcode":"PPL","geonameId":812285,"lat":"55.54869","adminName1":"Smolensk","population":0},{"countryId":"2017370","adminCode1":"25","countryName":"Russia","fclName":"city, village,...","countryCode":"RU","lng":"33.76278","fcodeName":"populated place","toponymName":"Kamenets","fcl":"P","name":"Kamenets","fcode":"PPL","geonameId":810895,"lat":"54.31694","adminName1":"Kaluga","population":0},{"countryId":"2017370","adminCode1":"42","countryName":"Russia","fclName":"city, village,...","countryCode":"RU","lng":"28.5837","fcodeName":"populated place","toponymName":"Kamenets","fcl":"P","name":"Kamenets","fcode":"PPL","geonameId":7611441,"lat":"58.8866","adminName1":"Leningrad","population":0},{"countryId":"630336","adminCode1":"05","countryName":"Belarus","fclName":"city, village,...","countryCode":"BY","lng":"27.4249","fcodeName":"populated place","toponymName":"Kamenets","fcl":"P","name":"Kamenets","fcode":"PPL","geonameId":627657,"lat":"54.171","adminName1":"Minskaja Voblasts’","population":0},{"countryId":"2017370","adminCode1":"10","countryName":"Russia","fclName":"city, village,...","countryCode":"RU","lng":"33.0113","fcodeName":"populated place","toponymName":"Kamenets","fcl":"P","name":"Kamenets","fcode":"PPL","geonameId":553799,"lat":"53.31538","adminName1":"Brjansk","population":0},{"countryId":"630336","adminCode1":"07","countryName":"Belarus","fclName":"city, village,...","countryCode":"BY","lng":"29.2981","fcodeName":"populated place","toponymName":"Kamenets","fcl":"P","name":"Kamenets","fcode":"PPL","geonameId":8232936,"lat":"54.7135","adminName1":"Vitsyebskaya Voblastsʼ","population":0},{"countryId":"2017370","adminCode1":"60","countryName":"Russia","fclName":"city, village,...","countryCode":"RU","lng":"28.87281","fcodeName":"populated place","toponymName":"Kamenets","fcl":"P","name":"Kamenets","fcode":"PPL","geonameId":7094323,"lat":"57.02861","adminName1":"Pskov","population":0},{"countryId":"2017370","adminCode1":"60","countryName":"Russia","fclName":"city, village,...","countryCode":"RU","lng":"28.367","fcodeName":"populated place","toponymName":"Kamenets","fcl":"P","name":"Kamenets","fcode":"PPL","geonameId":7080763,"lat":"56.3806","adminName1":"Pskov","population":0},{"countryId":"630336","adminCode1":"01","countryName":"Belarus","fclName":"city, village,...","countryCode":"BY","lng":"23.81","fcodeName":"populated place","toponymName":"Kamyanyets","fcl":"P","name":"Kamyanyets","fcode":"PPL","geonameId":627711,"lat":"52.40014","adminName1":"Brestskaya Voblastsʼ","population":8700},{"countryId":"630336","adminCode1":"05","countryName":"Belarus","fclName":"city, village,...","countryCode":"BY","lng":"29.0762","fcodeName":"populated place","toponymName":"Bol’shoy Kamenets","fcl":"P","name":"Bol’shoy Kamenets","fcode":"PPL","geonameId":629843,"lat":"54.5386","adminName1":"Minskaja Voblasts’","population":0},{"countryId":"630336","adminCode1":"05","countryName":"Belarus","fclName":"city, village,...","countryCode":"BY","lng":"29.08","fcodeName":"populated place","toponymName":"Malyy Kamenets","fcl":"P","name":"Malyy Kamenets","fcode":"PPL","geonameId":8330401,"lat":"54.5647","adminName1":"Minskaja Voblasts’","population":0}]}