{"totalResultsCount":12,"geonames":[{"countryId":"2017370","adminCode1":"84","countryName":"Russia","fclName":"city, village,...","countryCode":"RU","lng":"46.18333","fcodeName":"populated place","toponymName":"Karpov","fcl":"P","name":"Karpov","fcode":"PPL","geonameId":552252,"lat":"49.68333","adminName1":"Volgograd","population":0},{"countryId":"2017370","adminCode1":"13","countryName":"Russia","fclName":"city, village,...","countryCode":"RU","lng":"61.3","fcodeName":"populated place","toponymName":"Karpov","fcl":"P","name":"Karpov","fcode":"PPL","geonameId":1504340,"lat":"54.4","adminName1":"Chelyabinsk","population":0},{"countryId":"2017370","adminCode1":"10","countryName":"Russia","fclName":"city, village,...","countryCode":"RU","lng":"35.0075","fcodeName":"populated place","toponymName":"Karpov","fcl":"P","name":"Karpov","fcode":"PPL","geonameId":819995,"lat":"53.04028","adminName1":"Brjansk","population":0},{"countryId":"2017370","adminCode1":"72","countryName":"Russia","fclName":"city, village,...","countryCode":"RU","lng":"41.89157","fcodeName":"populated place","toponymName":"Karpov","fcl":"P","name":"Karpov","fcode":"PPL","geonameId":552251,"lat":"51.83082","adminName1":"Tambov","population":0},{"countryId":"2017370","adminCode1":"61","countryName":"Russia","fclName":"city, village,...","countryCode":"RU","lng":"41.87876","fcodeName":"populated place","toponymName":"Karpov","fcl":"P","name":"Karpov","fcode":"PPL","geonameId":552254,"lat":"47.60262","adminName1":"Rostov","population":0},{"countryId":"2017370","adminCode1":"07","countryName":"Russia","fclName":"city, village,...","countryCode":"RU","lng":"45.66139","fcodeName":"abandoned populated place","toponymName":"Karpov","fcl":"P","name":"Karpov","fcode":"PPLQ","geonameId":552253,"lat":"48.11694","adminName1":"Astrakhan","population":0},{"countryId":"1522867","adminCode1":"00","countryName":"Kazakhstan","fclName":"city, village,...","countryCode":"KZ","lng":"50.56667","fcodeName":"populated place","toponymName":"Karpov","fcl":"P","name":"Karpov","fcode":"PPL","geonameId":609514,"lat":"50.81667","adminName1":"","population":0},{"countryId":"1522867","adminCode1":"00","countryName":"Kazakhstan","fclName":"city, village,...","countryCode":"KZ","lng":"50.7","fcodeName":"populated place","toponymName":"Karpov","fcl":"P","name":"Karpov","fcode":"PPL","geonameId":609515,"lat":"50.61667","adminName1":"","population":0},{"countryId":"1522867","adminCode1":"00","countryName":"Kazakhstan","fclName":"city, village,...","countryCode":"KZ","lng":"49.18333","fcodeName":"populated place","toponymName":"Karpov","fcl":"P","name":"Karpov","fcode":"PPL","geonameId":609516,"lat":"50.31667","adminName1":"","population":0},{"countryId":"1522867","adminCode1":"00","countryName":"Kazakhstan","fclName":"city, village,...","countryCode":"KZ","lng":"50.25","fcodeName":"populated place","toponymName":"Karpov","fcl":"P","name":"Karpov","fcode":"PPL","geonameId":609517,"lat":"50.28333","adminName1":"","population":0},{"countryId":"1522867","adminCode1":"00","countryName":"Kazakhstan","fclName":"city, village,...","countryCode":"KZ","lng":"50.56667","fcodeName":"populated place","toponymName":"Karpovo","fcl":"P","name":"Karpovo","fcode":"PPL","geonameId":609513,"lat":"51.46667","adminName1":"","population":0},{"countryId":"2017370","adminCode1":"61","countryName":"Russia","fclName":"city, village,...","countryCode":"RU","lng":"40.0481","fcodeName":"populated place","toponymName":"Karpovka","fcl":"P","name":"Karpovka","fcode":"PPL","geonameId":552242,"lat":"49.15642","adminName1":"Rostov","population":0}]}