{"totalResultsCount":7,"geonames":[{"countryId":"2017370","adminCode1":"42","countryName":"Russia","fclName":"city, village,...","countryCode":"RU","lng":"28.5837","fcodeName":"populated place","toponymName":"Kamenets","fcl":"P","name":"Kamenets","fcode":"PPL","geonameId":7611441,"lat":"58.8866","adminName1":"Leningrad","population":0},{"countryId":"630336","adminCode1":"05","countryName":"Belarus","fclName":"city, village,...","countryCode":"BY","lng":"27.4249","fcodeName":"populated place","toponymName":"Kamenets","fcl":"P","name":"Kamenets","fcode":"PPL","geonameId":627657,"lat":"54.171","adminName1":"Minsk","population":0},{"countryId":"2017370","adminCode1":"60","countryName":"Russia","fclName":"city, village,...","countryCode":"RU","lng":"28.367","fcodeName":"populated place","toponymName":"Kamenets","fcl":"P","name":"Kamenets","fcode":"PPL","geonameId":7080763,"lat":"56.3806","adminName1":"Pskov","population":0},{"countryId":"2017370","adminCode1":"60","countryName":"Russia","fclName":"city, village,...","countryCode":"RU","lng":"28.87281","fcodeName":"populated place","toponymName":"Kamenets","fcl":"P","name":"Kamenets","fcode":"PPL","geonameId":7094323,"lat":"57.02861","adminName1":"Pskov","population":0},{"countryId":"630336","adminCode1":"07","countryName":"Belarus","fclName":"city, village,...","countryCode":"BY","lng":"29.2981","fcodeName":"populated place","toponymName":"Kamenets","fcl":"P","name":"Kamenets","fcode":"PPL","geonameId":8232936,"lat":"54.7135","adminName1":"Vitebsk","population":0},{"countryId":"630336","adminCode1":"05","countryName":"Belarus","fclName":"city, village,...","countryCode":"BY","lng":"29.0762","fcodeName":"populated place","toponymName":"Bol’shoy Kamenets","fcl":"P","name":"Bol’shoy Kamenets","fcode":"PPL","geonameId":629843,"lat":"54.5386","adminName1":"Minsk","population":0},{"countryId":"630336","adminCode1":"05","countryName":"Belarus","fclName":"city, village,...","countryCode":"BY","lng":"29.08","fcodeName":"populated place","toponymName":"Malyy Kamenets","fcl":"P","name":"Malyy Kamenets","fcode":"PPL","geonameId":8330401,"lat":"54.5647","adminName1":"Minsk","population":0}]}