{"totalResultsCount":9,"geonames":[{"countryId":"690791","adminCode1":"05","countryName":"Ukraine","fclName":"city, village,...","countryCode":"UA","lng":"37.45","fcodeName":"populated place","toponymName":"Karlovka","fcl":"P","name":"Karlovka","fcode":"PPL","geonameId":706752,"lat":"47.58333","adminName1":"Donetsk","population":0},{"countryId":"690791","adminCode1":"04","countryName":"Ukraine","fclName":"city, village,...","countryCode":"UA","lng":"34.35","fcodeName":"populated place","toponymName":"Karlovka","fcl":"P","name":"Karlovka","fcode":"PPL","geonameId":706750,"lat":"48.95","adminName1":"Dnipropetrovsk","population":0},{"countryId":"690791","adminCode1":"16","countryName":"Ukraine","fclName":"city, village,...","countryCode":"UA","lng":"31","fcodeName":"populated place","toponymName":"Karlovka","fcl":"P","name":"Karlovka","fcode":"PPL","geonameId":706751,"lat":"47.68333","adminName1":"Mykolaiv","population":0},{"countryId":"690791","adminCode1":"16","countryName":"Ukraine","fclName":"city, village,...","countryCode":"UA","lng":"32.1259","fcodeName":"populated place","toponymName":"Karlovka","fcl":"P","name":"Karlovka","fcode":"PPL","geonameId":706753,"lat":"47.50368","adminName1":"Mykolaiv","population":0},{"countryId":"690791","adminCode1":"18","countryName":"Ukraine","fclName":"city, village,...","countryCode":"UA","lng":"35.12947","fcodeName":"seat of a second-order administrative division","toponymName":"Karlivka","fcl":"P","name":"Karlivka","fcode":"PPLA2","geonameId":706749,"lat":"49.45668","adminName1":"Poltava","population":17226},{"countryId":"690791","adminCode1":"05","countryName":"Ukraine","fclName":"city, village,...","countryCode":"UA","lng":"37.96052","fcodeName":"populated place","toponymName":"Klyshchiyivka","fcl":"P","name":"Klyshchiyivka","fcode":"PPL","geonameId":705666,"lat":"48.53001","adminName1":"Donetsk","population":0},{"countryId":"690791","adminCode1":"17","countryName":"Ukraine","fclName":"city, village,...","countryCode":"UA","lng":"30.17777","fcodeName":"populated place","toponymName":"Bykoza","fcl":"P","name":"Bykoza","fcode":"PPL","geonameId":711018,"lat":"46.19004","adminName1":"Odessa","population":0},{"countryId":"690791","adminCode1":"10","countryName":"Ukraine","fclName":"city, village,...","countryCode":"UA","lng":"32.05591","fcodeName":"populated place","toponymName":"Krupskoye","fcl":"P","name":"Krupskoye","fcode":"PPL","geonameId":703935,"lat":"48.44327","adminName1":"Kirovohrad","population":0},{"countryId":"690791","adminCode1":"07","countryName":"Ukraine","fclName":"city, village,...","countryCode":"UA","lng":"35.93333","fcodeName":"populated place","toponymName":"Vil’khuvatka","fcl":"P","name":"Vil’khuvatka","fcode":"PPL","geonameId":706748,"lat":"49.76667","adminName1":"Kharkiv","population":0}]}