{"geonames": [{"fcl": "P", "countryName": "Ukraine", "adminCode1": "05", "fcodeName": "populated place", "adminName1": "Donetsk", "lng": "37.45", "name": "Karlovka", "toponymName": "Karlovka", "lat": "47.58333", "fclName": "city, village,...", "geonameId": 706752, "fcode": "PPL", "population": 0, "countryCode": "UA", "countryId": "690791"}, {"fcl": "P", "countryName": "Ukraine", "adminCode1": "04", "fcodeName": "populated place", "adminName1": "Dnipropetrovsk", "lng": "34.35", "name": "Karlovka", "toponymName": "Karlovka", "lat": "48.95", "fclName": "city, village,...", "geonameId": 706750, "fcode": "PPL", "population": 0, "countryCode": "UA", "countryId": "690791"}, {"fcl": "P", "countryName": "Ukraine", "adminCode1": "16", "fcodeName": "populated place", "adminName1": "Mykolaiv", "lng": "31", "name": "Karlovka", "toponymName": "Karlovka", "lat": "47.68333", "fclName": "city, village,...", "geonameId": 706751, "fcode": "PPL", "population": 0, "countryCode": "UA", "countryId": "690791"}, {"fcl": "P", "countryName": "Ukraine", "adminCode1": "16", "fcodeName": "populated place", "adminName1": "Mykolaiv", "lng": "32.1259", "name": "Karlovka", "toponymName": "Karlovka", "lat": "47.50368", "fclName": "city, village,...", "geonameId": 706753, "fcode": "PPL", "population": 0, "countryCode": "UA", "countryId": "690791"}, {"fcl": "P", "countryName": "Ukraine", "adminCode1": "18", "fcodeName": "seat of a second-order administrative division", "adminName1": "Poltava", "lng": "35.12947", "name": "Karlivka", "toponymName": "Karlivka", "lat": "49.45668", "fclName": "city, village,...", "geonameId": 706749, "fcode": "PPLA2", "population": 17226, "countryCode": "UA", "countryId": "690791"}, {"fcl": "P", "countryName": "Ukraine", "adminCode1": "05", "fcodeName": "populated place", "adminName1": "Donetsk", "lng": "37.96052", "name": "Klyshchiyivka", "toponymName": "Klyshchiyivka", "lat": "48.53001", "fclName": "city, village,...", "geonameId": 705666, "fcode": "PPL", "population": 0, "countryCode": "UA", "countryId": "690791"}, {"fcl": "P", "countryName": "Ukraine", "adminCode1": "17", "fcodeName": "populated place", "adminName1": "Odessa", "lng": "30.17777", "name": "Bykoza", "toponymName": "Bykoza", "lat": "46.19004", "fclName": "city, village,...", "geonameId": 711018, "fcode": "PPL", "population": 0, "countryCode": "UA", "countryId": "690791"}, {"fcl": "P", "countryName": "Ukraine", "adminCode1": "10", "fcodeName": "populated place", "adminName1": "Kirovohrad", "lng": "32.05591", "name": "Krupskoye", "toponymName": "Krupskoye", "lat": "48.44327", "fclName": "city, village,...", "geonameId": 703935, "fcode": "PPL", "population": 0, "countryCode": "UA", "countryId": "690791"}, {"fcl": "P", "countryName": "Ukraine", "adminCode1": "07", "fcodeName": "populated place", "adminName1": "Kharkiv", "lng": "35.93333", "name": "Vil\u2019khuvatka", "toponymName": "Vil\u2019khuvatka", "lat": "49.76667", "fclName": "city, village,...", "geonameId": 706748, "fcode": "PPL", "population": 0, "countryCode": "UA", "countryId": "690791"}], "totalResultsCount": 9, "url": "http://api.geonames.org/search?north=49.99&west=29.6&south=46.07&name=%D0%9A%D0%B0%D1%80%D0%BB%D0%BE%D0%B2%D0%BA%D0%B0&username=jaguillette&east=39.14&featureClass=P&type=json"}