{"totalResultsCount":17,"geonames":[{"adminCode1":"41","lng":"36.99717","geonameId":807907,"toponymName":"Kamenka","countryId":"2017370","fcl":"P","population":0,"countryCode":"RU","name":"Kamenka","fclName":"city, village,...","countryName":"Russia","fcodeName":"populated place","adminName1":"Kursk","lat":"51.52837","fcode":"PPL"},{"adminCode1":"41","lng":"37.7707","geonameId":553764,"toponymName":"Kamenka","countryId":"2017370","fcl":"P","population":0,"countryCode":"RU","name":"Kamenka","fclName":"city, village,...","countryName":"Russia","fcodeName":"populated place","adminName1":"Kursk","lat":"51.443","fcode":"PPL"},{"adminCode1":"21","lng":"35.06543","geonameId":707041,"toponymName":"Kamenka","countryId":"690791","fcl":"P","population":0,"countryCode":"UA","name":"Kamenka","fclName":"city, village,...","countryName":"Ukraine","fcodeName":"populated place","adminName1":"Sumy","lat":"50.41458","fcode":"PPL"},{"adminCode1":"07","lng":"37.29691","geonameId":707051,"toponymName":"Kamenka","countryId":"690791","fcl":"P","population":0,"countryCode":"UA","name":"Kamenka","fclName":"city, village,...","countryName":"Ukraine","fcodeName":"populated place","adminName1":"Kharkiv","lat":"49.12255","fcode":"PPL"},{"adminCode1":"41","lng":"36.04197","geonameId":553767,"toponymName":"Kamenka","countryId":"2017370","fcl":"P","population":0,"countryCode":"RU","name":"Kamenka","fclName":"city, village,...","countryName":"Russia","fcodeName":"populated place","adminName1":"Kursk","lat":"51.1761","fcode":"PPL"},{"adminCode1":"41","lng":"37.0087","geonameId":553762,"toponymName":"Kamenka Pervaya","countryId":"2017370","fcl":"P","population":0,"countryCode":"RU","name":"Kamenka Pervaya","fclName":"city, village,...","countryName":"Russia","fcodeName":"populated place","adminName1":"Kursk","lat":"51.5386","fcode":"PPL"},{"adminCode1":"41","lng":"35.99528","geonameId":806048,"toponymName":"Krasnaya Kamenka","countryId":"2017370","fcl":"P","population":0,"countryCode":"RU","name":"Krasnaya Kamenka","fclName":"city, village,...","countryName":"Russia","fcodeName":"populated place","adminName1":"Kursk","lat":"51.27722","fcode":"PPL"},{"adminCode1":"09","lng":"37.63667","geonameId":7687780,"toponymName":"Krasnaya Kamenka","countryId":"2017370","fcl":"P","population":0,"countryCode":"RU","name":"Krasnaya Kamenka","fclName":"city, village,...","countryName":"Russia","fcodeName":"populated place","adminName1":"Belgorod","lat":"50.80302","fcode":"PPL"},{"adminCode1":"07","lng":"36.82222","geonameId":811151,"toponymName":"Kamenka","countryId":"690791","fcl":"P","population":0,"countryCode":"UA","name":"Kamenka","fclName":"city, village,...","countryName":"Ukraine","fcodeName":"populated place","adminName1":"Kharkiv","lat":"49.65587","fcode":"PPL"},{"adminCode1":"41","lng":"34.5404","geonameId":807177,"toponymName":"Kar’kovo-Kamenka","countryId":"2017370","fcl":"P","population":0,"countryCode":"RU","name":"Kar’kovo-Kamenka","fclName":"city, village,...","countryName":"Russia","fcodeName":"populated place","adminName1":"Kursk","lat":"51.5443","fcode":"PPL"},{"adminCode1":"41","lng":"34.5697","geonameId":7665293,"toponymName":"Kazach’ya Kamenka","countryId":"2017370","fcl":"P","population":0,"countryCode":"RU","name":"Kazach’ya Kamenka","fclName":"city, village,...","countryName":"Russia","fcodeName":"populated place","adminName1":"Kursk","lat":"51.5176","fcode":"PPL"},{"adminCode1":"41","lng":"35.8058","geonameId":806037,"toponymName":"Kamennyy","countryId":"2017370","fcl":"P","population":0,"countryCode":"RU","name":"Kamennyy","fclName":"city, village,...","countryName":"Russia","fcodeName":"abandoned populated place","adminName1":"Kursk","lat":"51.344","fcode":"PPLQ"},{"adminCode1":"04","lng":"34.01497","geonameId":709952,"toponymName":"Dneprovokamenka","countryId":"690791","fcl":"P","population":0,"countryCode":"UA","name":"Dneprovokamenka","fclName":"city, village,...","countryName":"Ukraine","fcodeName":"populated place","adminName1":"Dnipropetrovsk","lat":"48.79566","fcode":"PPL"},{"adminCode1":"14","lng":"38.26581","geonameId":689910,"toponymName":"Verkhnekamenskoye","countryId":"690791","fcl":"P","population":0,"countryCode":"UA","name":"Verkhnekamenskoye","fclName":"city, village,...","countryName":"Ukraine","fcodeName":"populated place","adminName1":"Luhansk","lat":"48.85419","fcode":"PPL"},{"adminCode1":"07","lng":"37.34654","geonameId":692280,"toponymName":"Sukhaya Kamenka","countryId":"690791","fcl":"P","population":0,"countryCode":"UA","name":"Sukhaya Kamenka","fclName":"city, village,...","countryName":"Ukraine","fcodeName":"populated place","adminName1":"Kharkiv","lat":"49.09053","fcode":"PPL"},{"adminCode1":"04","lng":"34.95481","geonameId":709077,"toponymName":"Frunzens’kyy","countryId":"690791","fcl":"P","population":0,"countryCode":"UA","name":"Frunzens’kyy","fclName":"city, village,...","countryName":"Ukraine","fcodeName":"section of populated place","adminName1":"Dnipropetrovsk","lat":"48.54529","fcode":"PPLX"},{"adminCode1":"07","lng":"37.83107","geonameId":707046,"toponymName":"Kam’yanka","countryId":"690791","fcl":"P","population":0,"countryCode":"UA","name":"Kam’yanka","fclName":"city, village,...","countryName":"Ukraine","fcodeName":"populated place","adminName1":"Kharkiv","lat":"49.97964","fcode":"PPL"}]}