{"totalResultsCount":5,"geonames":[{"adminCode1":"62","lng":"42.4675","geonameId":554549,"toponymName":"Kadom","countryId":"2017370","fcl":"P","population":6027,"countryCode":"RU","name":"Kadom","fclName":"city, village,...","countryName":"Russia","fcodeName":"populated place","adminName1":"Rjazan","lat":"54.55917","fcode":"PPL"},{"adminCode1":"62","lng":"42.47222","geonameId":487980,"toponymName":"Staryy Kadom","countryId":"2017370","fcl":"P","population":0,"countryCode":"RU","name":"Staryy Kadom","fclName":"city, village,...","countryName":"Russia","fcodeName":"populated place","adminName1":"Rjazan","lat":"54.62028","fcode":"PPL"},{"adminCode1":"62","lng":"42.47715","geonameId":7750766,"toponymName":"Pristan’ Kadom","countryId":"2017370","fcl":"S","population":0,"countryCode":"RU","name":"Pristan’ Kadom","fclName":"spot, building, farm","countryName":"Russia","fcodeName":"landing","adminName1":"Rjazan","lat":"54.55922","fcode":"LDNG"},{"adminCode1":"46","lng":"42.48333","geonameId":464507,"toponymName":"Zarech’ye-Kadom","countryId":"2017370","fcl":"P","population":0,"countryCode":"RU","name":"Zarech’ye-Kadom","fclName":"city, village,...","countryName":"Russia","fcodeName":"populated place","adminName1":"Mordoviya","lat":"54.56667","fcode":"PPL"},{"adminCode1":"30","lng":"104.04497","geonameId":7879934,"toponymName":"Nong Kadom","countryId":"1605651","fcl":"H","population":0,"countryCode":"TH","name":"Nong Kadom","fclName":"stream, lake, ...","countryName":"Thailand","fcodeName":"intermittent pond","adminName1":"Sisaket","lat":"14.52767","fcode":"PNDI"}]}