{"totalResultsCount":66,"geonames":[{"adminCode1":"65","lng":"26.73333","geonameId":6461356,"toponymName":"Kamenec","countryId":"732800","fcl":"A","population":0,"countryCode":"BG","name":"Kamenec","fclName":"country, state, region,...","countryName":"Bulgaria","fcodeName":"third-order administrative division","adminName1":"Yambol","lat":"42.33333","fcode":"ADM3"},{"adminCode1":"50","lng":"24.34074","geonameId":6460300,"toponymName":"Kamenec","countryId":"732800","fcl":"A","population":0,"countryCode":"BG","name":"Kamenec","fclName":"country, state, region,...","countryName":"Bulgaria","fcodeName":"third-order administrative division","adminName1":"Pleven","lat":"43.58704","fcode":"ADM3"},{"adminCode1":"D8","lng":"21.12465","geonameId":8661077,"toponymName":"Kamenec","countryId":"718075","fcl":"T","population":0,"countryCode":"MK","name":"Kamenec","fclName":"mountain,hill,rock,... ","countryName":"Macedonia","fcodeName":"slope(s)","adminName1":"Makedonski Brod","lat":"41.49022","fcode":"SLP"},{"adminCode1":"E3","lng":"21.743","geonameId":8374139,"toponymName":"Kamenec","countryId":"718075","fcl":"T","population":0,"countryCode":"MK","name":"Kamenec","fclName":"mountain,hill,rock,... ","countryName":"Macedonia","fcodeName":"hill","adminName1":"Prilep","lat":"41.19881","fcode":"HLL"},{"adminCode1":"52","lng":"34.53316","geonameId":553794,"toponymName":"Kamenets","countryId":"2017370","fcl":"P","population":0,"countryCode":"RU","name":"Kamenets","fclName":"city, village,...","countryName":"Russia","fcodeName":"populated place","adminName1":"Novgorod","lat":"58.26837","fcode":"PPL"},{"adminCode1":"77","lng":"35.33572","geonameId":553795,"toponymName":"Kamenets","countryId":"2017370","fcl":"P","population":0,"countryCode":"RU","name":"Kamenets","fclName":"city, village,...","countryName":"Russia","fcodeName":"populated place","adminName1":"Tverskaya","lat":"58.0336","fcode":"PPL"},{"adminCode1":"69","lng":"33.71278","geonameId":553796,"toponymName":"Kamenets","countryId":"2017370","fcl":"P","population":0,"countryCode":"RU","name":"Kamenets","fclName":"city, village,...","countryName":"Russia","fcodeName":"populated place","adminName1":"Smolensk","lat":"55.5225","fcode":"PPL"},{"adminCode1":"62","lng":"39.86667","geonameId":553797,"toponymName":"Kamenets","countryId":"2017370","fcl":"P","population":0,"countryCode":"RU","name":"Kamenets","fclName":"city, village,...","countryName":"Russia","fcodeName":"populated place","adminName1":"Rjazan","lat":"54.51667","fcode":"PPL"},{"adminCode1":"69","lng":"33.51086","geonameId":553798,"toponymName":"Kamenets","countryId":"2017370","fcl":"P","population":0,"countryCode":"RU","name":"Kamenets","fclName":"city, village,...","countryName":"Russia","fcodeName":"populated place","adminName1":"Smolensk","lat":"54.46932","fcode":"PPL"},{"adminCode1":"56","lng":"35.79986","geonameId":553800,"toponymName":"Kamenets","countryId":"2017370","fcl":"P","population":0,"countryCode":"RU","name":"Kamenets","fclName":"city, village,...","countryName":"Russia","fcodeName":"populated place","adminName1":"Orjol","lat":"52.77569","fcode":"PPL"},{"adminCode1":"41","lng":"35.3241","geonameId":553802,"toponymName":"Kamenets","countryId":"2017370","fcl":"P","population":0,"countryCode":"RU","name":"Kamenets","fclName":"city, village,...","countryName":"Russia","fcodeName":"populated place","adminName1":"Kursk","lat":"52.2587","fcode":"PPL"},{"adminCode1":"00","lng":"14.07299","geonameId":3073951,"toponymName":"Kamenec","countryId":"3077311","fcl":"P","population":0,"countryCode":"CZ","name":"Kamenec","fclName":"city, village,...","countryName":"Czech Republic","fcodeName":"populated place","adminName1":"","lat":"50.76578","fcode":"PPL"},{"adminCode1":"82","lng":"16.1495","geonameId":3073952,"toponymName":"Kamenec","countryId":"3077311","fcl":"P","population":0,"countryCode":"CZ","name":"Kamenec","fclName":"city, village,...","countryName":"Czech Republic","fcodeName":"populated place","adminName1":"Královéhradecký","lat":"50.6031","fcode":"PPL"},{"adminCode1":"81","lng":"13.08054","geonameId":3073954,"toponymName":"Kamenec","countryId":"3077311","fcl":"P","population":0,"countryCode":"CZ","name":"Kamenec","fclName":"city, village,...","countryName":"Czech Republic","fcodeName":"populated place","adminName1":"Karlovarský","lat":"50.35503","fcode":"PPL"},{"adminCode1":"82","lng":"16.39986","geonameId":3073955,"toponymName":"Kamenec","countryId":"3077311","fcl":"P","population":0,"countryCode":"CZ","name":"Kamenec","fclName":"city, village,...","countryName":"Czech Republic","fcodeName":"populated place","adminName1":"Královéhradecký","lat":"50.26639","fcode":"PPL"},{"adminCode1":"85","lng":"17.43916","geonameId":3073960,"toponymName":"Kamenec","countryId":"3077311","fcl":"T","population":0,"countryCode":"CZ","name":"Kamenec","fclName":"mountain,hill,rock,... ","countryName":"Czech Republic","fcodeName":"mountain","adminName1":"Moravskoslezský","lat":"49.87738","fcode":"MT"},{"adminCode1":"56","lng":"35.30059","geonameId":818637,"toponymName":"Kamenets","countryId":"2017370","fcl":"P","population":0,"countryCode":"RU","name":"Kamenets","fclName":"city, village,...","countryName":"Russia","fcodeName":"populated place","adminName1":"Orjol","lat":"52.70207","fcode":"PPL"},{"adminCode1":"10","lng":"34.795","geonameId":819398,"toponymName":"Kamenets","countryId":"2017370","fcl":"P","population":0,"countryCode":"RU","name":"Kamenets","fclName":"city, village,...","countryName":"Russia","fcodeName":"populated place","adminName1":"Brjansk","lat":"52.37917","fcode":"PPL"},{"adminCode1":"69","lng":"34.05916","geonameId":812285,"toponymName":"Kamenets","countryId":"2017370","fcl":"P","population":0,"countryCode":"RU","name":"Kamenets","fclName":"city, village,...","countryName":"Russia","fcodeName":"populated place","adminName1":"Smolensk","lat":"55.54869","fcode":"PPL"},{"adminCode1":"25","lng":"33.76278","geonameId":810895,"toponymName":"Kamenets","countryId":"2017370","fcl":"P","population":0,"countryCode":"RU","name":"Kamenets","fclName":"city, village,...","countryName":"Russia","fcodeName":"populated place","adminName1":"Kaluga","lat":"54.31694","fcode":"PPL"},{"adminCode1":"42","lng":"28.5837","geonameId":7611441,"toponymName":"Kamenets","countryId":"2017370","fcl":"P","population":0,"countryCode":"RU","name":"Kamenets","fclName":"city, village,...","countryName":"Russia","fcodeName":"populated place","adminName1":"Leningrad","lat":"58.8866","fcode":"PPL"},{"adminCode1":"41","lng":"36.4923","geonameId":7451711,"toponymName":"Kamenets","countryId":"2017370","fcl":"P","population":0,"countryCode":"RU","name":"Kamenets","fclName":"city, village,...","countryName":"Russia","fcodeName":"populated place","adminName1":"Kursk","lat":"52.1771","fcode":"PPL"},{"adminCode1":"04","lng":"18.55072","geonameId":3060408,"toponymName":"Dolný Kamenec","countryId":"3057568","fcl":"P","population":0,"countryCode":"SK","name":"Dolný Kamenec","fclName":"city, village,...","countryName":"Slovakia","fcodeName":"populated place","adminName1":"Nitriansky","lat":"48.67334","fcode":"PPL"},{"adminCode1":"56","lng":"35.9443","geonameId":553801,"toponymName":"Kamenets","countryId":"2017370","fcl":"P","population":0,"countryCode":"RU","name":"Kamenets","fclName":"city, village,...","countryName":"Russia","fcodeName":"populated place","adminName1":"Orjol","lat":"52.4856","fcode":"PPL"},{"adminCode1":"83","lng":"15.47332","geonameId":3073958,"toponymName":"Kamenec","countryId":"3077311","fcl":"T","population":0,"countryCode":"CZ","name":"Kamenec","fclName":"mountain,hill,rock,... ","countryName":"Czech Republic","fcodeName":"mountain","adminName1":"Liberecký","lat":"50.78639","fcode":"MT"},{"adminCode1":"42","lng":"28.4447","geonameId":7610948,"toponymName":"Ozero Kamenets","countryId":"2017370","fcl":"H","population":0,"countryCode":"RU","name":"Ozero Kamenets","fclName":"stream, lake, ...","countryName":"Russia","fcodeName":"lake","adminName1":"Leningrad","lat":"58.9348","fcode":"LK"},{"adminCode1":"83","lng":"15.08358","geonameId":3073953,"toponymName":"Kamenec","countryId":"3077311","fcl":"P","population":0,"countryCode":"CZ","name":"Kamenec","fclName":"city, village,...","countryName":"Czech Republic","fcodeName":"populated place","adminName1":"Liberecký","lat":"50.59658","fcode":"PPL"},{"adminCode1":"85","lng":"17.77202","geonameId":3073956,"toponymName":"Kamenec","countryId":"3077311","fcl":"P","population":0,"countryCode":"CZ","name":"Kamenec","fclName":"city, village,...","countryName":"Czech Republic","fcodeName":"populated place","adminName1":"Moravskoslezský","lat":"49.9775","fcode":"PPL"},{"adminCode1":"87","lng":"13.59623","geonameId":3073957,"toponymName":"Kamenec","countryId":"3077311","fcl":"P","population":54,"countryCode":"CZ","name":"Kamenec","fclName":"city, village,...","countryName":"Czech Republic","fcodeName":"populated place","adminName1":"Plzeňský","lat":"49.88106","fcode":"PPL"},{"adminCode1":"88","lng":"15.3706","geonameId":3073959,"toponymName":"Kamenec","countryId":"3077311","fcl":"T","population":0,"countryCode":"CZ","name":"Kamenec","fclName":"mountain,hill,rock,... ","countryName":"Czech Republic","fcodeName":"mountain","adminName1":"Central Bohemia","lat":"50.21785","fcode":"MT"},{"adminCode1":"04","lng":"18.66861","geonameId":3059587,"toponymName":"Kamenec","countryId":"3057568","fcl":"P","population":0,"countryCode":"SK","name":"Kamenec","fclName":"city, village,...","countryName":"Slovakia","fcodeName":"populated place","adminName1":"Nitriansky","lat":"48.2538","fcode":"PPL"},{"adminCode1":"50","lng":"25","geonameId":730698,"toponymName":"Kamenets","countryId":"732800","fcl":"P","population":0,"countryCode":"BG","name":"Kamenets","fclName":"city, village,...","countryName":"Bulgaria","fcodeName":"populated place","adminName1":"Pleven","lat":"43.33333","fcode":"PPL"},{"adminCode1":"44","lng":"25.41667","geonameId":730700,"toponymName":"Kamenets","countryId":"732800","fcl":"P","population":0,"countryCode":"BG","name":"Kamenets","fclName":"city, village,...","countryName":"Bulgaria","fcodeName":"populated place","adminName1":"Kŭrdzhali","lat":"41.46667","fcode":"PPL"},{"adminCode1":"05","lng":"27.4249","geonameId":627657,"toponymName":"Kamenets","countryId":"630336","fcl":"P","population":0,"countryCode":"BY","name":"Kamenets","fclName":"city, village,...","countryName":"Belarus","fcodeName":"populated place","adminName1":"Minskaja Voblasts’","lat":"54.171","fcode":"PPL"},{"adminCode1":"87","lng":"12.69916","geonameId":8436457,"toponymName":"Kamenec","countryId":"3077311","fcl":"T","population":0,"countryCode":"CZ","name":"Kamenec","fclName":"mountain,hill,rock,... ","countryName":"Czech Republic","fcodeName":"hill","adminName1":"Plzeňský","lat":"49.54033","fcode":"HLL"},{"adminCode1":"09","lng":"26.58559","geonameId":706950,"toponymName":"Kamieniec Podolski","countryId":"690791","fcl":"P","population":100000,"countryCode":"UA","name":"Kamyanets-Podilsky","fclName":"city, village,...","countryName":"Ukraine","fcodeName":"seat of a second-order administrative division","adminName1":"Khmelnytskyi","lat":"48.6845","fcode":"PPLA2"},{"adminCode1":"60","lng":"28.86556","geonameId":553792,"toponymName":"Ozero Kamenets","countryId":"2017370","fcl":"H","population":0,"countryCode":"RU","name":"Ozero Kamenets","fclName":"stream, lake, ...","countryName":"Russia","fcodeName":"lake","adminName1":"Pskov","lat":"57.03384","fcode":"LK"},{"adminCode1":"10","lng":"33.0113","geonameId":553799,"toponymName":"Kamenets","countryId":"2017370","fcl":"P","population":0,"countryCode":"RU","name":"Kamenets","fclName":"city, village,...","countryName":"Russia","fcodeName":"populated place","adminName1":"Brjansk","lat":"53.31538","fcode":"PPL"},{"adminCode1":"07","lng":"29.2981","geonameId":8232936,"toponymName":"Kamenets","countryId":"630336","fcl":"P","population":0,"countryCode":"BY","name":"Kamenets","fclName":"city, village,...","countryName":"Belarus","fcodeName":"populated place","adminName1":"Vitsyebskaya Voblastsʼ","lat":"54.7135","fcode":"PPL"},{"adminCode1":"60","lng":"28.87281","geonameId":7094323,"toponymName":"Kamenets","countryId":"2017370","fcl":"P","population":0,"countryCode":"RU","name":"Kamenets","fclName":"city, village,...","countryName":"Russia","fcodeName":"populated place","adminName1":"Pskov","lat":"57.02861","fcode":"PPL"},{"adminCode1":"60","lng":"28.367","geonameId":7080763,"toponymName":"Kamenets","countryId":"2017370","fcl":"P","population":0,"countryCode":"RU","name":"Kamenets","fclName":"city, village,...","countryName":"Russia","fcodeName":"populated place","adminName1":"Pskov","lat":"56.3806","fcode":"PPL"},{"adminCode1":"04","lng":"18.56667","geonameId":3059938,"toponymName":"Horný Kamenec","countryId":"3057568","fcl":"P","population":0,"countryCode":"SK","name":"Horný Kamenec","fclName":"city, village,...","countryName":"Slovakia","fcodeName":"populated place","adminName1":"Nitriansky","lat":"48.68333","fcode":"PPL"},{"adminCode1":"90","lng":"54.16818","geonameId":553790,"toponymName":"Kamenets-Podol’skiy","countryId":"2017370","fcl":"P","population":0,"countryCode":"RU","name":"Kamenets-Podol’skiy","fclName":"city, village,...","countryName":"Russia","fcodeName":"populated place","adminName1":"Perm","lat":"58.43757","fcode":"PPL"},{"adminCode1":"41","lng":"35.65972","geonameId":573094,"toponymName":"Bol’shoy Kamenets","countryId":"2017370","fcl":"P","population":0,"countryCode":"RU","name":"Bol’shoy Kamenets","fclName":"city, village,...","countryName":"Russia","fcodeName":"populated place","adminName1":"Kursk","lat":"51.33","fcode":"PPL"},{"adminCode1":"03","lng":"21.80587","geonameId":723251,"toponymName":"Veľký Kamenec","countryId":"3057568","fcl":"P","population":0,"countryCode":"SK","name":"Veľký Kamenec","fclName":"city, village,...","countryName":"Slovakia","fcodeName":"populated place","adminName1":"Košický","lat":"48.36159","fcode":"PPL"},{"adminCode1":"41","lng":"35.66528","geonameId":529933,"toponymName":"Malyy Kamenets","countryId":"2017370","fcl":"P","population":0,"countryCode":"RU","name":"Malyy Kamenets","fclName":"city, village,...","countryName":"Russia","fcodeName":"populated place","adminName1":"Kursk","lat":"51.2325","fcode":"PPL"},{"adminCode1":"86","lng":"16.23371","geonameId":3073950,"toponymName":"Kamenec u Poličky","countryId":"3077311","fcl":"P","population":514,"countryCode":"CZ","name":"Kamenec u Poličky","fclName":"city, village,...","countryName":"Czech Republic","fcodeName":"populated place","adminName1":"Pardubický","lat":"49.70788","fcode":"PPL"},{"adminCode1":"01","lng":"23.81","geonameId":627711,"toponymName":"Kamyanyets","countryId":"630336","fcl":"P","population":8700,"countryCode":"BY","name":"Kamyanyets","fclName":"city, village,...","countryName":"Belarus","fcodeName":"populated place","adminName1":"Brestskaya Voblastsʼ","lat":"52.40013","fcode":"PPL"},{"adminCode1":"85","lng":"19.37439","geonameId":3096799,"toponymName":"Kamieniec","countryId":"798544","fcl":"P","population":0,"countryCode":"PL","name":"Kamieniec","fclName":"city, village,...","countryName":"Poland","fcodeName":"populated place","adminName1":"Warmian-Masurian Voivodeship","lat":"53.76921","fcode":"PPL"},{"adminCode1":"87","lng":"13.35","geonameId":3075353,"toponymName":"Horní Kamenec","countryId":"3077311","fcl":"P","population":0,"countryCode":"CZ","name":"Horní Kamenec","fclName":"city, village,...","countryName":"Czech Republic","fcodeName":"populated place","adminName1":"Plzeňský","lat":"49.08333","fcode":"PPL"},{"adminCode1":"87","lng":"13.37528","geonameId":3076826,"toponymName":"Dolní Kamenec","countryId":"3077311","fcl":"P","population":0,"countryCode":"CZ","name":"Dolní Kamenec","fclName":"city, village,...","countryName":"Czech Republic","fcodeName":"populated place","adminName1":"Plzeňský","lat":"49.10191","fcode":"PPL"},{"adminCode1":"03","lng":"21.78785","geonameId":724193,"toponymName":"Malý Kamenec","countryId":"3057568","fcl":"P","population":0,"countryCode":"SK","name":"Malý Kamenec","fclName":"city, village,...","countryName":"Slovakia","fcodeName":"populated place","adminName1":"Košický","lat":"48.35217","fcode":"PPL"},{"adminCode1":"D3","lng":"21.13811","geonameId":8664810,"toponymName":"Kamenec","countryId":"718075","fcl":"H","population":0,"countryCode":"MK","name":"Kamenec","fclName":"stream, lake, ...","countryName":"Macedonia","fcodeName":"spring(s)","adminName1":"Demir Hisar","lat":"41.33926","fcode":"SPNG"},{"adminCode1":"30","lng":"135.52164","geonameId":2023252,"toponymName":"Kamenets-Podol’sk","countryId":"2017370","fcl":"P","population":0,"countryCode":"RU","name":"Kamenets-Podol'sk","fclName":"city, village,...","countryName":"Russia","fcodeName":"populated place","adminName1":"Khabarovsk Krai","lat":"47.83409","fcode":"PPL"},{"adminCode1":"07","lng":"17.41667","geonameId":3060285,"toponymName":"Dvor Kamenec","countryId":"3057568","fcl":"P","population":0,"countryCode":"SK","name":"Dvor Kamenec","fclName":"city, village,...","countryName":"Slovakia","fcodeName":"populated place","adminName1":"Trnavský","lat":"47.98333","fcode":"PPL"},{"adminCode1":"13","lng":"14.09374","geonameId":2893437,"toponymName":"Kamenz","countryId":"2921044","fcl":"P","population":18270,"countryCode":"DE","name":"Kamenz","fclName":"city, village,...","countryName":"Germany","fcodeName":"populated place","adminName1":"Saxony","lat":"51.26798","fcode":"PPL"},{"adminCode1":"25","lng":"33.74033","geonameId":553793,"toponymName":"Kamenets","countryId":"2017370","fcl":"H","population":0,"countryCode":"RU","name":"Kamenets","fclName":"stream, lake, ...","countryName":"Russia","fcodeName":"stream","adminName1":"Kaluga","lat":"54.30118","fcode":"STM"},{"adminCode1":"41","lng":"36.4261","geonameId":7451712,"toponymName":"Kamenets","countryId":"2017370","fcl":"H","population":0,"countryCode":"RU","name":"Kamenets","fclName":"stream, lake, ...","countryName":"Russia","fcodeName":"stream","adminName1":"Kursk","lat":"52.1907","fcode":"STM"},{"adminCode1":"05","lng":"29.0762","geonameId":629843,"toponymName":"Bol’shoy Kamenets","countryId":"630336","fcl":"P","population":0,"countryCode":"BY","name":"Bol’shoy Kamenets","fclName":"city, village,...","countryName":"Belarus","fcodeName":"populated place","adminName1":"Minskaja Voblasts’","lat":"54.5386","fcode":"PPL"},{"adminCode1":"65","lng":"26.73333","geonameId":730699,"toponymName":"Kamenets","countryId":"732800","fcl":"P","population":0,"countryCode":"BG","name":"Kamenets","fclName":"city, village,...","countryName":"Bulgaria","fcodeName":"populated place","adminName1":"Yambol","lat":"42.33333","fcode":"PPL"},{"adminCode1":"05","lng":"29.08","geonameId":8330401,"toponymName":"Malyy Kamenets","countryId":"630336","fcl":"P","population":0,"countryCode":"BY","name":"Malyy Kamenets","fclName":"city, village,...","countryName":"Belarus","fcodeName":"populated place","adminName1":"Minskaja Voblasts’","lat":"54.5647","fcode":"PPL"},{"adminCode1":"56","lng":"35.92333","geonameId":520613,"toponymName":"Nizhniy Kamenets","countryId":"2017370","fcl":"P","population":0,"countryCode":"RU","name":"Nizhniy Kamenets","fclName":"city, village,...","countryName":"Russia","fcodeName":"section of populated place","adminName1":"Orjol","lat":"52.4775","fcode":"PPLX"},{"adminCode1":"50","lng":"25.03333","geonameId":730697,"toponymName":"Kamenets","countryId":"732800","fcl":"H","population":0,"countryCode":"BG","name":"Kamenets","fclName":"stream, lake, ...","countryName":"Bulgaria","fcodeName":"reservoir(s)","adminName1":"Pleven","lat":"43.35","fcode":"RSV"},{"adminCode1":"10","lng":"33.39809","geonameId":6847347,"toponymName":"Kamenets","countryId":"2017370","fcl":"H","population":0,"countryCode":"RU","name":"Kamenets","fclName":"stream, lake, ...","countryName":"Russia","fcodeName":"stream","adminName1":"Brjansk","lat":"53.68514","fcode":"STM"},{"adminCode1":"05","lng":"21.29917","geonameId":724537,"toponymName":"Kamenec","countryId":"3057568","fcl":"H","population":0,"countryCode":"SK","name":"Kamenec","fclName":"stream, lake, ...","countryName":"Slovakia","fcodeName":"stream","adminName1":"Prešovský","lat":"49.30446","fcode":"STM"},{"adminCode1":"05","lng":"21.17002","geonameId":723422,"toponymName":"Sveržov","countryId":"3057568","fcl":"H","population":0,"countryCode":"SK","name":"Sveržov","fclName":"stream, lake, ...","countryName":"Slovakia","fcodeName":"stream","adminName1":"Prešovský","lat":"49.31848","fcode":"STM"}]}