{"geonames": [{"fcl": "P", "countryName": "Russia", "adminCode1": "42", "fcodeName": "populated place", "adminName1": "Leningrad", "lng": "28.5837", "name": "Kamenets", "toponymName": "Kamenets", "lat": "58.8866", "fclName": "city, village,...", "geonameId": 7611441, "fcode": "PPL", "population": 0, "countryCode": "RU", "countryId": "2017370"}, {"fcl": "P", "countryName": "Belarus", "adminCode1": "05", "fcodeName": "populated place", "adminName1": "Minsk", "lng": "27.4249", "name": "Kamenets", "toponymName": "Kamenets", "lat": "54.171", "fclName": "city, village,...", "geonameId": 627657, "fcode": "PPL", "population": 0, "countryCode": "BY", "countryId": "630336"}, {"fcl": "P", "countryName": "Russia", "adminCode1": "60", "fcodeName": "populated place", "adminName1": "Pskov", "lng": "28.367", "name": "Kamenets", "toponymName": "Kamenets", "lat": "56.3806", "fclName": "city, village,...", "geonameId": 7080763, "fcode": "PPL", "population": 0, "countryCode": "RU", "countryId": "2017370"}, {"fcl": "P", "countryName": "Russia", "adminCode1": "60", "fcodeName": "populated place", "adminName1": "Pskov", "lng": "28.87281", "name": "Kamenets", "toponymName": "Kamenets", "lat": "57.02861", "fclName": "city, village,...", "geonameId": 7094323, "fcode": "PPL", "population": 0, "countryCode": "RU", "countryId": "2017370"}, {"fcl": "P", "countryName": "Belarus", "adminCode1": "07", "fcodeName": "populated place", "adminName1": "Vitebsk", "lng": "29.2981", "name": "Kamenets", "toponymName": "Kamenets", "lat": "54.7135", "fclName": "city, village,...", "geonameId": 8232936, "fcode": "PPL", "population": 0, "countryCode": "BY", "countryId": "630336"}, {"fcl": "P", "countryName": "Belarus", "adminCode1": "05", "fcodeName": "populated place", "adminName1": "Minsk", "lng": "29.0762", "name": "Bol\u2019shoy Kamenets", "toponymName": "Bol\u2019shoy Kamenets", "lat": "54.5386", "fclName": "city, village,...", "geonameId": 629843, "fcode": "PPL", "population": 0, "countryCode": "BY", "countryId": "630336"}, {"fcl": "P", "countryName": "Belarus", "adminCode1": "05", "fcodeName": "populated place", "adminName1": "Minsk", "lng": "29.08", "name": "Malyy Kamenets", "toponymName": "Malyy Kamenets", "lat": "54.5647", "fclName": "city, village,...", "geonameId": 8330401, "fcode": "PPL", "population": 0, "countryCode": "BY", "countryId": "630336"}], "totalResultsCount": 7, "url": "http://api.geonames.org/search?north=59.483333&west=24.8&south=51.483333&name=%D0%9A%D0%B0%D0%BC%D0%B5%D0%BD%D0%B5%D1%86&username=jaguillette&east=32.8&featureClass=P&type=json"}