{"totalResultsCount":5,"geonames":[{"countryId":"2017370","adminCode1":"72","countryName":"Russia","fclName":"city, village,...","countryCode":"RU","lng":"42.72236","fcodeName":"populated place","toponymName":"Kirsanov","fcl":"P","name":"Kirsanov","fcode":"PPL","geonameId":548330,"lat":"52.65494","adminName1":"Tambov","population":17975},{"countryId":"2017370","adminCode1":"84","countryName":"Russia","fclName":"city, village,...","countryCode":"RU","lng":"45.43333","fcodeName":"populated place","toponymName":"Kirsanov","fcl":"P","name":"Kirsanov","fcode":"PPL","geonameId":548331,"lat":"49.15","adminName1":"Volgograd","population":0},{"countryId":"2017370","adminCode1":"13","countryName":"Russia","fclName":"city, village,...","countryCode":"RU","lng":"61.31667","fcodeName":"populated place","toponymName":"Kirsanov","fcl":"P","name":"Kirsanov","fcode":"PPL","geonameId":1503308,"lat":"54.46667","adminName1":"Chelyabinsk","population":0},{"countryId":"2017370","adminCode1":"84","countryName":"Russia","fclName":"city, village,...","countryCode":"RU","lng":"45.37333","fcodeName":"populated place","toponymName":"Kirsanov","fcl":"P","name":"Kirsanov","fcode":"PPL","geonameId":798267,"lat":"48.87444","adminName1":"Volgograd","population":0},{"countryId":"1522867","adminCode1":"07","countryName":"Kazakhstan","fclName":"city, village,...","countryCode":"KZ","lng":"52.46285","fcodeName":"populated place","toponymName":"Kirsanovo","fcl":"P","name":"Kirsanovo","fcode":"PPL","geonameId":609386,"lat":"51.45318","adminName1":"Batys Qazaqstan","population":0}]}