{"totalResultsCount":6,"geonames":[{"adminCode1":"72","lng":"42.72236","geonameId":548330,"toponymName":"Kirsanov","countryId":"2017370","fcl":"P","population":17975,"countryCode":"RU","name":"Kirsanov","fclName":"city, village,...","countryName":"Russia","fcodeName":"populated place","adminName1":"Tambov","lat":"52.65494","fcode":"PPL"},{"adminCode1":"84","lng":"45.43333","geonameId":548331,"toponymName":"Kirsanov","countryId":"2017370","fcl":"P","population":0,"countryCode":"RU","name":"Kirsanov","fclName":"city, village,...","countryName":"Russia","fcodeName":"populated place","adminName1":"Volgograd","lat":"49.15","fcode":"PPL"},{"adminCode1":"13","lng":"61.31667","geonameId":1503308,"toponymName":"Kirsanov","countryId":"2017370","fcl":"P","population":0,"countryCode":"RU","name":"Kirsanov","fclName":"city, village,...","countryName":"Russia","fcodeName":"populated place","adminName1":"Chelyabinsk","lat":"54.46667","fcode":"PPL"},{"adminCode1":"84","lng":"45.37333","geonameId":798267,"toponymName":"Kirsanov","countryId":"2017370","fcl":"P","population":0,"countryCode":"RU","name":"Kirsanov","fclName":"city, village,...","countryName":"Russia","fcodeName":"populated place","adminName1":"Volgograd","lat":"48.87444","fcode":"PPL"},{"adminCode1":"07","lng":"52.46285","geonameId":609386,"toponymName":"Kirsanovo","countryId":"1522867","fcl":"P","population":0,"countryCode":"KZ","name":"Kirsanovo","fclName":"city, village,...","countryName":"Kazakhstan","fcodeName":"populated place","adminName1":"Batys Qazaqstan","lat":"51.45318","fcode":"PPL"},{"adminCode1":"00","lng":"52.64292","geonameId":7021089,"toponymName":"Stantsiya Kirsanov","countryId":"1522867","fcl":"S","population":0,"countryCode":"KZ","name":"Stantsiya Kirsanov","fclName":"spot, building, farm","countryName":"Kazakhstan","fcodeName":"railroad station","adminName1":"","lat":"42.72874","fcode":"RSTN"}]}