{"totalResultsCount":5,"geonames":[{"adminCode1":"10","lng":"33.10627","geonameId":548076,"toponymName":"Kistër","countryId":"2017370","fcl":"P","population":0,"countryCode":"RU","name":"Kistër","fclName":"city, village,...","countryName":"Russia","fcodeName":"populated place","adminName1":"Brjansk","lat":"52.40773","fcode":"PPL"},{"adminCode1":"00","lng":"21.56103","geonameId":8716749,"toponymName":"Kišter","countryId":"718075","fcl":"T","population":0,"countryCode":"MK","name":"Kišter","fclName":"mountain,hill,rock,... ","countryName":"Macedonia","fcodeName":"peak","adminName1":"","lat":"41.4776","fcode":"PK"},{"adminCode1":"CA","lng":"-121.3633","geonameId":5363530,"toponymName":"Kister","countryId":"6252001","fcl":"P","population":0,"countryCode":"US","name":"Kister","fclName":"city, village,...","countryName":"United States","fcodeName":"populated place","adminName1":"California","lat":"39.82211","fcode":"PPL"},{"adminCode1":"00","lng":"32.58383","geonameId":705747,"toponymName":"Kyster","countryId":"690791","fcl":"H","population":0,"countryCode":"UA","name":"Kyster","fclName":"stream, lake, ...","countryName":"Ukraine","fcodeName":"stream","adminName1":"","lat":"51.85095","fcode":"STM"},{"adminCode1":"OH","lng":"-82.00543","geonameId":5159834,"toponymName":"Kister Mill","countryId":"6252001","fcl":"S","population":0,"countryCode":"US","name":"Kister Mill","fclName":"spot, building, farm","countryName":"United States","fcodeName":"","adminName1":"Ohio","lat":"40.72645"}]}