{"totalResultsCount":12,"geonames":[{"adminCode1":"85","lng":"37.95","geonameId":543283,"toponymName":"Kozhino","countryId":"2017370","fcl":"P","population":0,"countryCode":"RU","name":"Kozhino","fclName":"city, village,...","countryName":"Russia","fcodeName":"populated place","adminName1":"Vologda","lat":"59.95","fcode":"PPL"},{"adminCode1":"85","lng":"39.3505","geonameId":543284,"toponymName":"Kozhino","countryId":"2017370","fcl":"P","population":0,"countryCode":"RU","name":"Kozhino","fclName":"city, village,...","countryName":"Russia","fcodeName":"populated place","adminName1":"Vologda","lat":"59.03771","fcode":"PPL"},{"adminCode1":"47","lng":"38.06855","geonameId":543290,"toponymName":"Kozhino","countryId":"2017370","fcl":"P","population":0,"countryCode":"RU","name":"Kozhino","fclName":"city, village,...","countryName":"Russia","fcodeName":"populated place","adminName1":"Moskovskaya","lat":"55.91872","fcode":"PPL"},{"adminCode1":"37","lng":"43.3068","geonameId":7492992,"toponymName":"Kozhino","countryId":"2017370","fcl":"P","population":0,"countryCode":"RU","name":"Kozhino","fclName":"city, village,...","countryName":"Russia","fcodeName":"populated place","adminName1":"Kostroma","lat":"58.3297","fcode":"PPL"},{"adminCode1":"85","lng":"39.9734","geonameId":7495323,"toponymName":"Kozhino","countryId":"2017370","fcl":"P","population":0,"countryCode":"RU","name":"Kozhino","fclName":"city, village,...","countryName":"Russia","fcodeName":"populated place","adminName1":"Vologda","lat":"59.1082","fcode":"PPL"},{"adminCode1":"88","lng":"37.7693","geonameId":7586331,"toponymName":"Kozhino","countryId":"2017370","fcl":"P","population":0,"countryCode":"RU","name":"Kozhino","fclName":"city, village,...","countryName":"Russia","fcodeName":"populated place","adminName1":"Jaroslavl","lat":"57.6375","fcode":"PPL"},{"adminCode1":"77","lng":"37.4436","geonameId":7586061,"toponymName":"Kozhino","countryId":"2017370","fcl":"P","population":0,"countryCode":"RU","name":"Kozhino","fclName":"city, village,...","countryName":"Russia","fcodeName":"populated place","adminName1":"Tverskaya","lat":"57.4246","fcode":"PPL"},{"adminCode1":"83","lng":"39.2271","geonameId":543288,"toponymName":"Kozhino","countryId":"2017370","fcl":"P","population":0,"countryCode":"RU","name":"Kozhino","fclName":"city, village,...","countryName":"Russia","fcodeName":"populated place","adminName1":"Vladimir","lat":"56.3573","fcode":"PPL"},{"adminCode1":"76","lng":"38.53345","geonameId":508073,"toponymName":"Podosinki-Kozhino","countryId":"2017370","fcl":"P","population":0,"countryCode":"RU","name":"Podosinki-Kozhino","fclName":"city, village,...","countryName":"Russia","fcodeName":"populated place","adminName1":"Tula","lat":"54.19911","fcode":"PPL"},{"adminCode1":"83","lng":"42.51975","geonameId":543289,"toponymName":"Kozhino","countryId":"2017370","fcl":"P","population":0,"countryCode":"RU","name":"Kozhino","fclName":"city, village,...","countryName":"Russia","fcodeName":"populated place","adminName1":"Vladimir","lat":"56.07984","fcode":"PPL"},{"adminCode1":"51","lng":"43.87977","geonameId":6419856,"toponymName":"Kozhino","countryId":"2017370","fcl":"P","population":0,"countryCode":"RU","name":"Kozhino","fclName":"city, village,...","countryName":"Russia","fcodeName":"populated place","adminName1":"Nizjnij Novgorod","lat":"55.32847","fcode":"PPL"},{"adminCode1":"76","lng":"37.27804","geonameId":7502284,"toponymName":"Kozhino","countryId":"2017370","fcl":"P","population":0,"countryCode":"RU","name":"Kozhino","fclName":"city, village,...","countryName":"Russia","fcodeName":"populated place","adminName1":"Tula","lat":"54.11953","fcode":"PPL"}]}