{"totalResultsCount":9,"geonames":[{"adminCode1":"62","lng":"39.30541","geonameId":543140,"toponymName":"Kozlovka","countryId":"2017370","fcl":"P","population":0,"countryCode":"RU","name":"Kozlovka","fclName":"city, village,...","countryName":"Russia","fcodeName":"populated place","adminName1":"Rjazan","lat":"54.70101","fcode":"PPL"},{"adminCode1":"76","lng":"38.36862","geonameId":543142,"toponymName":"Kozlovka","countryId":"2017370","fcl":"P","population":0,"countryCode":"RU","name":"Kozlovka","fclName":"city, village,...","countryName":"Russia","fcodeName":"populated place","adminName1":"Tula","lat":"54.6206","fcode":"PPL"},{"adminCode1":"76","lng":"36.56992","geonameId":543154,"toponymName":"Kozlovka","countryId":"2017370","fcl":"P","population":0,"countryCode":"RU","name":"Kozlovka","fclName":"city, village,...","countryName":"Russia","fcodeName":"populated place","adminName1":"Tula","lat":"53.49723","fcode":"PPL"},{"adminCode1":"47","lng":"38.96343","geonameId":819484,"toponymName":"Kozlovka","countryId":"2017370","fcl":"P","population":0,"countryCode":"RU","name":"Kozlovka","fclName":"city, village,...","countryName":"Russia","fcodeName":"populated place","adminName1":"Moskovskaya","lat":"54.80991","fcode":"PPL"},{"adminCode1":"62","lng":"39.0185","geonameId":543147,"toponymName":"Kozlovka","countryId":"2017370","fcl":"P","population":0,"countryCode":"RU","name":"Kozlovka","fclName":"city, village,...","countryName":"Russia","fcodeName":"populated place","adminName1":"Rjazan","lat":"54.2469","fcode":"PPL"},{"adminCode1":"56","lng":"37.46745","geonameId":543123,"toponymName":"Kozlovka","countryId":"2017370","fcl":"P","population":0,"countryCode":"RU","name":"Kozlovka","fclName":"city, village,...","countryName":"Russia","fcodeName":"section of populated place","adminName1":"Orjol","lat":"52.8717","fcode":"PPLX"},{"adminCode1":"76","lng":"37.67117","geonameId":543141,"toponymName":"Kozlovka","countryId":"2017370","fcl":"P","population":0,"countryCode":"RU","name":"Kozlovka","fclName":"city, village,...","countryName":"Russia","fcodeName":"populated place","adminName1":"Tula","lat":"54.69092","fcode":"PPL"},{"adminCode1":"76","lng":"38.7","geonameId":488603,"toponymName":"Starotroitskaya Kozlovka","countryId":"2017370","fcl":"P","population":0,"countryCode":"RU","name":"Starotroitskaya Kozlovka","fclName":"city, village,...","countryName":"Russia","fcodeName":"populated place","adminName1":"Tula","lat":"53.48333","fcode":"PPL"},{"adminCode1":"25","lng":"36.79141","geonameId":6652735,"toponymName":"Kozlovka","countryId":"2017370","fcl":"P","population":0,"countryCode":"RU","name":"Kozlovka","fclName":"city, village,...","countryName":"Russia","fcodeName":"populated place","adminName1":"Kaluga","lat":"54.50182","fcode":"PPL"}]}