{"totalResultsCount":50,"geonames":[{"countryId":"2017370","adminCode1":"86","countryName":"Russia","fclName":"city, village,...","countryCode":"RU","lng":"40.45556","fcodeName":"populated place","toponymName":"Kozlovka","fcl":"P","name":"Kozlovka","fcode":"PPL","geonameId":543171,"lat":"50.86222","adminName1":"Voronezj","population":3343},{"countryId":"2017370","adminCode1":"86","countryName":"Russia","fclName":"city, village,...","countryCode":"RU","lng":"41.29565","fcodeName":"populated place","toponymName":"Kozlovka","fcl":"P","name":"Kozlovka","fcode":"PPL","geonameId":543169,"lat":"51.66116","adminName1":"Voronezj","population":0},{"countryId":"2017370","adminCode1":"62","countryName":"Russia","fclName":"city, village,...","countryCode":"RU","lng":"39.3054","fcodeName":"populated place","toponymName":"Kozlovka","fcl":"P","name":"Kozlovka","fcode":"PPL","geonameId":543140,"lat":"54.70101","adminName1":"Rjazan","population":0},{"countryId":"2017370","adminCode1":"25","countryName":"Russia","fclName":"city, village,...","countryCode":"RU","lng":"35.19639","fcodeName":"populated place","toponymName":"Kozlovka","fcl":"P","name":"Kozlovka","fcode":"PPL","geonameId":543138,"lat":"54.79","adminName1":"Kaluga","population":0},{"countryId":"2017370","adminCode1":"76","countryName":"Russia","fclName":"city, village,...","countryCode":"RU","lng":"38.36862","fcodeName":"populated place","toponymName":"Kozlovka","fcl":"P","name":"Kozlovka","fcode":"PPL","geonameId":543142,"lat":"54.6206","adminName1":"Tula","population":0},{"countryId":"2017370","adminCode1":"76","countryName":"Russia","fclName":"city, village,...","countryCode":"RU","lng":"36.56992","fcodeName":"populated place","toponymName":"Kozlovka","fcl":"P","name":"Kozlovka","fcode":"PPL","geonameId":543154,"lat":"53.49723","adminName1":"Tula","population":0},{"countryId":"2017370","adminCode1":"57","countryName":"Russia","fclName":"city, village,...","countryCode":"RU","lng":"43.24378","fcodeName":"populated place","toponymName":"Kozlovka","fcl":"P","name":"Kozlovka","fcode":"PPL","geonameId":543156,"lat":"53.33807","adminName1":"Penza","population":0},{"countryId":"2017370","adminCode1":"10","countryName":"Russia","fclName":"city, village,...","countryCode":"RU","lng":"33.80222","fcodeName":"populated place","toponymName":"Kozlovka","fcl":"P","name":"Kozlovka","fcode":"PPL","geonameId":543159,"lat":"52.71898","adminName1":"Brjansk","population":0},{"countryId":"2017370","adminCode1":"56","countryName":"Russia","fclName":"city, village,...","countryCode":"RU","lng":"35.778","fcodeName":"populated place","toponymName":"Kozlovka","fcl":"P","name":"Kozlovka","fcode":"PPL","geonameId":543163,"lat":"52.5059","adminName1":"Orjol","population":0},{"countryId":"2017370","adminCode1":"56","countryName":"Russia","fclName":"city, village,...","countryCode":"RU","lng":"37.85611","fcodeName":"populated place","toponymName":"Kozlovka","fcl":"P","name":"Kozlovka","fcode":"PPL","geonameId":543164,"lat":"52.36889","adminName1":"Orjol","population":0},{"countryId":"2017370","adminCode1":"47","countryName":"Russia","fclName":"city, village,...","countryCode":"RU","lng":"38.96343","fcodeName":"populated place","toponymName":"Kozlovka","fcl":"P","name":"Kozlovka","fcode":"PPL","geonameId":819484,"lat":"54.80991","adminName1":"Moskovskaya","population":0},{"countryId":"2017370","adminCode1":"62","countryName":"Russia","fclName":"city, village,...","countryCode":"RU","lng":"39.84591","fcodeName":"populated place","toponymName":"Kozlovka","fcl":"P","name":"Kozlovka","fcode":"PPL","geonameId":822249,"lat":"53.80022","adminName1":"Rjazan","population":0},{"countryId":"2017370","adminCode1":"25","countryName":"Russia","fclName":"city, village,...","countryCode":"RU","lng":"33.72722","fcodeName":"populated place","toponymName":"Kozlovka","fcl":"P","name":"Kozlovka","fcode":"PPL","geonameId":811244,"lat":"54.49139","adminName1":"Kaluga","population":0},{"countryId":"2017370","adminCode1":"09","countryName":"Russia","fclName":"city, village,...","countryCode":"RU","lng":"36.56889","fcodeName":"populated place","toponymName":"Kozlovka","fcl":"P","name":"Kozlovka","fcode":"PPL","geonameId":806032,"lat":"51.01917","adminName1":"Belgorod","population":0},{"countryId":"2017370","adminCode1":"25","countryName":"Russia","fclName":"city, village,...","countryCode":"RU","lng":"33.705","fcodeName":"populated place","toponymName":"Kozlovka","fcl":"P","name":"Kozlovka","fcode":"PPL","geonameId":810886,"lat":"54.25861","adminName1":"Kaluga","population":0},{"countryId":"2017370","adminCode1":"69","countryName":"Russia","fclName":"city, village,...","countryCode":"RU","lng":"32.83361","fcodeName":"populated place","toponymName":"Kozlovka","fcl":"P","name":"Kozlovka","fcode":"PPL","geonameId":543151,"lat":"53.99389","adminName1":"Smolensk","population":0},{"countryId":"2017370","adminCode1":"25","countryName":"Russia","fclName":"city, village,...","countryCode":"RU","lng":"33.74515","fcodeName":"populated place","toponymName":"Kozlovka","fcl":"P","name":"Kozlovka","fcode":"PPL","geonameId":543148,"lat":"54.15986","adminName1":"Kaluga","population":0},{"countryId":"2017370","adminCode1":"85","countryName":"Russia","fclName":"city, village,...","countryCode":"RU","lng":"42.53534","fcodeName":"populated place","toponymName":"Kozlovka","fcl":"P","name":"Kozlovka","fcode":"PPL","geonameId":543127,"lat":"59.92033","adminName1":"Vologda","population":0},{"countryId":"2017370","adminCode1":"77","countryName":"Russia","fclName":"city, village,...","countryCode":"RU","lng":"35.38333","fcodeName":"populated place","toponymName":"Kozlovka","fcl":"P","name":"Kozlovka","fcode":"PPL","geonameId":543130,"lat":"57.26667","adminName1":"Tverskaya","population":0},{"countryId":"2017370","adminCode1":"69","countryName":"Russia","fclName":"city, village,...","countryCode":"RU","lng":"35.13864","fcodeName":"populated place","toponymName":"Kozlovka","fcl":"P","name":"Kozlovka","fcode":"PPL","geonameId":543134,"lat":"55.72187","adminName1":"Smolensk","population":0},{"countryId":"2017370","adminCode1":"62","countryName":"Russia","fclName":"city, village,...","countryCode":"RU","lng":"39.0185","fcodeName":"populated place","toponymName":"Kozlovka","fcl":"P","name":"Kozlovka","fcode":"PPL","geonameId":543147,"lat":"54.2469","adminName1":"Rjazan","population":0},{"countryId":"2017370","adminCode1":"69","countryName":"Russia","fclName":"city, village,...","countryCode":"RU","lng":"33.28167","fcodeName":"populated place","toponymName":"Kozlovka","fcl":"P","name":"Kozlovka","fcode":"PPL","geonameId":543149,"lat":"54.17472","adminName1":"Smolensk","population":0},{"countryId":"2017370","adminCode1":"57","countryName":"Russia","fclName":"city, village,...","countryCode":"RU","lng":"43.2149","fcodeName":"populated place","toponymName":"Kozlovka","fcl":"P","name":"Kozlovka","fcode":"PPL","geonameId":543158,"lat":"52.9337","adminName1":"Penza","population":0},{"countryId":"2017370","adminCode1":"72","countryName":"Russia","fclName":"city, village,...","countryCode":"RU","lng":"42.67024","fcodeName":"populated place","toponymName":"Kozlovka","fcl":"P","name":"Kozlovka","fcode":"PPL","geonameId":543166,"lat":"52.15956","adminName1":"Tambov","population":0},{"countryId":"2017370","adminCode1":"72","countryName":"Russia","fclName":"city, village,...","countryCode":"RU","lng":"41.40306","fcodeName":"populated place","toponymName":"Kozlovka","fcl":"P","name":"Kozlovka","fcode":"PPL","geonameId":543168,"lat":"51.97611","adminName1":"Tambov","population":0},{"countryId":"2017370","adminCode1":"09","countryName":"Russia","fclName":"city, village,...","countryCode":"RU","lng":"37.8296","fcodeName":"populated place","toponymName":"Kozlovka","fcl":"P","name":"Kozlovka","fcode":"PPL","geonameId":807830,"lat":"50.4025","adminName1":"Belgorod","population":0},{"countryId":"2017370","adminCode1":"56","countryName":"Russia","fclName":"city, village,...","countryCode":"RU","lng":"36.7525","fcodeName":"populated place","toponymName":"Kozlovka","fcl":"P","name":"Kozlovka","fcode":"PPL","geonameId":7451603,"lat":"52.6336","adminName1":"Orjol","population":0},{"countryId":"2017370","adminCode1":"25","countryName":"Russia","fclName":"city, village,...","countryCode":"RU","lng":"34.73333","fcodeName":"populated place","toponymName":"Kozlovka","fcl":"P","name":"Kozlovka","fcode":"PPL","geonameId":543144,"lat":"54.56667","adminName1":"Kaluga","population":0},{"countryId":"2017370","adminCode1":"46","countryName":"Russia","fclName":"city, village,...","countryCode":"RU","lng":"43.30948","fcodeName":"populated place","toponymName":"Mordovskaya Kozlovka","fcl":"P","name":"Mordovskaya Kozlovka","fcode":"PPL","geonameId":525347,"lat":"54.46472","adminName1":"Mordoviya","population":0},{"countryId":"2017370","adminCode1":"76","countryName":"Russia","fclName":"city, village,...","countryCode":"RU","lng":"37.67118","fcodeName":"populated place","toponymName":"Kozlovka","fcl":"P","name":"Kozlovka","fcode":"PPL","geonameId":543141,"lat":"54.69092","adminName1":"Tula","population":0},{"countryId":"2017370","adminCode1":"69","countryName":"Russia","fclName":"city, village,...","countryCode":"RU","lng":"32.41922","fcodeName":"populated place","toponymName":"Kozlovka","fcl":"P","name":"Kozlovka","fcode":"PPL","geonameId":543150,"lat":"54.16444","adminName1":"Smolensk","population":0},{"countryId":"2017370","adminCode1":"10","countryName":"Russia","fclName":"city, village,...","countryCode":"RU","lng":"33.21028","fcodeName":"populated place","toponymName":"Kozlovka","fcl":"P","name":"Kozlovka","fcode":"PPL","geonameId":863983,"lat":"53.09301","adminName1":"Brjansk","population":0},{"countryId":"2017370","adminCode1":"83","countryName":"Russia","fclName":"city, village,...","countryCode":"RU","lng":"41.0373","fcodeName":"populated place","toponymName":"Bol’shaya Kozlovka","fcl":"P","name":"Bol’shaya Kozlovka","fcode":"PPL","geonameId":574977,"lat":"55.9581","adminName1":"Vladimir","population":0},{"countryId":"2017370","adminCode1":"76","countryName":"Russia","fclName":"city, village,...","countryCode":"RU","lng":"38.7","fcodeName":"populated place","toponymName":"Starotroitskaya Kozlovka","fcl":"P","name":"Starotroitskaya Kozlovka","fcode":"PPL","geonameId":488603,"lat":"53.48333","adminName1":"Tula","population":0},{"countryId":"2017370","adminCode1":"83","countryName":"Russia","fclName":"city, village,...","countryCode":"RU","lng":"41.0102","fcodeName":"populated place","toponymName":"Malaya Kozlovka","fcl":"P","name":"Malaya Kozlovka","fcode":"PPL","geonameId":531577,"lat":"55.9441","adminName1":"Vladimir","population":0},{"countryId":"2017370","adminCode1":"52","countryName":"Russia","fclName":"city, village,...","countryCode":"RU","lng":"33.21718","fcodeName":"populated place","toponymName":"Kozlovka","fcl":"P","name":"Kozlovka","fcode":"PPL","geonameId":543129,"lat":"58.58574","adminName1":"Novgorod","population":0},{"countryId":"2017370","adminCode1":"83","countryName":"Russia","fclName":"city, village,...","countryCode":"RU","lng":"41.90195","fcodeName":"populated place","toponymName":"Kozlovka","fcl":"P","name":"Kozlovka","fcode":"PPL","geonameId":6422483,"lat":"56.38033","adminName1":"Vladimir","population":0},{"countryId":"2017370","adminCode1":"21","countryName":"Russia","fclName":"city, village,...","countryCode":"RU","lng":"42.67612","fcodeName":"populated place","toponymName":"Kozlovka","fcl":"P","name":"Kozlovka","fcode":"PPL","geonameId":6422806,"lat":"57.45972","adminName1":"Ivanovo","population":0},{"countryId":"2017370","adminCode1":"37","countryName":"Russia","fclName":"city, village,...","countryCode":"RU","lng":"42.35794","fcodeName":"populated place","toponymName":"Kozlovka","fcl":"P","name":"Kozlovka","fcode":"PPL","geonameId":6423482,"lat":"57.80991","adminName1":"Kostroma","population":0},{"countryId":"2017370","adminCode1":"72","countryName":"Russia","fclName":"city, village,...","countryCode":"RU","lng":"41.27624","fcodeName":"populated place","toponymName":"Kozlovka","fcl":"P","name":"Kozlovka","fcode":"PPL","geonameId":6769186,"lat":"52.78755","adminName1":"Tambov","population":0},{"countryId":"2017370","adminCode1":"51","countryName":"Russia","fclName":"city, village,...","countryCode":"RU","lng":"43.05282","fcodeName":"populated place","toponymName":"Kozlovka","fcl":"P","name":"Kozlovka","fcode":"PPL","geonameId":6607271,"lat":"56.00968","adminName1":"Nizjnij Novgorod","population":0},{"countryId":"2017370","adminCode1":"46","countryName":"Russia","fclName":"city, village,...","countryCode":"RU","lng":"43.34482","fcodeName":"populated place","toponymName":"Kozlovka","fcl":"P","name":"Kozlovka","fcode":"PPL","geonameId":6658705,"lat":"54.63344","adminName1":"Mordoviya","population":0},{"countryId":"2017370","adminCode1":"46","countryName":"Russia","fclName":"city, village,...","countryCode":"RU","lng":"43.34754","fcodeName":"populated place","toponymName":"Kozlovka","fcl":"P","name":"Kozlovka","fcode":"PPL","geonameId":6652456,"lat":"54.04422","adminName1":"Mordoviya","population":0},{"countryId":"2017370","adminCode1":"25","countryName":"Russia","fclName":"city, village,...","countryCode":"RU","lng":"36.79141","fcodeName":"populated place","toponymName":"Kozlovka","fcl":"P","name":"Kozlovka","fcode":"PPL","geonameId":6652735,"lat":"54.50182","adminName1":"Kaluga","population":0},{"countryId":"2017370","adminCode1":"69","countryName":"Russia","fclName":"city, village,...","countryCode":"RU","lng":"32.36147","fcodeName":"populated place","toponymName":"Komarovka","fcl":"P","name":"Komarovka Vtoraya","fcode":"PPL","geonameId":545907,"lat":"54.169","adminName1":"Smolensk","population":0},{"countryId":"690791","adminCode1":"21","countryName":"Ukraine","fclName":"city, village,...","countryCode":"UA","lng":"34.01358","fcodeName":"populated place","toponymName":"Kozlivka","fcl":"P","name":"Kozlivka","fcode":"PPL","geonameId":805540,"lat":"51.23292","adminName1":"Sumy","population":0},{"countryId":"2017370","adminCode1":"69","countryName":"Russia","fclName":"city, village,...","countryCode":"RU","lng":"34.18333","fcodeName":"populated place","toponymName":"Sutoki","fcl":"P","name":"Sutoki","fcode":"PPL","geonameId":485936,"lat":"55.38333","adminName1":"Smolensk","population":0},{"countryId":"2017370","adminCode1":"72","countryName":"Russia","fclName":"city, village,...","countryCode":"RU","lng":"41.47167","fcodeName":"populated place","toponymName":"Lugovaya","fcl":"P","name":"Lugovaya","fcode":"PPL","geonameId":533660,"lat":"52.0525","adminName1":"Tambov","population":0},{"countryId":"2017370","adminCode1":"46","countryName":"Russia","fclName":"city, village,...","countryCode":"RU","lng":"43.49096","fcodeName":"populated place","toponymName":"Russkaya Kozlovka","fcl":"P","name":"Russkaya Kozlovka","fcode":"PPL","geonameId":6654257,"lat":"54.27101","adminName1":"Mordoviya","population":0},{"countryId":"2017370","adminCode1":"69","countryName":"Russia","fclName":"city, village,...","countryCode":"RU","lng":"32.11656","fcodeName":"populated place","toponymName":"Kozlovo Vtoroye","fcl":"P","name":"Kozlovo Vtoroye","fcode":"PPL","geonameId":815477,"lat":"54.16223","adminName1":"Smolensk","population":0}]}