{"totalResultsCount":111,"geonames":[{"countryId":"2017370","adminCode1":"86","countryName":"Russia","fclName":"city, village,...","countryCode":"RU","lng":"40.45556","fcodeName":"populated place","toponymName":"Kozlovka","fcl":"P","name":"Kozlovka","fcode":"PPL","geonameId":543171,"lat":"50.86222","adminName1":"Voronezj","population":3343},{"countryId":"2017370","adminCode1":"16","countryName":"Russia","fclName":"city, village,...","countryCode":"RU","lng":"46.27518","fcodeName":"populated place","toponymName":"Kozlovka","fcl":"P","name":"Kozlovka","fcode":"PPL","geonameId":543136,"lat":"55.262","adminName1":"Chuvashia","population":0},{"countryId":"2017370","adminCode1":"86","countryName":"Russia","fclName":"city, village,...","countryCode":"RU","lng":"41.29565","fcodeName":"populated place","toponymName":"Kozlovka","fcl":"P","name":"Kozlovka","fcode":"PPL","geonameId":543169,"lat":"51.66116","adminName1":"Voronezj","population":0},{"countryId":"2017370","adminCode1":"84","countryName":"Russia","fclName":"city, village,...","countryCode":"RU","lng":"44.35622","fcodeName":"populated place","toponymName":"Kozlovka","fcl":"P","name":"Kozlovka","fcode":"PPL","geonameId":543170,"lat":"50.99726","adminName1":"Volgograd","population":0},{"countryId":"2017370","adminCode1":"78","countryName":"Russia","fclName":"city, village,...","countryCode":"RU","lng":"68.48333","fcodeName":"populated place","toponymName":"Kozlovka","fcl":"P","name":"Kozlovka","fcode":"PPL","geonameId":1502224,"lat":"56.16667","adminName1":"Tjumen","population":0},{"countryId":"2017370","adminCode1":"53","countryName":"Russia","fclName":"city, village,...","countryCode":"RU","lng":"84.18611","fcodeName":"populated place","toponymName":"Kozlovka","fcl":"P","name":"Kozlovka","fcode":"PPL","geonameId":1502225,"lat":"55.85944","adminName1":"Novosibirsk","population":0},{"countryId":"2017370","adminCode1":"53","countryName":"Russia","fclName":"city, village,...","countryCode":"RU","lng":"76.9658","fcodeName":"populated place","toponymName":"Kozlovka","fcl":"P","name":"Kozlovka","fcode":"PPL","geonameId":1502227,"lat":"55.60833","adminName1":"Novosibirsk","population":0},{"countryId":"2017370","adminCode1":"85","countryName":"Russia","fclName":"city, village,...","countryCode":"RU","lng":"45.57864","fcodeName":"populated place","toponymName":"Kozlovka","fcl":"P","name":"Kozlovka","fcode":"PPL","geonameId":543128,"lat":"59.4305","adminName1":"Vologda","population":0},{"countryId":"2017370","adminCode1":"46","countryName":"Russia","fclName":"city, village,...","countryCode":"RU","lng":"45.9034","fcodeName":"populated place","toponymName":"Kozlovka","fcl":"P","name":"Kozlovka","fcode":"PPL","geonameId":543139,"lat":"54.69976","adminName1":"Mordoviya","population":0},{"countryId":"2017370","adminCode1":"62","countryName":"Russia","fclName":"city, village,...","countryCode":"RU","lng":"39.3054","fcodeName":"populated place","toponymName":"Kozlovka","fcl":"P","name":"Kozlovka","fcode":"PPL","geonameId":543140,"lat":"54.70101","adminName1":"Rjazan","population":0},{"countryId":"2017370","adminCode1":"57","countryName":"Russia","fclName":"city, village,...","countryCode":"RU","lng":"45.69808","fcodeName":"populated place","toponymName":"Kozlovka","fcl":"P","name":"Kozlovka","fcode":"PPL","geonameId":543161,"lat":"52.54502","adminName1":"Penza","population":0},{"countryId":"2017370","adminCode1":"55","countryName":"Russia","fclName":"city, village,...","countryCode":"RU","lng":"53.8127","fcodeName":"populated place","toponymName":"Kozlovka","fcl":"P","name":"Kozlovka","fcode":"PPL","geonameId":543167,"lat":"52.0118","adminName1":"Orenburg","population":0},{"countryId":"2017370","adminCode1":"05","countryName":"Russia","fclName":"city, village,...","countryCode":"RU","lng":"129.19684","fcodeName":"populated place","toponymName":"Kozlovka","fcl":"P","name":"Kozlovka","fcode":"PPL","geonameId":2021662,"lat":"51.83169","adminName1":"Amur","population":0},{"countryId":"2017370","adminCode1":"53","countryName":"Russia","fclName":"city, village,...","countryCode":"RU","lng":"77.02648","fcodeName":"populated place","toponymName":"Kozlovka","fcl":"P","name":"Kozlovka","fcode":"PPL","geonameId":1502222,"lat":"56.78966","adminName1":"Novosibirsk","population":0},{"countryId":"2017370","adminCode1":"20","countryName":"Russia","fclName":"city, village,...","countryCode":"RU","lng":"97.85","fcodeName":"populated place","toponymName":"Kozlovka","fcl":"P","name":"Kozlovka","fcode":"PPL","geonameId":1502228,"lat":"55.6","adminName1":"Irkutsk","population":0},{"countryId":"2017370","adminCode1":"53","countryName":"Russia","fclName":"city, village,...","countryCode":"RU","lng":"75.69649","fcodeName":"populated place","toponymName":"Kozlovka","fcl":"P","name":"Kozlovka","fcode":"PPL","geonameId":1502229,"lat":"55.2361","adminName1":"Novosibirsk","population":0},{"countryId":"2017370","adminCode1":"06","countryName":"Russia","fclName":"city, village,...","countryCode":"RU","lng":"46.8","fcodeName":"populated place","toponymName":"Kozlovka","fcl":"P","name":"Kozlovka","fcode":"PPL","geonameId":543126,"lat":"61.3","adminName1":"Arkhangelskaya","population":0},{"countryId":"2017370","adminCode1":"77","countryName":"Russia","fclName":"city, village,...","countryCode":"RU","lng":"31.36667","fcodeName":"populated place","toponymName":"Kozlovka","fcl":"P","name":"Kozlovka","fcode":"PPL","geonameId":543131,"lat":"56.51667","adminName1":"Tverskaya","population":0},{"countryId":"2017370","adminCode1":"51","countryName":"Russia","fclName":"city, village,...","countryCode":"RU","lng":"45.90663","fcodeName":"populated place","toponymName":"Kozlovka","fcl":"P","name":"Kozlovka","fcode":"PPL","geonameId":543135,"lat":"55.69369","adminName1":"Nizjnij Novgorod","population":0},{"countryId":"2017370","adminCode1":"25","countryName":"Russia","fclName":"city, village,...","countryCode":"RU","lng":"35.19639","fcodeName":"populated place","toponymName":"Kozlovka","fcl":"P","name":"Kozlovka","fcode":"PPL","geonameId":543138,"lat":"54.79","adminName1":"Kaluga","population":0},{"countryId":"2017370","adminCode1":"76","countryName":"Russia","fclName":"city, village,...","countryCode":"RU","lng":"38.36862","fcodeName":"populated place","toponymName":"Kozlovka","fcl":"P","name":"Kozlovka","fcode":"PPL","geonameId":543142,"lat":"54.6206","adminName1":"Tula","population":0},{"countryId":"2017370","adminCode1":"81","countryName":"Russia","fclName":"city, village,...","countryCode":"RU","lng":"47.1728","fcodeName":"populated place","toponymName":"Kozlovka","fcl":"P","name":"Kozlovka","fcode":"PPL","geonameId":543143,"lat":"54.5933","adminName1":"Ulyanovsk","population":0},{"countryId":"2017370","adminCode1":"46","countryName":"Russia","fclName":"city, village,...","countryCode":"RU","lng":"45.44528","fcodeName":"populated place","toponymName":"Kozlovka","fcl":"P","name":"Kozlovka","fcode":"PPL","geonameId":543145,"lat":"54.48291","adminName1":"Mordoviya","population":0},{"countryId":"2017370","adminCode1":"46","countryName":"Russia","fclName":"city, village,...","countryCode":"RU","lng":"44.22836","fcodeName":"populated place","toponymName":"Kozlovka","fcl":"P","name":"Kozlovka","fcode":"PPL","geonameId":543152,"lat":"53.86642","adminName1":"Mordoviya","population":0},{"countryId":"2017370","adminCode1":"76","countryName":"Russia","fclName":"city, village,...","countryCode":"RU","lng":"36.56992","fcodeName":"populated place","toponymName":"Kozlovka","fcl":"P","name":"Kozlovka","fcode":"PPL","geonameId":543154,"lat":"53.49723","adminName1":"Tula","population":0},{"countryId":"2017370","adminCode1":"57","countryName":"Russia","fclName":"city, village,...","countryCode":"RU","lng":"46.36036","fcodeName":"populated place","toponymName":"Kozlovka","fcl":"P","name":"Kozlovka","fcode":"PPL","geonameId":543155,"lat":"53.43762","adminName1":"Penza","population":0},{"countryId":"2017370","adminCode1":"57","countryName":"Russia","fclName":"city, village,...","countryCode":"RU","lng":"43.24378","fcodeName":"populated place","toponymName":"Kozlovka","fcl":"P","name":"Kozlovka","fcode":"PPL","geonameId":543156,"lat":"53.33807","adminName1":"Penza","population":0},{"countryId":"2017370","adminCode1":"10","countryName":"Russia","fclName":"city, village,...","countryCode":"RU","lng":"33.80222","fcodeName":"populated place","toponymName":"Kozlovka","fcl":"P","name":"Kozlovka","fcode":"PPL","geonameId":543159,"lat":"52.71898","adminName1":"Brjansk","population":0},{"countryId":"2017370","adminCode1":"55","countryName":"Russia","fclName":"city, village,...","countryCode":"RU","lng":"53.25","fcodeName":"populated place","toponymName":"Kozlovka","fcl":"P","name":"Kozlovka","fcode":"PPL","geonameId":543162,"lat":"52.5","adminName1":"Orenburg","population":0},{"countryId":"2017370","adminCode1":"56","countryName":"Russia","fclName":"city, village,...","countryCode":"RU","lng":"35.778","fcodeName":"populated place","toponymName":"Kozlovka","fcl":"P","name":"Kozlovka","fcode":"PPL","geonameId":543163,"lat":"52.5059","adminName1":"Orjol","population":0},{"countryId":"2017370","adminCode1":"56","countryName":"Russia","fclName":"city, village,...","countryCode":"RU","lng":"37.85611","fcodeName":"populated place","toponymName":"Kozlovka","fcl":"P","name":"Kozlovka","fcode":"PPL","geonameId":543164,"lat":"52.36889","adminName1":"Orjol","population":0},{"countryId":"2017370","adminCode1":"55","countryName":"Russia","fclName":"city, village,...","countryCode":"RU","lng":"56.19611","fcodeName":"populated place","toponymName":"Kozlovka","fcl":"P","name":"Kozlovka","fcode":"PPL","geonameId":543165,"lat":"52.28972","adminName1":"Orenburg","population":0},{"countryId":"2017370","adminCode1":"78","countryName":"Russia","fclName":"city, village,...","countryCode":"RU","lng":"69.78468","fcodeName":"populated place","toponymName":"Kozlovka","fcl":"P","name":"Kozlovka","fcode":"PPL","geonameId":1543770,"lat":"55.355","adminName1":"Tjumen","population":0},{"countryId":"2017370","adminCode1":"91","countryName":"Russia","fclName":"city, village,...","countryCode":"RU","lng":"90.8281","fcodeName":"populated place","toponymName":"Kozlovka","fcl":"P","name":"Kozlovka","fcode":"PPL","geonameId":1502223,"lat":"56.3804","adminName1":"Krasnoyarskiy","population":0},{"countryId":"2017370","adminCode1":"51","countryName":"Russia","fclName":"city, village,...","countryCode":"RU","lng":"43.98893","fcodeName":"populated place","toponymName":"Kozlovka","fcl":"P","name":"Kozlovka","fcode":"PPL","geonameId":875401,"lat":"56.20511","adminName1":"Nizjnij Novgorod","population":0},{"countryId":"2017370","adminCode1":"47","countryName":"Russia","fclName":"city, village,...","countryCode":"RU","lng":"38.96343","fcodeName":"populated place","toponymName":"Kozlovka","fcl":"P","name":"Kozlovka","fcode":"PPL","geonameId":819484,"lat":"54.80991","adminName1":"Moskovskaya","population":0},{"countryId":"2017370","adminCode1":"37","countryName":"Russia","fclName":"city, village,...","countryCode":"RU","lng":"46.51871","fcodeName":"populated place","toponymName":"Kozlovka","fcl":"P","name":"Kozlovka","fcode":"PPL","geonameId":827319,"lat":"58.9635","adminName1":"Kostroma","population":0},{"countryId":"2017370","adminCode1":"62","countryName":"Russia","fclName":"city, village,...","countryCode":"RU","lng":"39.84591","fcodeName":"populated place","toponymName":"Kozlovka","fcl":"P","name":"Kozlovka","fcode":"PPL","geonameId":822249,"lat":"53.80022","adminName1":"Rjazan","population":0},{"countryId":"2017370","adminCode1":"25","countryName":"Russia","fclName":"city, village,...","countryCode":"RU","lng":"33.72722","fcodeName":"populated place","toponymName":"Kozlovka","fcl":"P","name":"Kozlovka","fcode":"PPL","geonameId":811244,"lat":"54.49139","adminName1":"Kaluga","population":0},{"countryId":"2017370","adminCode1":"09","countryName":"Russia","fclName":"city, village,...","countryCode":"RU","lng":"36.56889","fcodeName":"populated place","toponymName":"Kozlovka","fcl":"P","name":"Kozlovka","fcode":"PPL","geonameId":806032,"lat":"51.01917","adminName1":"Belgorod","population":0},{"countryId":"2017370","adminCode1":"25","countryName":"Russia","fclName":"city, village,...","countryCode":"RU","lng":"33.705","fcodeName":"populated place","toponymName":"Kozlovka","fcl":"P","name":"Kozlovka","fcode":"PPL","geonameId":810886,"lat":"54.25861","adminName1":"Kaluga","population":0},{"countryId":"2017370","adminCode1":"67","countryName":"Russia","fclName":"city, village,...","countryCode":"RU","lng":"43.96689","fcodeName":"populated place","toponymName":"Kozlovka","fcl":"P","name":"Kozlovka","fcode":"PPL","geonameId":803090,"lat":"51.84617","adminName1":"Saratov","population":0},{"countryId":"2017370","adminCode1":"37","countryName":"Russia","fclName":"city, village,...","countryCode":"RU","lng":"46.7072","fcodeName":"populated place","toponymName":"Kozlovka","fcl":"P","name":"Kozlovka","fcode":"PPL","geonameId":7496346,"lat":"59.0176","adminName1":"Kostroma","population":0},{"countryId":"2017370","adminCode1":"46","countryName":"Russia","fclName":"city, village,...","countryCode":"RU","lng":"45.7983","fcodeName":"populated place","toponymName":"Kozlovka","fcl":"P","name":"Kozlovka","fcode":"PPL","geonameId":7596477,"lat":"54.8734","adminName1":"Mordoviya","population":0},{"countryId":"2017370","adminCode1":"60","countryName":"Russia","fclName":"city, village,...","countryCode":"RU","lng":"29.247","fcodeName":"populated place","toponymName":"Kozlovka","fcl":"P","name":"Kozlovka","fcode":"PPL","geonameId":7597400,"lat":"56.9894","adminName1":"Pskov","population":0},{"countryId":"2017370","adminCode1":"16","countryName":"Russia","fclName":"city, village,...","countryCode":"RU","lng":"48.2492","fcodeName":"populated place","toponymName":"Kozlovka","fcl":"P","name":"Kozlovka","fcode":"PPL","geonameId":543133,"lat":"55.84284","adminName1":"Chuvashia","population":11700},{"countryId":"2017370","adminCode1":"81","countryName":"Russia","fclName":"city, village,...","countryCode":"RU","lng":"47.7511","fcodeName":"populated place","toponymName":"Kozlovka","fcl":"P","name":"Kozlovka","fcode":"PPL","geonameId":543146,"lat":"54.2765","adminName1":"Ulyanovsk","population":0},{"countryId":"2017370","adminCode1":"69","countryName":"Russia","fclName":"city, village,...","countryCode":"RU","lng":"32.83361","fcodeName":"populated place","toponymName":"Kozlovka","fcl":"P","name":"Kozlovka","fcode":"PPL","geonameId":543151,"lat":"53.99389","adminName1":"Smolensk","population":0},{"countryId":"2017370","adminCode1":"25","countryName":"Russia","fclName":"city, village,...","countryCode":"RU","lng":"33.74515","fcodeName":"populated place","toponymName":"Kozlovka","fcl":"P","name":"Kozlovka","fcode":"PPL","geonameId":543148,"lat":"54.15986","adminName1":"Kaluga","population":0},{"countryId":"2017370","adminCode1":"30","countryName":"Russia","fclName":"city, village,...","countryCode":"RU","lng":"134.10041","fcodeName":"populated place","toponymName":"Kozlovka","fcl":"P","name":"Kozlovka","fcode":"PPL","geonameId":2021663,"lat":"47.01499","adminName1":"Khabarovsk Krai","population":0},{"countryId":"2017370","adminCode1":"85","countryName":"Russia","fclName":"city, village,...","countryCode":"RU","lng":"42.53534","fcodeName":"populated place","toponymName":"Kozlovka","fcl":"P","name":"Kozlovka","fcode":"PPL","geonameId":543127,"lat":"59.92033","adminName1":"Vologda","population":0},{"countryId":"2017370","adminCode1":"77","countryName":"Russia","fclName":"city, village,...","countryCode":"RU","lng":"35.38333","fcodeName":"populated place","toponymName":"Kozlovka","fcl":"P","name":"Kozlovka","fcode":"PPL","geonameId":543130,"lat":"57.26667","adminName1":"Tverskaya","population":0},{"countryId":"2017370","adminCode1":"69","countryName":"Russia","fclName":"city, village,...","countryCode":"RU","lng":"35.13864","fcodeName":"populated place","toponymName":"Kozlovka","fcl":"P","name":"Kozlovka","fcode":"PPL","geonameId":543134,"lat":"55.72187","adminName1":"Smolensk","population":0},{"countryId":"2017370","adminCode1":"73","countryName":"Russia","fclName":"city, village,...","countryCode":"RU","lng":"48.37742","fcodeName":"populated place","toponymName":"Kozlovka","fcl":"P","name":"Kozlovka","fcode":"PPL","geonameId":543137,"lat":"54.86366","adminName1":"Tatarstan","population":0},{"countryId":"2017370","adminCode1":"62","countryName":"Russia","fclName":"city, village,...","countryCode":"RU","lng":"39.0185","fcodeName":"populated place","toponymName":"Kozlovka","fcl":"P","name":"Kozlovka","fcode":"PPL","geonameId":543147,"lat":"54.2469","adminName1":"Rjazan","population":0},{"countryId":"2017370","adminCode1":"69","countryName":"Russia","fclName":"city, village,...","countryCode":"RU","lng":"33.28167","fcodeName":"populated place","toponymName":"Kozlovka","fcl":"P","name":"Kozlovka","fcode":"PPL","geonameId":543149,"lat":"54.17472","adminName1":"Smolensk","population":0},{"countryId":"2017370","adminCode1":"55","countryName":"Russia","fclName":"city, village,...","countryCode":"RU","lng":"52.62384","fcodeName":"populated place","toponymName":"Kozlovka","fcl":"P","name":"Kozlovka","fcode":"PPL","geonameId":543153,"lat":"53.57637","adminName1":"Orenburg","population":0},{"countryId":"2017370","adminCode1":"55","countryName":"Russia","fclName":"city, village,...","countryCode":"RU","lng":"52.99289","fcodeName":"populated place","toponymName":"Kozlovka","fcl":"P","name":"Kozlovka","fcode":"PPL","geonameId":543157,"lat":"53.298","adminName1":"Orenburg","population":0},{"countryId":"2017370","adminCode1":"57","countryName":"Russia","fclName":"city, village,...","countryCode":"RU","lng":"43.2149","fcodeName":"populated place","toponymName":"Kozlovka","fcl":"P","name":"Kozlovka","fcode":"PPL","geonameId":543158,"lat":"52.9337","adminName1":"Penza","population":0},{"countryId":"2017370","adminCode1":"67","countryName":"Russia","fclName":"city, village,...","countryCode":"RU","lng":"46.6348","fcodeName":"populated place","toponymName":"Kozlovka","fcl":"P","name":"Kozlovka","fcode":"PPL","geonameId":543160,"lat":"52.65047","adminName1":"Saratov","population":0},{"countryId":"2017370","adminCode1":"72","countryName":"Russia","fclName":"city, village,...","countryCode":"RU","lng":"42.67024","fcodeName":"populated place","toponymName":"Kozlovka","fcl":"P","name":"Kozlovka","fcode":"PPL","geonameId":543166,"lat":"52.15956","adminName1":"Tambov","population":0},{"countryId":"2017370","adminCode1":"72","countryName":"Russia","fclName":"city, village,...","countryCode":"RU","lng":"41.40306","fcodeName":"populated place","toponymName":"Kozlovka","fcl":"P","name":"Kozlovka","fcode":"PPL","geonameId":543168,"lat":"51.97611","adminName1":"Tambov","population":0},{"countryId":"2017370","adminCode1":"54","countryName":"Russia","fclName":"city, village,...","countryCode":"RU","lng":"71.55692","fcodeName":"populated place","toponymName":"Kozlovka","fcl":"P","name":"Kozlovka","fcode":"PPL","geonameId":1502226,"lat":"55.73679","adminName1":"Omsk","population":0},{"countryId":"2017370","adminCode1":"09","countryName":"Russia","fclName":"city, village,...","countryCode":"RU","lng":"37.8296","fcodeName":"populated place","toponymName":"Kozlovka","fcl":"P","name":"Kozlovka","fcode":"PPL","geonameId":807830,"lat":"50.4025","adminName1":"Belgorod","population":0},{"countryId":"2017370","adminCode1":"56","countryName":"Russia","fclName":"city, village,...","countryCode":"RU","lng":"36.7525","fcodeName":"populated place","toponymName":"Kozlovka","fcl":"P","name":"Kozlovka","fcode":"PPL","geonameId":7451603,"lat":"52.6336","adminName1":"Orjol","population":0},{"countryId":"2017370","adminCode1":"16","countryName":"Russia","fclName":"city, village,...","countryCode":"RU","lng":"46.21697","fcodeName":"populated place","toponymName":"Kozlovka","fcl":"P","name":"Kozlovka","fcode":"PPL","geonameId":543132,"lat":"55.90683","adminName1":"Chuvashia","population":0},{"countryId":"2017370","adminCode1":"25","countryName":"Russia","fclName":"city, village,...","countryCode":"RU","lng":"34.73333","fcodeName":"populated place","toponymName":"Kozlovka","fcl":"P","name":"Kozlovka","fcode":"PPL","geonameId":543144,"lat":"54.56667","adminName1":"Kaluga","population":0},{"countryId":"2017370","adminCode1":"46","countryName":"Russia","fclName":"city, village,...","countryCode":"RU","lng":"43.30948","fcodeName":"populated place","toponymName":"Mordovskaya Kozlovka","fcl":"P","name":"Mordovskaya Kozlovka","fcode":"PPL","geonameId":525347,"lat":"54.46472","adminName1":"Mordoviya","population":0},{"countryId":"2017370","adminCode1":"76","countryName":"Russia","fclName":"city, village,...","countryCode":"RU","lng":"37.67118","fcodeName":"populated place","toponymName":"Kozlovka","fcl":"P","name":"Kozlovka","fcode":"PPL","geonameId":543141,"lat":"54.69092","adminName1":"Tula","population":0},{"countryId":"2017370","adminCode1":"69","countryName":"Russia","fclName":"city, village,...","countryCode":"RU","lng":"32.41922","fcodeName":"populated place","toponymName":"Kozlovka","fcl":"P","name":"Kozlovka","fcode":"PPL","geonameId":543150,"lat":"54.16444","adminName1":"Smolensk","population":0},{"countryId":"630336","adminCode1":"07","countryName":"Belarus","fclName":"city, village,...","countryCode":"BY","lng":"29.7471","fcodeName":"populated place","toponymName":"Kozlovka","fcl":"P","name":"Kozlovka","fcode":"PPL","geonameId":8232697,"lat":"54.8088","adminName1":"Vitsyebskaya Voblastsʼ","population":0},{"countryId":"630336","adminCode1":"07","countryName":"Belarus","fclName":"city, village,...","countryCode":"BY","lng":"28.6347","fcodeName":"populated place","toponymName":"Kozlovka","fcl":"P","name":"Kozlovka","fcode":"PPL","geonameId":8213528,"lat":"55.4064","adminName1":"Vitsyebskaya Voblastsʼ","population":0},{"countryId":"630336","adminCode1":"05","countryName":"Belarus","fclName":"city, village,...","countryCode":"BY","lng":"27.2745","fcodeName":"populated place","toponymName":"Kozlovka","fcl":"P","name":"Kozlovka","fcode":"PPL","geonameId":8019761,"lat":"53.8737","adminName1":"Minskaja Voblasts’","population":0},{"countryId":"2017370","adminCode1":"90","countryName":"Russia","fclName":"city, village,...","countryCode":"RU","lng":"56.55338","fcodeName":"populated place","toponymName":"Kozlovka","fcl":"P","name":"Kozlovka","fcode":"PPL","geonameId":6820090,"lat":"56.75449","adminName1":"Perm","population":0},{"countryId":"630336","adminCode1":"06","countryName":"Belarus","fclName":"city, village,...","countryCode":"BY","lng":"31.5683","fcodeName":"populated place","toponymName":"Kozlovka","fcl":"P","name":"Kozlovka","fcode":"PPL","geonameId":8282054,"lat":"54.0949","adminName1":"Mahilyowskaya Voblastsʼ","population":0},{"countryId":"2017370","adminCode1":"16","countryName":"Russia","fclName":"city, village,...","countryCode":"RU","lng":"47.70401","fcodeName":"populated place","toponymName":"Kozlovka","fcl":"P","name":"Kozlovka","fcode":"PPL","geonameId":506091,"lat":"55.07442","adminName1":"Chuvashia","population":0},{"countryId":"2017370","adminCode1":"67","countryName":"Russia","fclName":"city, village,...","countryCode":"RU","lng":"47.57641","fcodeName":"populated place","toponymName":"Kozlovka","fcl":"P","name":"Kozlovka","fcode":"PPL","geonameId":543172,"lat":"50.85996","adminName1":"Saratov","population":0},{"countryId":"2017370","adminCode1":"10","countryName":"Russia","fclName":"city, village,...","countryCode":"RU","lng":"33.21028","fcodeName":"populated place","toponymName":"Kozlovka","fcl":"P","name":"Kozlovka","fcode":"PPL","geonameId":863983,"lat":"53.09301","adminName1":"Brjansk","population":0},{"countryId":"630336","adminCode1":"05","countryName":"Belarus","fclName":"city, village,...","countryCode":"BY","lng":"28.5905","fcodeName":"populated place","toponymName":"Kozlovka","fcl":"P","name":"Kozlovka","fcode":"PPL","geonameId":8248214,"lat":"54.1021","adminName1":"Minskaja Voblasts’","population":0},{"countryId":"2017370","adminCode1":"91","countryName":"Russia","fclName":"city, village,...","countryCode":"RU","lng":"93.1799","fcodeName":"populated place","toponymName":"Kozlovka","fcl":"P","name":"Kozlovka","fcode":"PPL","geonameId":8357281,"lat":"53.659","adminName1":"Krasnoyarskiy","population":0},{"countryId":"2017370","adminCode1":"65","countryName":"Russia","fclName":"city, village,...","countryCode":"RU","lng":"51.34677","fcodeName":"populated place","toponymName":"Nizhnyaya Kozlovka","fcl":"P","name":"Nizhnyaya Kozlovka","fcode":"PPL","geonameId":520339,"lat":"53.73848","adminName1":"Samara","population":0},{"countryId":"690791","adminCode1":"17","countryName":"Ukraine","fclName":"city, village,...","countryCode":"UA","lng":"30.45413","fcodeName":"populated place","toponymName":"Kozlovka","fcl":"P","name":"Kozlovka","fcode":"PPL","geonameId":704536,"lat":"47.06956","adminName1":"Odessa","population":0},{"countryId":"2017370","adminCode1":"33","countryName":"Russia","fclName":"city, village,...","countryCode":"RU","lng":"46.84117","fcodeName":"populated place","toponymName":"Bol’shaya Kozlovka","fcl":"P","name":"Bol’shaya Kozlovka","fcode":"PPL","geonameId":574976,"lat":"58.15456","adminName1":"Kirov","population":0},{"countryId":"2017370","adminCode1":"83","countryName":"Russia","fclName":"city, village,...","countryCode":"RU","lng":"41.0373","fcodeName":"populated place","toponymName":"Bol’shaya Kozlovka","fcl":"P","name":"Bol’shaya Kozlovka","fcode":"PPL","geonameId":574977,"lat":"55.9581","adminName1":"Vladimir","population":0},{"countryId":"2017370","adminCode1":"76","countryName":"Russia","fclName":"city, village,...","countryCode":"RU","lng":"38.7","fcodeName":"populated place","toponymName":"Starotroitskaya Kozlovka","fcl":"P","name":"Starotroitskaya Kozlovka","fcode":"PPL","geonameId":488603,"lat":"53.48333","adminName1":"Tula","population":0},{"countryId":"2017370","adminCode1":"55","countryName":"Russia","fclName":"city, village,...","countryCode":"RU","lng":"56.13333","fcodeName":"populated place","toponymName":"Kozlovka Vtoraya","fcl":"P","name":"Kozlovka Vtoraya","fcode":"PPL","geonameId":543121,"lat":"52.25","adminName1":"Orenburg","population":0},{"countryId":"2017370","adminCode1":"33","countryName":"Russia","fclName":"city, village,...","countryCode":"RU","lng":"46.86339","fcodeName":"populated place","toponymName":"Malaya Kozlovka","fcl":"P","name":"Malaya Kozlovka","fcode":"PPL","geonameId":531576,"lat":"58.17602","adminName1":"Kirov","population":0},{"countryId":"2017370","adminCode1":"83","countryName":"Russia","fclName":"city, village,...","countryCode":"RU","lng":"41.0102","fcodeName":"populated place","toponymName":"Malaya Kozlovka","fcl":"P","name":"Malaya Kozlovka","fcode":"PPL","geonameId":531577,"lat":"55.9441","adminName1":"Vladimir","population":0},{"countryId":"2017370","adminCode1":"16","countryName":"Russia","fclName":"city, village,...","countryCode":"RU","lng":"48.26622","fcodeName":"populated place","toponymName":"Komarovka","fcl":"P","name":"Komarovka","fcode":"PPL","geonameId":545910,"lat":"55.83074","adminName1":"Chuvashia","population":0},{"countryId":"2017370","adminCode1":"52","countryName":"Russia","fclName":"city, village,...","countryCode":"RU","lng":"33.21718","fcodeName":"populated place","toponymName":"Kozlovka","fcl":"P","name":"Kozlovka","fcode":"PPL","geonameId":543129,"lat":"58.58574","adminName1":"Novgorod","population":0},{"countryId":"2017370","adminCode1":"83","countryName":"Russia","fclName":"city, village,...","countryCode":"RU","lng":"41.90195","fcodeName":"populated place","toponymName":"Kozlovka","fcl":"P","name":"Kozlovka","fcode":"PPL","geonameId":6422483,"lat":"56.38033","adminName1":"Vladimir","population":0},{"countryId":"2017370","adminCode1":"21","countryName":"Russia","fclName":"city, village,...","countryCode":"RU","lng":"42.67612","fcodeName":"populated place","toponymName":"Kozlovka","fcl":"P","name":"Kozlovka","fcode":"PPL","geonameId":6422806,"lat":"57.45972","adminName1":"Ivanovo","population":0},{"countryId":"2017370","adminCode1":"37","countryName":"Russia","fclName":"city, village,...","countryCode":"RU","lng":"42.35794","fcodeName":"populated place","toponymName":"Kozlovka","fcl":"P","name":"Kozlovka","fcode":"PPL","geonameId":6423482,"lat":"57.80991","adminName1":"Kostroma","population":0},{"countryId":"690791","adminCode1":"23","countryName":"Ukraine","fclName":"city, village,...","countryCode":"UA","lng":"29.05516","fcodeName":"populated place","toponymName":"Kozlovka","fcl":"P","name":"Kozlovka","fcode":"PPL","geonameId":704534,"lat":"48.22373","adminName1":"Vinnyts'ka","population":0},{"countryId":"2017370","adminCode1":"72","countryName":"Russia","fclName":"city, village,...","countryCode":"RU","lng":"41.27624","fcodeName":"populated place","toponymName":"Kozlovka","fcl":"P","name":"Kozlovka","fcode":"PPL","geonameId":6769186,"lat":"52.78755","adminName1":"Tambov","population":0},{"countryId":"2017370","adminCode1":"51","countryName":"Russia","fclName":"city, village,...","countryCode":"RU","lng":"43.05282","fcodeName":"populated place","toponymName":"Kozlovka","fcl":"P","name":"Kozlovka","fcode":"PPL","geonameId":6607271,"lat":"56.00968","adminName1":"Nizjnij Novgorod","population":0},{"countryId":"2017370","adminCode1":"46","countryName":"Russia","fclName":"city, village,...","countryCode":"RU","lng":"43.34482","fcodeName":"populated place","toponymName":"Kozlovka","fcl":"P","name":"Kozlovka","fcode":"PPL","geonameId":6658705,"lat":"54.63344","adminName1":"Mordoviya","population":0},{"countryId":"2017370","adminCode1":"67","countryName":"Russia","fclName":"city, village,...","countryCode":"RU","lng":"46.20019","fcodeName":"populated place","toponymName":"Kozlovka","fcl":"P","name":"Kozlovka","fcode":"PPL","geonameId":6611933,"lat":"51.68357","adminName1":"Saratov","population":0},{"countryId":"2017370","adminCode1":"46","countryName":"Russia","fclName":"city, village,...","countryCode":"RU","lng":"43.34754","fcodeName":"populated place","toponymName":"Kozlovka","fcl":"P","name":"Kozlovka","fcode":"PPL","geonameId":6652456,"lat":"54.04422","adminName1":"Mordoviya","population":0},{"countryId":"2017370","adminCode1":"25","countryName":"Russia","fclName":"city, village,...","countryCode":"RU","lng":"36.79141","fcodeName":"populated place","toponymName":"Kozlovka","fcl":"P","name":"Kozlovka","fcode":"PPL","geonameId":6652735,"lat":"54.50182","adminName1":"Kaluga","population":0}]}