{"totalResultsCount":31,"geonames":[{"adminCode1":"85","lng":"37.95","geonameId":543283,"toponymName":"Kozhino","countryId":"2017370","fcl":"P","population":0,"countryCode":"RU","name":"Kozhino","fclName":"city, village,...","countryName":"Russia","fcodeName":"populated place","adminName1":"Vologda","lat":"59.95","fcode":"PPL"},{"adminCode1":"85","lng":"39.3505","geonameId":543284,"toponymName":"Kozhino","countryId":"2017370","fcl":"P","population":0,"countryCode":"RU","name":"Kozhino","fclName":"city, village,...","countryName":"Russia","fcodeName":"populated place","adminName1":"Vologda","lat":"59.03771","fcode":"PPL"},{"adminCode1":"77","lng":"34.34079","geonameId":543287,"toponymName":"Kozhino","countryId":"2017370","fcl":"P","population":0,"countryCode":"RU","name":"Kozhino","fclName":"city, village,...","countryName":"Russia","fcodeName":"populated place","adminName1":"Tverskaya","lat":"57.29962","fcode":"PPL"},{"adminCode1":"47","lng":"38.06855","geonameId":543290,"toponymName":"Kozhino","countryId":"2017370","fcl":"P","population":0,"countryCode":"RU","name":"Kozhino","fclName":"city, village,...","countryName":"Russia","fcodeName":"populated place","adminName1":"Moskovskaya","lat":"55.91872","fcode":"PPL"},{"adminCode1":"47","lng":"35.38393","geonameId":543291,"toponymName":"Kozhino","countryId":"2017370","fcl":"P","population":0,"countryCode":"RU","name":"Kozhino","fclName":"city, village,...","countryName":"Russia","fcodeName":"populated place","adminName1":"Moskovskaya","lat":"55.7716","fcode":"PPL"},{"adminCode1":"47","lng":"36.26361","geonameId":543293,"toponymName":"Kozhino","countryId":"2017370","fcl":"P","population":0,"countryCode":"RU","name":"Kozhino","fclName":"city, village,...","countryName":"Russia","fcodeName":"populated place","adminName1":"Moskovskaya","lat":"55.60722","fcode":"PPL"},{"adminCode1":"37","lng":"43.3068","geonameId":7492992,"toponymName":"Kozhino","countryId":"2017370","fcl":"P","population":0,"countryCode":"RU","name":"Kozhino","fclName":"city, village,...","countryName":"Russia","fcodeName":"populated place","adminName1":"Kostroma","lat":"58.3297","fcode":"PPL"},{"adminCode1":"85","lng":"39.9734","geonameId":7495323,"toponymName":"Kozhino","countryId":"2017370","fcl":"P","population":0,"countryCode":"RU","name":"Kozhino","fclName":"city, village,...","countryName":"Russia","fcodeName":"populated place","adminName1":"Vologda","lat":"59.1082","fcode":"PPL"},{"adminCode1":"88","lng":"37.7693","geonameId":7586331,"toponymName":"Kozhino","countryId":"2017370","fcl":"P","population":0,"countryCode":"RU","name":"Kozhino","fclName":"city, village,...","countryName":"Russia","fcodeName":"populated place","adminName1":"Jaroslavl","lat":"57.6375","fcode":"PPL"},{"adminCode1":"60","lng":"29.7131","geonameId":7597585,"toponymName":"Kozhino","countryId":"2017370","fcl":"P","population":0,"countryCode":"RU","name":"Kozhino","fclName":"city, village,...","countryName":"Russia","fcodeName":"populated place","adminName1":"Pskov","lat":"56.8281","fcode":"PPL"},{"adminCode1":"60","lng":"29.3796","geonameId":7597639,"toponymName":"Kozhino","countryId":"2017370","fcl":"P","population":0,"countryCode":"RU","name":"Kozhino","fclName":"city, village,...","countryName":"Russia","fcodeName":"populated place","adminName1":"Pskov","lat":"56.8071","fcode":"PPL"},{"adminCode1":"60","lng":"30.8996","geonameId":7598240,"toponymName":"Kozhino","countryId":"2017370","fcl":"P","population":0,"countryCode":"RU","name":"Kozhino","fclName":"city, village,...","countryName":"Russia","fcodeName":"populated place","adminName1":"Pskov","lat":"56.2208","fcode":"PPL"},{"adminCode1":"77","lng":"34.5014","geonameId":543286,"toponymName":"Kozhino","countryId":"2017370","fcl":"P","population":0,"countryCode":"RU","name":"Kozhino","fclName":"city, village,...","countryName":"Russia","fcodeName":"populated place","adminName1":"Tverskaya","lat":"57.95834","fcode":"PPL"},{"adminCode1":"77","lng":"32.45667","geonameId":822893,"toponymName":"Kozhino","countryId":"2017370","fcl":"P","population":0,"countryCode":"RU","name":"Kozhino","fclName":"city, village,...","countryName":"Russia","fcodeName":"populated place","adminName1":"Tverskaya","lat":"56.69667","fcode":"PPL"},{"adminCode1":"77","lng":"37.4436","geonameId":7586061,"toponymName":"Kozhino","countryId":"2017370","fcl":"P","population":0,"countryCode":"RU","name":"Kozhino","fclName":"city, village,...","countryName":"Russia","fcodeName":"populated place","adminName1":"Tverskaya","lat":"57.4246","fcode":"PPL"},{"adminCode1":"33","lng":"46.5301","geonameId":7429362,"toponymName":"Kozhino","countryId":"2017370","fcl":"P","population":0,"countryCode":"RU","name":"Kozhino","fclName":"city, village,...","countryName":"Russia","fcodeName":"populated place","adminName1":"Kirov","lat":"58.1195","fcode":"PPL"},{"adminCode1":"77","lng":"35.89623","geonameId":543285,"toponymName":"Kozhino","countryId":"2017370","fcl":"P","population":0,"countryCode":"RU","name":"Kozhino","fclName":"city, village,...","countryName":"Russia","fcodeName":"populated place","adminName1":"Tverskaya","lat":"58.07022","fcode":"PPL"},{"adminCode1":"69","lng":"34.49379","geonameId":543292,"toponymName":"Kozhino","countryId":"2017370","fcl":"P","population":0,"countryCode":"RU","name":"Kozhino","fclName":"city, village,...","countryName":"Russia","fcodeName":"populated place","adminName1":"Smolensk","lat":"55.67041","fcode":"PPL"},{"adminCode1":"60","lng":"28.28077","geonameId":7093660,"toponymName":"Kozhino","countryId":"2017370","fcl":"P","population":0,"countryCode":"RU","name":"Kozhino","fclName":"city, village,...","countryName":"Russia","fcodeName":"populated place","adminName1":"Pskov","lat":"57.48571","fcode":"PPL"},{"adminCode1":"60","lng":"28.12008","geonameId":7094076,"toponymName":"Kozhino","countryId":"2017370","fcl":"P","population":0,"countryCode":"RU","name":"Kozhino","fclName":"city, village,...","countryName":"Russia","fcodeName":"populated place","adminName1":"Pskov","lat":"57.17732","fcode":"PPL"},{"adminCode1":"60","lng":"28.81692","geonameId":7094209,"toponymName":"Kozhino","countryId":"2017370","fcl":"P","population":0,"countryCode":"RU","name":"Kozhino","fclName":"city, village,...","countryName":"Russia","fcodeName":"populated place","adminName1":"Pskov","lat":"57.10867","fcode":"PPL"},{"adminCode1":"90","lng":"54.25587","geonameId":6844514,"toponymName":"Kozhino","countryId":"2017370","fcl":"P","population":0,"countryCode":"RU","name":"Kozhino","fclName":"city, village,...","countryName":"Russia","fcodeName":"populated place","adminName1":"Perm","lat":"57.3259","fcode":"PPL"},{"adminCode1":"45","lng":"47.91667","geonameId":543282,"toponymName":"Kozhino","countryId":"2017370","fcl":"P","population":0,"countryCode":"RU","name":"Kozhino","fclName":"city, village,...","countryName":"Russia","fcodeName":"section of populated place","adminName1":"Mariy-El","lat":"56.66667","fcode":"PPLX"},{"adminCode1":"83","lng":"39.2271","geonameId":543288,"toponymName":"Kozhino","countryId":"2017370","fcl":"P","population":0,"countryCode":"RU","name":"Kozhino","fclName":"city, village,...","countryName":"Russia","fcodeName":"populated place","adminName1":"Vladimir","lat":"56.3573","fcode":"PPL"},{"adminCode1":"52","lng":"32.54269","geonameId":7094924,"toponymName":"Kozhino","countryId":"2017370","fcl":"P","population":0,"countryCode":"RU","name":"Kozhino","fclName":"city, village,...","countryName":"Russia","fcodeName":"populated place","adminName1":"Novgorod","lat":"57.37555","fcode":"PPL"},{"adminCode1":"90","lng":"54.6057","geonameId":8246762,"toponymName":"Kozhino","countryId":"2017370","fcl":"P","population":0,"countryCode":"RU","name":"Kozhino","fclName":"city, village,...","countryName":"Russia","fcodeName":"abandoned populated place","adminName1":"Perm","lat":"58.9975","fcode":"PPLQ"},{"adminCode1":"76","lng":"38.53345","geonameId":508073,"toponymName":"Podosinki-Kozhino","countryId":"2017370","fcl":"P","population":0,"countryCode":"RU","name":"Podosinki-Kozhino","fclName":"city, village,...","countryName":"Russia","fcodeName":"populated place","adminName1":"Tula","lat":"54.19911","fcode":"PPL"},{"adminCode1":"83","lng":"42.51975","geonameId":543289,"toponymName":"Kozhino","countryId":"2017370","fcl":"P","population":0,"countryCode":"RU","name":"Kozhino","fclName":"city, village,...","countryName":"Russia","fcodeName":"populated place","adminName1":"Vladimir","lat":"56.07984","fcode":"PPL"},{"adminCode1":"51","lng":"43.87977","geonameId":6419856,"toponymName":"Kozhino","countryId":"2017370","fcl":"P","population":0,"countryCode":"RU","name":"Kozhino","fclName":"city, village,...","countryName":"Russia","fcodeName":"populated place","adminName1":"Nizjnij Novgorod","lat":"55.32847","fcode":"PPL"},{"adminCode1":"69","lng":"34.98349","geonameId":7440933,"toponymName":"Kozhino","countryId":"2017370","fcl":"P","population":0,"countryCode":"RU","name":"Kozhino","fclName":"city, village,...","countryName":"Russia","fcodeName":"populated place","adminName1":"Smolensk","lat":"55.50692","fcode":"PPL"},{"adminCode1":"76","lng":"37.27804","geonameId":7502284,"toponymName":"Kozhino","countryId":"2017370","fcl":"P","population":0,"countryCode":"RU","name":"Kozhino","fclName":"city, village,...","countryName":"Russia","fcodeName":"populated place","adminName1":"Tula","lat":"54.11953","fcode":"PPL"}]}