{"totalResultsCount":141,"geonames":[{"adminCode1":"16","lng":"46.27518","geonameId":543136,"toponymName":"Kozlovka","countryId":"2017370","fcl":"P","population":0,"countryCode":"RU","name":"Kozlovka","fclName":"city, village,...","countryName":"Russia","fcodeName":"populated place","adminName1":"Chuvashia","lat":"55.26201","fcode":"PPL"},{"adminCode1":"86","lng":"41.29565","geonameId":543169,"toponymName":"Kozlovka","countryId":"2017370","fcl":"P","population":0,"countryCode":"RU","name":"Kozlovka","fclName":"city, village,...","countryName":"Russia","fcodeName":"populated place","adminName1":"Voronezj","lat":"51.66116","fcode":"PPL"},{"adminCode1":"84","lng":"44.35622","geonameId":543170,"toponymName":"Kozlovka","countryId":"2017370","fcl":"P","population":0,"countryCode":"RU","name":"Kozlovka","fclName":"city, village,...","countryName":"Russia","fcodeName":"populated place","adminName1":"Volgograd","lat":"50.99726","fcode":"PPL"},{"adminCode1":"86","lng":"40.45556","geonameId":543171,"toponymName":"Kozlovka","countryId":"2017370","fcl":"P","population":3343,"countryCode":"RU","name":"Kozlovka","fclName":"city, village,...","countryName":"Russia","fcodeName":"populated place","adminName1":"Voronezj","lat":"50.86222","fcode":"PPL"},{"adminCode1":"78","lng":"68.48333","geonameId":1502224,"toponymName":"Kozlovka","countryId":"2017370","fcl":"P","population":0,"countryCode":"RU","name":"Kozlovka","fclName":"city, village,...","countryName":"Russia","fcodeName":"populated place","adminName1":"Tjumen","lat":"56.16667","fcode":"PPL"},{"adminCode1":"53","lng":"84.18611","geonameId":1502225,"toponymName":"Kozlovka","countryId":"2017370","fcl":"P","population":0,"countryCode":"RU","name":"Kozlovka","fclName":"city, village,...","countryName":"Russia","fcodeName":"populated place","adminName1":"Novosibirsk","lat":"55.85944","fcode":"PPL"},{"adminCode1":"53","lng":"76.9658","geonameId":1502227,"toponymName":"Kozlovka","countryId":"2017370","fcl":"P","population":0,"countryCode":"RU","name":"Kozlovka","fclName":"city, village,...","countryName":"Russia","fcodeName":"populated place","adminName1":"Novosibirsk","lat":"55.60833","fcode":"PPL"},{"adminCode1":"85","lng":"45.57864","geonameId":543128,"toponymName":"Kozlovka","countryId":"2017370","fcl":"P","population":0,"countryCode":"RU","name":"Kozlovka","fclName":"city, village,...","countryName":"Russia","fcodeName":"populated place","adminName1":"Vologda","lat":"59.4305","fcode":"PPL"},{"adminCode1":"46","lng":"45.9034","geonameId":543139,"toponymName":"Kozlovka","countryId":"2017370","fcl":"P","population":0,"countryCode":"RU","name":"Kozlovka","fclName":"city, village,...","countryName":"Russia","fcodeName":"populated place","adminName1":"Mordoviya","lat":"54.69976","fcode":"PPL"},{"adminCode1":"62","lng":"39.30541","geonameId":543140,"toponymName":"Kozlovka","countryId":"2017370","fcl":"P","population":0,"countryCode":"RU","name":"Kozlovka","fclName":"city, village,...","countryName":"Russia","fcodeName":"populated place","adminName1":"Rjazan","lat":"54.70101","fcode":"PPL"},{"adminCode1":"57","lng":"45.69808","geonameId":543161,"toponymName":"Kozlovka","countryId":"2017370","fcl":"P","population":0,"countryCode":"RU","name":"Kozlovka","fclName":"city, village,...","countryName":"Russia","fcodeName":"populated place","adminName1":"Penza","lat":"52.54502","fcode":"PPL"},{"adminCode1":"55","lng":"53.8127","geonameId":543167,"toponymName":"Kozlovka","countryId":"2017370","fcl":"P","population":0,"countryCode":"RU","name":"Kozlovka","fclName":"city, village,...","countryName":"Russia","fcodeName":"populated place","adminName1":"Orenburg","lat":"52.0118","fcode":"PPL"},{"adminCode1":"05","lng":"129.19684","geonameId":2021662,"toponymName":"Kozlovka","countryId":"2017370","fcl":"P","population":0,"countryCode":"RU","name":"Kozlovka","fclName":"city, village,...","countryName":"Russia","fcodeName":"populated place","adminName1":"Amur","lat":"51.83169","fcode":"PPL"},{"adminCode1":"53","lng":"77.02648","geonameId":1502222,"toponymName":"Kozlovka","countryId":"2017370","fcl":"P","population":0,"countryCode":"RU","name":"Kozlovka","fclName":"city, village,...","countryName":"Russia","fcodeName":"populated place","adminName1":"Novosibirsk","lat":"56.78966","fcode":"PPL"},{"adminCode1":"20","lng":"97.85","geonameId":1502228,"toponymName":"Kozlovka","countryId":"2017370","fcl":"P","population":0,"countryCode":"RU","name":"Kozlovka","fclName":"city, village,...","countryName":"Russia","fcodeName":"populated place","adminName1":"Irkutsk","lat":"55.6","fcode":"PPL"},{"adminCode1":"53","lng":"75.69649","geonameId":1502229,"toponymName":"Kozlovka","countryId":"2017370","fcl":"P","population":0,"countryCode":"RU","name":"Kozlovka","fclName":"city, village,...","countryName":"Russia","fcodeName":"populated place","adminName1":"Novosibirsk","lat":"55.2361","fcode":"PPL"},{"adminCode1":"06","lng":"46.8","geonameId":543126,"toponymName":"Kozlovka","countryId":"2017370","fcl":"P","population":0,"countryCode":"RU","name":"Kozlovka","fclName":"city, village,...","countryName":"Russia","fcodeName":"populated place","adminName1":"Arkhangelskaya","lat":"61.3","fcode":"PPL"},{"adminCode1":"77","lng":"31.36667","geonameId":543131,"toponymName":"Kozlovka","countryId":"2017370","fcl":"P","population":0,"countryCode":"RU","name":"Kozlovka","fclName":"city, village,...","countryName":"Russia","fcodeName":"populated place","adminName1":"Tverskaya","lat":"56.51667","fcode":"PPL"},{"adminCode1":"51","lng":"45.90663","geonameId":543135,"toponymName":"Kozlovka","countryId":"2017370","fcl":"P","population":0,"countryCode":"RU","name":"Kozlovka","fclName":"city, village,...","countryName":"Russia","fcodeName":"populated place","adminName1":"Nizjnij Novgorod","lat":"55.69369","fcode":"PPL"},{"adminCode1":"25","lng":"35.19639","geonameId":543138,"toponymName":"Kozlovka","countryId":"2017370","fcl":"P","population":0,"countryCode":"RU","name":"Kozlovka","fclName":"city, village,...","countryName":"Russia","fcodeName":"populated place","adminName1":"Kaluga","lat":"54.79","fcode":"PPL"},{"adminCode1":"76","lng":"38.36862","geonameId":543142,"toponymName":"Kozlovka","countryId":"2017370","fcl":"P","population":0,"countryCode":"RU","name":"Kozlovka","fclName":"city, village,...","countryName":"Russia","fcodeName":"populated place","adminName1":"Tula","lat":"54.6206","fcode":"PPL"},{"adminCode1":"81","lng":"47.1728","geonameId":543143,"toponymName":"Kozlovka","countryId":"2017370","fcl":"P","population":0,"countryCode":"RU","name":"Kozlovka","fclName":"city, village,...","countryName":"Russia","fcodeName":"populated place","adminName1":"Ulyanovsk","lat":"54.5933","fcode":"PPL"},{"adminCode1":"46","lng":"45.44528","geonameId":543145,"toponymName":"Kozlovka","countryId":"2017370","fcl":"P","population":0,"countryCode":"RU","name":"Kozlovka","fclName":"city, village,...","countryName":"Russia","fcodeName":"populated place","adminName1":"Mordoviya","lat":"54.48291","fcode":"PPL"},{"adminCode1":"46","lng":"44.22836","geonameId":543152,"toponymName":"Kozlovka","countryId":"2017370","fcl":"P","population":0,"countryCode":"RU","name":"Kozlovka","fclName":"city, village,...","countryName":"Russia","fcodeName":"populated place","adminName1":"Mordoviya","lat":"53.86642","fcode":"PPL"},{"adminCode1":"76","lng":"36.56992","geonameId":543154,"toponymName":"Kozlovka","countryId":"2017370","fcl":"P","population":0,"countryCode":"RU","name":"Kozlovka","fclName":"city, village,...","countryName":"Russia","fcodeName":"populated place","adminName1":"Tula","lat":"53.49723","fcode":"PPL"},{"adminCode1":"57","lng":"46.36036","geonameId":543155,"toponymName":"Kozlovka","countryId":"2017370","fcl":"P","population":0,"countryCode":"RU","name":"Kozlovka","fclName":"city, village,...","countryName":"Russia","fcodeName":"populated place","adminName1":"Penza","lat":"53.43762","fcode":"PPL"},{"adminCode1":"57","lng":"43.24378","geonameId":543156,"toponymName":"Kozlovka","countryId":"2017370","fcl":"P","population":0,"countryCode":"RU","name":"Kozlovka","fclName":"city, village,...","countryName":"Russia","fcodeName":"populated place","adminName1":"Penza","lat":"53.33807","fcode":"PPL"},{"adminCode1":"10","lng":"33.80222","geonameId":543159,"toponymName":"Kozlovka","countryId":"2017370","fcl":"P","population":0,"countryCode":"RU","name":"Kozlovka","fclName":"city, village,...","countryName":"Russia","fcodeName":"populated place","adminName1":"Brjansk","lat":"52.71898","fcode":"PPL"},{"adminCode1":"55","lng":"53.25","geonameId":543162,"toponymName":"Kozlovka","countryId":"2017370","fcl":"P","population":0,"countryCode":"RU","name":"Kozlovka","fclName":"city, village,...","countryName":"Russia","fcodeName":"populated place","adminName1":"Orenburg","lat":"52.5","fcode":"PPL"},{"adminCode1":"56","lng":"35.778","geonameId":543163,"toponymName":"Kozlovka","countryId":"2017370","fcl":"P","population":0,"countryCode":"RU","name":"Kozlovka","fclName":"city, village,...","countryName":"Russia","fcodeName":"populated place","adminName1":"Orjol","lat":"52.5059","fcode":"PPL"},{"adminCode1":"56","lng":"37.85611","geonameId":543164,"toponymName":"Kozlovka","countryId":"2017370","fcl":"P","population":0,"countryCode":"RU","name":"Kozlovka","fclName":"city, village,...","countryName":"Russia","fcodeName":"populated place","adminName1":"Orjol","lat":"52.36889","fcode":"PPL"},{"adminCode1":"55","lng":"56.19611","geonameId":543165,"toponymName":"Kozlovka","countryId":"2017370","fcl":"P","population":0,"countryCode":"RU","name":"Kozlovka","fclName":"city, village,...","countryName":"Russia","fcodeName":"populated place","adminName1":"Orenburg","lat":"52.28972","fcode":"PPL"},{"adminCode1":"78","lng":"69.78468","geonameId":1543770,"toponymName":"Kozlovka","countryId":"2017370","fcl":"P","population":0,"countryCode":"RU","name":"Kozlovka","fclName":"city, village,...","countryName":"Russia","fcodeName":"populated place","adminName1":"Tjumen","lat":"55.355","fcode":"PPL"},{"adminCode1":"91","lng":"90.8281","geonameId":1502223,"toponymName":"Kozlovka","countryId":"2017370","fcl":"P","population":0,"countryCode":"RU","name":"Kozlovka","fclName":"city, village,...","countryName":"Russia","fcodeName":"populated place","adminName1":"Krasnoyarskiy","lat":"56.3804","fcode":"PPL"},{"adminCode1":"51","lng":"43.98893","geonameId":875401,"toponymName":"Kozlovka","countryId":"2017370","fcl":"P","population":0,"countryCode":"RU","name":"Kozlovka","fclName":"city, village,...","countryName":"Russia","fcodeName":"populated place","adminName1":"Nizjnij Novgorod","lat":"56.20511","fcode":"PPL"},{"adminCode1":"47","lng":"38.96343","geonameId":819484,"toponymName":"Kozlovka","countryId":"2017370","fcl":"P","population":0,"countryCode":"RU","name":"Kozlovka","fclName":"city, village,...","countryName":"Russia","fcodeName":"populated place","adminName1":"Moskovskaya","lat":"54.80991","fcode":"PPL"},{"adminCode1":"37","lng":"46.51871","geonameId":827319,"toponymName":"Kozlovka","countryId":"2017370","fcl":"P","population":0,"countryCode":"RU","name":"Kozlovka","fclName":"city, village,...","countryName":"Russia","fcodeName":"populated place","adminName1":"Kostroma","lat":"58.9635","fcode":"PPL"},{"adminCode1":"62","lng":"39.84591","geonameId":822249,"toponymName":"Kozlovka","countryId":"2017370","fcl":"P","population":0,"countryCode":"RU","name":"Kozlovka","fclName":"city, village,...","countryName":"Russia","fcodeName":"populated place","adminName1":"Rjazan","lat":"53.80022","fcode":"PPL"},{"adminCode1":"25","lng":"33.72722","geonameId":811244,"toponymName":"Kozlovka","countryId":"2017370","fcl":"P","population":0,"countryCode":"RU","name":"Kozlovka","fclName":"city, village,...","countryName":"Russia","fcodeName":"populated place","adminName1":"Kaluga","lat":"54.49139","fcode":"PPL"},{"adminCode1":"09","lng":"36.56889","geonameId":806032,"toponymName":"Kozlovka","countryId":"2017370","fcl":"P","population":0,"countryCode":"RU","name":"Kozlovka","fclName":"city, village,...","countryName":"Russia","fcodeName":"populated place","adminName1":"Belgorod","lat":"51.01917","fcode":"PPL"},{"adminCode1":"25","lng":"33.705","geonameId":810886,"toponymName":"Kozlovka","countryId":"2017370","fcl":"P","population":0,"countryCode":"RU","name":"Kozlovka","fclName":"city, village,...","countryName":"Russia","fcodeName":"populated place","adminName1":"Kaluga","lat":"54.25861","fcode":"PPL"},{"adminCode1":"67","lng":"43.96689","geonameId":803090,"toponymName":"Kozlovka","countryId":"2017370","fcl":"P","population":0,"countryCode":"RU","name":"Kozlovka","fclName":"city, village,...","countryName":"Russia","fcodeName":"populated place","adminName1":"Saratov","lat":"51.84617","fcode":"PPL"},{"adminCode1":"37","lng":"46.7072","geonameId":7496346,"toponymName":"Kozlovka","countryId":"2017370","fcl":"P","population":0,"countryCode":"RU","name":"Kozlovka","fclName":"city, village,...","countryName":"Russia","fcodeName":"populated place","adminName1":"Kostroma","lat":"59.0176","fcode":"PPL"},{"adminCode1":"46","lng":"45.7983","geonameId":7596477,"toponymName":"Kozlovka","countryId":"2017370","fcl":"P","population":0,"countryCode":"RU","name":"Kozlovka","fclName":"city, village,...","countryName":"Russia","fcodeName":"populated place","adminName1":"Mordoviya","lat":"54.8734","fcode":"PPL"},{"adminCode1":"60","lng":"29.247","geonameId":7597400,"toponymName":"Kozlovka","countryId":"2017370","fcl":"P","population":0,"countryCode":"RU","name":"Kozlovka","fclName":"city, village,...","countryName":"Russia","fcodeName":"populated place","adminName1":"Pskov","lat":"56.9894","fcode":"PPL"},{"adminCode1":"16","lng":"48.2492","geonameId":543133,"toponymName":"Kozlovka","countryId":"2017370","fcl":"P","population":11700,"countryCode":"RU","name":"Kozlovka","fclName":"city, village,...","countryName":"Russia","fcodeName":"populated place","adminName1":"Chuvashia","lat":"55.84284","fcode":"PPL"},{"adminCode1":"81","lng":"47.7511","geonameId":543146,"toponymName":"Kozlovka","countryId":"2017370","fcl":"P","population":0,"countryCode":"RU","name":"Kozlovka","fclName":"city, village,...","countryName":"Russia","fcodeName":"populated place","adminName1":"Ulyanovsk","lat":"54.2765","fcode":"PPL"},{"adminCode1":"25","lng":"33.74515","geonameId":543148,"toponymName":"Kozlovka","countryId":"2017370","fcl":"P","population":0,"countryCode":"RU","name":"Kozlovka","fclName":"city, village,...","countryName":"Russia","fcodeName":"populated place","adminName1":"Kaluga","lat":"54.15986","fcode":"PPL"},{"adminCode1":"69","lng":"32.83361","geonameId":543151,"toponymName":"Kozlovka","countryId":"2017370","fcl":"P","population":0,"countryCode":"RU","name":"Kozlovka","fclName":"city, village,...","countryName":"Russia","fcodeName":"populated place","adminName1":"Smolensk","lat":"53.99389","fcode":"PPL"},{"adminCode1":"85","lng":"42.53534","geonameId":543127,"toponymName":"Kozlovka","countryId":"2017370","fcl":"P","population":0,"countryCode":"RU","name":"Kozlovka","fclName":"city, village,...","countryName":"Russia","fcodeName":"populated place","adminName1":"Vologda","lat":"59.92033","fcode":"PPL"},{"adminCode1":"77","lng":"35.38333","geonameId":543130,"toponymName":"Kozlovka","countryId":"2017370","fcl":"P","population":0,"countryCode":"RU","name":"Kozlovka","fclName":"city, village,...","countryName":"Russia","fcodeName":"populated place","adminName1":"Tverskaya","lat":"57.26667","fcode":"PPL"},{"adminCode1":"69","lng":"35.13864","geonameId":543134,"toponymName":"Kozlovka","countryId":"2017370","fcl":"P","population":0,"countryCode":"RU","name":"Kozlovka","fclName":"city, village,...","countryName":"Russia","fcodeName":"populated place","adminName1":"Smolensk","lat":"55.72187","fcode":"PPL"},{"adminCode1":"73","lng":"48.37742","geonameId":543137,"toponymName":"Kozlovka","countryId":"2017370","fcl":"P","population":0,"countryCode":"RU","name":"Kozlovka","fclName":"city, village,...","countryName":"Russia","fcodeName":"populated place","adminName1":"Tatarstan","lat":"54.86366","fcode":"PPL"},{"adminCode1":"62","lng":"39.0185","geonameId":543147,"toponymName":"Kozlovka","countryId":"2017370","fcl":"P","population":0,"countryCode":"RU","name":"Kozlovka","fclName":"city, village,...","countryName":"Russia","fcodeName":"populated place","adminName1":"Rjazan","lat":"54.2469","fcode":"PPL"},{"adminCode1":"69","lng":"33.28167","geonameId":543149,"toponymName":"Kozlovka","countryId":"2017370","fcl":"P","population":0,"countryCode":"RU","name":"Kozlovka","fclName":"city, village,...","countryName":"Russia","fcodeName":"populated place","adminName1":"Smolensk","lat":"54.17472","fcode":"PPL"},{"adminCode1":"55","lng":"52.62384","geonameId":543153,"toponymName":"Kozlovka","countryId":"2017370","fcl":"P","population":0,"countryCode":"RU","name":"Kozlovka","fclName":"city, village,...","countryName":"Russia","fcodeName":"populated place","adminName1":"Orenburg","lat":"53.57637","fcode":"PPL"},{"adminCode1":"55","lng":"52.99289","geonameId":543157,"toponymName":"Kozlovka","countryId":"2017370","fcl":"P","population":0,"countryCode":"RU","name":"Kozlovka","fclName":"city, village,...","countryName":"Russia","fcodeName":"populated place","adminName1":"Orenburg","lat":"53.298","fcode":"PPL"},{"adminCode1":"57","lng":"43.2149","geonameId":543158,"toponymName":"Kozlovka","countryId":"2017370","fcl":"P","population":0,"countryCode":"RU","name":"Kozlovka","fclName":"city, village,...","countryName":"Russia","fcodeName":"populated place","adminName1":"Penza","lat":"52.9337","fcode":"PPL"},{"adminCode1":"67","lng":"46.6348","geonameId":543160,"toponymName":"Kozlovka","countryId":"2017370","fcl":"P","population":0,"countryCode":"RU","name":"Kozlovka","fclName":"city, village,...","countryName":"Russia","fcodeName":"populated place","adminName1":"Saratov","lat":"52.65047","fcode":"PPL"},{"adminCode1":"72","lng":"42.67024","geonameId":543166,"toponymName":"Kozlovka","countryId":"2017370","fcl":"P","population":0,"countryCode":"RU","name":"Kozlovka","fclName":"city, village,...","countryName":"Russia","fcodeName":"populated place","adminName1":"Tambov","lat":"52.15956","fcode":"PPL"},{"adminCode1":"72","lng":"41.40306","geonameId":543168,"toponymName":"Kozlovka","countryId":"2017370","fcl":"P","population":0,"countryCode":"RU","name":"Kozlovka","fclName":"city, village,...","countryName":"Russia","fcodeName":"populated place","adminName1":"Tambov","lat":"51.97611","fcode":"PPL"},{"adminCode1":"30","lng":"134.10041","geonameId":2021663,"toponymName":"Kozlovka","countryId":"2017370","fcl":"P","population":0,"countryCode":"RU","name":"Kozlovka","fclName":"city, village,...","countryName":"Russia","fcodeName":"populated place","adminName1":"Khabarovsk Krai","lat":"47.01499","fcode":"PPL"},{"adminCode1":"54","lng":"71.55692","geonameId":1502226,"toponymName":"Kozlovka","countryId":"2017370","fcl":"P","population":0,"countryCode":"RU","name":"Kozlovka","fclName":"city, village,...","countryName":"Russia","fcodeName":"populated place","adminName1":"Omsk","lat":"55.73679","fcode":"PPL"},{"adminCode1":"23","lng":"22.02889","geonameId":825631,"toponymName":"Kozlovka","countryId":"2017370","fcl":"P","population":0,"countryCode":"RU","name":"Kozlovka","fclName":"city, village,...","countryName":"Russia","fcodeName":"populated place","adminName1":"Kaliningrad","lat":"54.76111","fcode":"PPL"},{"adminCode1":"09","lng":"37.8296","geonameId":807830,"toponymName":"Kozlovka","countryId":"2017370","fcl":"P","population":0,"countryCode":"RU","name":"Kozlovka","fclName":"city, village,...","countryName":"Russia","fcodeName":"populated place","adminName1":"Belgorod","lat":"50.4025","fcode":"PPL"},{"adminCode1":"56","lng":"36.7525","geonameId":7451603,"toponymName":"Kozlovka","countryId":"2017370","fcl":"P","population":0,"countryCode":"RU","name":"Kozlovka","fclName":"city, village,...","countryName":"Russia","fcodeName":"populated place","adminName1":"Orjol","lat":"52.6336","fcode":"PPL"},{"adminCode1":"16","lng":"46.21697","geonameId":543132,"toponymName":"Kozlovka","countryId":"2017370","fcl":"P","population":0,"countryCode":"RU","name":"Kozlovka","fclName":"city, village,...","countryName":"Russia","fcodeName":"populated place","adminName1":"Chuvashia","lat":"55.90683","fcode":"PPL"},{"adminCode1":"25","lng":"34.73333","geonameId":543144,"toponymName":"Kozlovka","countryId":"2017370","fcl":"P","population":0,"countryCode":"RU","name":"Kozlovka","fclName":"city, village,...","countryName":"Russia","fcodeName":"populated place","adminName1":"Kaluga","lat":"54.56667","fcode":"PPL"},{"adminCode1":"76","lng":"37.67117","geonameId":543141,"toponymName":"Kozlovka","countryId":"2017370","fcl":"P","population":0,"countryCode":"RU","name":"Kozlovka","fclName":"city, village,...","countryName":"Russia","fcodeName":"populated place","adminName1":"Tula","lat":"54.69092","fcode":"PPL"},{"adminCode1":"69","lng":"32.41922","geonameId":543150,"toponymName":"Kozlovka","countryId":"2017370","fcl":"P","population":0,"countryCode":"RU","name":"Kozlovka","fclName":"city, village,...","countryName":"Russia","fcodeName":"populated place","adminName1":"Smolensk","lat":"54.16444","fcode":"PPL"},{"adminCode1":"07","lng":"29.7471","geonameId":8232697,"toponymName":"Kozlovka","countryId":"630336","fcl":"P","population":0,"countryCode":"BY","name":"Kozlovka","fclName":"city, village,...","countryName":"Belarus","fcodeName":"populated place","adminName1":"Vitsyebskaya Voblastsʼ","lat":"54.8088","fcode":"PPL"},{"adminCode1":"07","lng":"28.6347","geonameId":8213528,"toponymName":"Kozlovka","countryId":"630336","fcl":"P","population":0,"countryCode":"BY","name":"Kozlovka","fclName":"city, village,...","countryName":"Belarus","fcodeName":"populated place","adminName1":"Vitsyebskaya Voblastsʼ","lat":"55.4064","fcode":"PPL"},{"adminCode1":"05","lng":"27.2745","geonameId":8019761,"toponymName":"Kozlovka","countryId":"630336","fcl":"P","population":0,"countryCode":"BY","name":"Kozlovka","fclName":"city, village,...","countryName":"Belarus","fcodeName":"populated place","adminName1":"Minskaja Voblasts’","lat":"53.8737","fcode":"PPL"},{"adminCode1":"90","lng":"56.55338","geonameId":6820090,"toponymName":"Kozlovka","countryId":"2017370","fcl":"P","population":0,"countryCode":"RU","name":"Kozlovka","fclName":"city, village,...","countryName":"Russia","fcodeName":"populated place","adminName1":"Perm","lat":"56.75449","fcode":"PPL"},{"adminCode1":"06","lng":"31.5683","geonameId":8282054,"toponymName":"Kozlovka","countryId":"630336","fcl":"P","population":0,"countryCode":"BY","name":"Kozlovka","fclName":"city, village,...","countryName":"Belarus","fcodeName":"populated place","adminName1":"Mahilyowskaya Voblastsʼ","lat":"54.0949","fcode":"PPL"},{"adminCode1":"16","lng":"47.70401","geonameId":506091,"toponymName":"Kozlovka","countryId":"2017370","fcl":"P","population":0,"countryCode":"RU","name":"Kozlovka","fclName":"city, village,...","countryName":"Russia","fcodeName":"populated place","adminName1":"Chuvashia","lat":"55.07442","fcode":"PPL"},{"adminCode1":"46","lng":"43.30948","geonameId":525347,"toponymName":"Mordovskaya Kozlovka","countryId":"2017370","fcl":"P","population":0,"countryCode":"RU","name":"Mordovskaya Kozlovka","fclName":"city, village,...","countryName":"Russia","fcodeName":"populated place","adminName1":"Mordoviya","lat":"54.46472","fcode":"PPL"},{"adminCode1":"67","lng":"47.57641","geonameId":543172,"toponymName":"Kozlovka","countryId":"2017370","fcl":"P","population":0,"countryCode":"RU","name":"Kozlovka","fclName":"city, village,...","countryName":"Russia","fcodeName":"populated place","adminName1":"Saratov","lat":"50.85997","fcode":"PPL"},{"adminCode1":"10","lng":"33.21028","geonameId":863983,"toponymName":"Kozlovka","countryId":"2017370","fcl":"P","population":0,"countryCode":"RU","name":"Kozlovka","fclName":"city, village,...","countryName":"Russia","fcodeName":"populated place","adminName1":"Brjansk","lat":"53.09301","fcode":"PPL"},{"adminCode1":"05","lng":"28.5905","geonameId":8248214,"toponymName":"Kozlovka","countryId":"630336","fcl":"P","population":0,"countryCode":"BY","name":"Kozlovka","fclName":"city, village,...","countryName":"Belarus","fcodeName":"populated place","adminName1":"Minskaja Voblasts’","lat":"54.1021","fcode":"PPL"},{"adminCode1":"91","lng":"93.1799","geonameId":8357281,"toponymName":"Kozlovka","countryId":"2017370","fcl":"P","population":0,"countryCode":"RU","name":"Kozlovka","fclName":"city, village,...","countryName":"Russia","fcodeName":"populated place","adminName1":"Krasnoyarskiy","lat":"53.659","fcode":"PPL"},{"adminCode1":"56","lng":"37.46745","geonameId":543123,"toponymName":"Kozlovka","countryId":"2017370","fcl":"P","population":0,"countryCode":"RU","name":"Kozlovka","fclName":"city, village,...","countryName":"Russia","fcodeName":"section of populated place","adminName1":"Orjol","lat":"52.8717","fcode":"PPLX"},{"adminCode1":"67","lng":"43.1885","geonameId":543124,"toponymName":"Kozlovka","countryId":"2017370","fcl":"P","population":0,"countryCode":"RU","name":"Kozlovka","fclName":"city, village,...","countryName":"Russia","fcodeName":"section of populated place","adminName1":"Saratov","lat":"51.5552","fcode":"PPLX"},{"adminCode1":"67","lng":"45.91667","geonameId":543125,"toponymName":"Kozlovka","countryId":"2017370","fcl":"P","population":0,"countryCode":"RU","name":"Kozlovka","fclName":"city, village,...","countryName":"Russia","fcodeName":"section of populated place","adminName1":"Saratov","lat":"51.5","fcode":"PPLX"},{"adminCode1":"10","lng":"31.5497","geonameId":812997,"toponymName":"Kozlovka","countryId":"2017370","fcl":"P","population":0,"countryCode":"RU","name":"Kozlovka","fclName":"city, village,...","countryName":"Russia","fcodeName":"abandoned populated place","adminName1":"Brjansk","lat":"53.1657","fcode":"PPLQ"},{"adminCode1":"65","lng":"51.34677","geonameId":520339,"toponymName":"Nizhnyaya Kozlovka","countryId":"2017370","fcl":"P","population":0,"countryCode":"RU","name":"Nizhnyaya Kozlovka","fclName":"city, village,...","countryName":"Russia","fcodeName":"populated place","adminName1":"Samara","lat":"53.73848","fcode":"PPL"},{"adminCode1":"17","lng":"30.45413","geonameId":704536,"toponymName":"Kozlovka","countryId":"690791","fcl":"P","population":0,"countryCode":"UA","name":"Kozlovka","fclName":"city, village,...","countryName":"Ukraine","fcodeName":"populated place","adminName1":"Odessa","lat":"47.06956","fcode":"PPL"},{"adminCode1":"33","lng":"46.84117","geonameId":574976,"toponymName":"Bol’shaya Kozlovka","countryId":"2017370","fcl":"P","population":0,"countryCode":"RU","name":"Bol’shaya Kozlovka","fclName":"city, village,...","countryName":"Russia","fcodeName":"populated place","adminName1":"Kirov","lat":"58.15456","fcode":"PPL"},{"adminCode1":"83","lng":"41.0373","geonameId":574977,"toponymName":"Bol’shaya Kozlovka","countryId":"2017370","fcl":"P","population":0,"countryCode":"RU","name":"Bol’shaya Kozlovka","fclName":"city, village,...","countryName":"Russia","fcodeName":"populated place","adminName1":"Vladimir","lat":"55.9581","fcode":"PPL"},{"adminCode1":"76","lng":"38.7","geonameId":488603,"toponymName":"Starotroitskaya Kozlovka","countryId":"2017370","fcl":"P","population":0,"countryCode":"RU","name":"Starotroitskaya Kozlovka","fclName":"city, village,...","countryName":"Russia","fcodeName":"populated place","adminName1":"Tula","lat":"53.48333","fcode":"PPL"},{"adminCode1":"55","lng":"56.13333","geonameId":543121,"toponymName":"Kozlovka Vtoraya","countryId":"2017370","fcl":"P","population":0,"countryCode":"RU","name":"Kozlovka Vtoraya","fclName":"city, village,...","countryName":"Russia","fcodeName":"populated place","adminName1":"Orenburg","lat":"52.25","fcode":"PPL"},{"adminCode1":"33","lng":"46.86339","geonameId":531576,"toponymName":"Malaya Kozlovka","countryId":"2017370","fcl":"P","population":0,"countryCode":"RU","name":"Malaya Kozlovka","fclName":"city, village,...","countryName":"Russia","fcodeName":"populated place","adminName1":"Kirov","lat":"58.17603","fcode":"PPL"},{"adminCode1":"83","lng":"41.0102","geonameId":531577,"toponymName":"Malaya Kozlovka","countryId":"2017370","fcl":"P","population":0,"countryCode":"RU","name":"Malaya Kozlovka","fclName":"city, village,...","countryName":"Russia","fcodeName":"populated place","adminName1":"Vladimir","lat":"55.9441","fcode":"PPL"},{"adminCode1":"16","lng":"48.26622","geonameId":545910,"toponymName":"Komarovka","countryId":"2017370","fcl":"P","population":0,"countryCode":"RU","name":"Komarovka","fclName":"city, village,...","countryName":"Russia","fcodeName":"populated place","adminName1":"Chuvashia","lat":"55.83074","fcode":"PPL"},{"adminCode1":"91","lng":"14.37972","geonameId":3197435,"toponymName":"Kozlovka","countryId":"3190538","fcl":"T","population":0,"countryCode":"SI","name":"Kozlovka","fclName":"mountain,hill,rock,... ","countryName":"Slovenia","fcodeName":"mountain","adminName1":"Pivka","lat":"45.70778","fcode":"MT"},{"adminCode1":"04","lng":"85.6166","geonameId":7894009,"toponymName":"Kozlovka","countryId":"2017370","fcl":"P","population":0,"countryCode":"RU","name":"Kozlovka","fclName":"city, village,...","countryName":"Russia","fcodeName":"abandoned populated place","adminName1":"Altai Krai","lat":"53.6361","fcode":"PPLQ"},{"adminCode1":"52","lng":"33.21718","geonameId":543129,"toponymName":"Kozlovka","countryId":"2017370","fcl":"P","population":0,"countryCode":"RU","name":"Kozlovka","fclName":"city, village,...","countryName":"Russia","fcodeName":"populated place","adminName1":"Novgorod","lat":"58.58574","fcode":"PPL"},{"adminCode1":"83","lng":"41.90195","geonameId":6422483,"toponymName":"Kozlovka","countryId":"2017370","fcl":"P","population":0,"countryCode":"RU","name":"Kozlovka","fclName":"city, village,...","countryName":"Russia","fcodeName":"populated place","adminName1":"Vladimir","lat":"56.38033","fcode":"PPL"},{"adminCode1":"21","lng":"42.67612","geonameId":6422806,"toponymName":"Kozlovka","countryId":"2017370","fcl":"P","population":0,"countryCode":"RU","name":"Kozlovka","fclName":"city, village,...","countryName":"Russia","fcodeName":"populated place","adminName1":"Ivanovo","lat":"57.45972","fcode":"PPL"},{"adminCode1":"37","lng":"42.35794","geonameId":6423482,"toponymName":"Kozlovka","countryId":"2017370","fcl":"P","population":0,"countryCode":"RU","name":"Kozlovka","fclName":"city, village,...","countryName":"Russia","fcodeName":"populated place","adminName1":"Kostroma","lat":"57.80991","fcode":"PPL"}]}