{"totalResultsCount":6,"geonames":[{"adminCode1":"06","lng":"42.84244","geonameId":543063,"toponymName":"Kozlovskaya","countryId":"2017370","fcl":"P","population":0,"countryCode":"RU","name":"Kozlovskaya","fclName":"city, village,...","countryName":"Russia","fcodeName":"populated place","adminName1":"Arkhangelskaya","lat":"61.10256","fcode":"PPL"},{"adminCode1":"20","lng":"105.6","geonameId":2021659,"toponymName":"Kozlovskaya Zaimka","countryId":"2017370","fcl":"P","population":0,"countryCode":"RU","name":"Kozlovskaya Zaimka","fclName":"city, village,...","countryName":"Russia","fcodeName":"populated place","adminName1":"Irkutsk","lat":"54.33333","fcode":"PPL"},{"adminCode1":"34","lng":"48.7428","geonameId":826874,"toponymName":"Kozlovskaya","countryId":"2017370","fcl":"P","population":0,"countryCode":"RU","name":"Kozlovskaya","fclName":"city, village,...","countryName":"Russia","fcodeName":"populated place","adminName1":"Komi Republic","lat":"60.5283","fcode":"PPL"},{"adminCode1":"07","lng":"27.3959","geonameId":8221319,"toponymName":"Molonka-Kozlovskaya","countryId":"630336","fcl":"P","population":0,"countryCode":"BY","name":"Molonka-Kozlovskaya","fclName":"city, village,...","countryName":"Belarus","fcodeName":"populated place","adminName1":"Vitsyebskaya Voblasts º","lat":"55.3228","fcode":"PPL"},{"adminCode1":"00","lng":"42.14676","geonameId":7890102,"toponymName":"Kozlovskaya","countryId":"2017370","fcl":"H","population":0,"countryCode":"RU","name":"Kozlovskaya","fclName":"stream, lake, ...","countryName":"Russia","fcodeName":"stream","adminName1":"","lat":"44.36449","fcode":"STM"},{"adminCode1":"91","lng":"90.9264","geonameId":6924444,"toponymName":"Kozlovskaya","countryId":"2017370","fcl":"H","population":0,"countryCode":"RU","name":"Kozlovskaya","fclName":"stream, lake, ...","countryName":"Russia","fcodeName":"stream","adminName1":"Krasnoyarskiy","lat":"56.3932","fcode":"STM"}]}