{"totalResultsCount":7,"geonames":[{"adminCode1":"47","lng":"38.77833","geonameId":546230,"toponymName":"Kolomna","countryId":"2017370","fcl":"P","population":147690,"countryCode":"RU","name":"Kolomna","fclName":"city, village,...","countryName":"Russia","fcodeName":"populated place","adminName1":"Moskovskaya","lat":"55.07944","fcode":"PPL"},{"adminCode1":"77","lng":"34.26711","geonameId":546228,"toponymName":"Kolomno","countryId":"2017370","fcl":"P","population":0,"countryCode":"RU","name":"Kolomno","fclName":"city, village,...","countryName":"Russia","fcodeName":"populated place","adminName1":"Tverskaya","lat":"57.69861","fcode":"PPL"},{"adminCode1":"52","lng":"31.41425","geonameId":546229,"toponymName":"Kolomno","countryId":"2017370","fcl":"P","population":0,"countryCode":"RU","name":"Kolomno","fclName":"city, village,...","countryName":"Russia","fcodeName":"populated place","adminName1":"Novgorod","lat":"57.53898","fcode":"PPL"},{"adminCode1":"10","lng":"34.1699","geonameId":546236,"toponymName":"Kolomino","countryId":"2017370","fcl":"P","population":0,"countryCode":"RU","name":"Kolomino","fclName":"city, village,...","countryName":"Russia","fcodeName":"populated place","adminName1":"Brjansk","lat":"52.6496","fcode":"PPL"},{"adminCode1":"44","lng":"154.79126","geonameId":2124394,"toponymName":"Kolymna","countryId":"2017370","fcl":"H","population":0,"countryCode":"RU","name":"Kolymna","fclName":"stream, lake, ...","countryName":"Russia","fcodeName":"stream","adminName1":"Magadan","lat":"62.34535","fcode":"STM"},{"adminCode1":"47","lng":"38.80505","geonameId":560479,"toponymName":"Stantsiya Golutvin","countryId":"2017370","fcl":"S","population":0,"countryCode":"RU","name":"Stantsiya Golutvin","fclName":"spot, building, farm","countryName":"Russia","fcodeName":"railroad station","adminName1":"Moskovskaya","lat":"55.08555","fcode":"RSTN"},{"adminCode1":"47","lng":"38.79813","geonameId":8063066,"toponymName":"Kolomenskiy plant","countryId":"2017370","fcl":"S","population":0,"countryCode":"RU","name":"Kolomenskiy plant","fclName":"spot, building, farm","countryName":"Russia","fcodeName":"factory","adminName1":"Moskovskaya","lat":"55.09212","fcode":"MFG"}]}