{"totalResultsCount":9,"geonames":[{"countryId":"2017370","adminCode1":"62","countryName":"Russia","fclName":"city, village,...","countryCode":"RU","lng":"39.3054","fcodeName":"populated place","toponymName":"Kozlovka","fcl":"P","name":"Kozlovka","fcode":"PPL","geonameId":543140,"lat":"54.70101","adminName1":"Rjazan","population":0},{"countryId":"2017370","adminCode1":"76","countryName":"Russia","fclName":"city, village,...","countryCode":"RU","lng":"38.36862","fcodeName":"populated place","toponymName":"Kozlovka","fcl":"P","name":"Kozlovka","fcode":"PPL","geonameId":543142,"lat":"54.6206","adminName1":"Tula","population":0},{"countryId":"2017370","adminCode1":"47","countryName":"Russia","fclName":"city, village,...","countryCode":"RU","lng":"38.96343","fcodeName":"populated place","toponymName":"Kozlovka","fcl":"P","name":"Kozlovka","fcode":"PPL","geonameId":819484,"lat":"54.80991","adminName1":"Moskovskaya","population":0},{"countryId":"2017370","adminCode1":"76","countryName":"Russia","fclName":"city, village,...","countryCode":"RU","lng":"36.56992","fcodeName":"populated place","toponymName":"Kozlovka","fcl":"P","name":"Kozlovka","fcode":"PPL","geonameId":543154,"lat":"53.49723","adminName1":"Tula","population":0},{"countryId":"2017370","adminCode1":"62","countryName":"Russia","fclName":"city, village,...","countryCode":"RU","lng":"39.0185","fcodeName":"populated place","toponymName":"Kozlovka","fcl":"P","name":"Kozlovka","fcode":"PPL","geonameId":543147,"lat":"54.2469","adminName1":"Rjazan","population":0},{"countryId":"2017370","adminCode1":"76","countryName":"Russia","fclName":"city, village,...","countryCode":"RU","lng":"37.67118","fcodeName":"populated place","toponymName":"Kozlovka","fcl":"P","name":"Kozlovka","fcode":"PPL","geonameId":543141,"lat":"54.69092","adminName1":"Tula","population":0},{"countryId":"2017370","adminCode1":"56","countryName":"Russia","fclName":"city, village,...","countryCode":"RU","lng":"37.46745","fcodeName":"section of populated place","toponymName":"Kozlovka","fcl":"P","name":"Kozlovka","fcode":"PPLX","geonameId":543123,"lat":"52.8717","adminName1":"Orjol","population":0},{"countryId":"2017370","adminCode1":"76","countryName":"Russia","fclName":"city, village,...","countryCode":"RU","lng":"38.7","fcodeName":"populated place","toponymName":"Starotroitskaya Kozlovka","fcl":"P","name":"Starotroitskaya Kozlovka","fcode":"PPL","geonameId":488603,"lat":"53.48333","adminName1":"Tula","population":0},{"countryId":"2017370","adminCode1":"25","countryName":"Russia","fclName":"city, village,...","countryCode":"RU","lng":"36.79141","fcodeName":"populated place","toponymName":"Kozlovka","fcl":"P","name":"Kozlovka","fcode":"PPL","geonameId":6652735,"lat":"54.50182","adminName1":"Kaluga","population":0}]}