{"totalResultsCount":18,"geonames":[{"countryId":"2017370","adminCode1":"85","countryName":"Russia","fclName":"city, village,...","countryCode":"RU","lng":"37.95","fcodeName":"populated place","toponymName":"Kozhino","fcl":"P","name":"Kozhino","fcode":"PPL","geonameId":543283,"lat":"59.95","adminName1":"Vologda","population":0},{"countryId":"2017370","adminCode1":"85","countryName":"Russia","fclName":"city, village,...","countryCode":"RU","lng":"39.3505","fcodeName":"populated place","toponymName":"Kozhino","fcl":"P","name":"Kozhino","fcode":"PPL","geonameId":543284,"lat":"59.03771","adminName1":"Vologda","population":0},{"countryId":"2017370","adminCode1":"47","countryName":"Russia","fclName":"city, village,...","countryCode":"RU","lng":"38.06855","fcodeName":"populated place","toponymName":"Kozhino","fcl":"P","name":"Kozhino","fcode":"PPL","geonameId":543290,"lat":"55.91872","adminName1":"Moskovskaya","population":0},{"countryId":"2017370","adminCode1":"47","countryName":"Russia","fclName":"city, village,...","countryCode":"RU","lng":"35.38393","fcodeName":"populated place","toponymName":"Kozhino","fcl":"P","name":"Kozhino","fcode":"PPL","geonameId":543291,"lat":"55.7716","adminName1":"Moskovskaya","population":0},{"countryId":"2017370","adminCode1":"47","countryName":"Russia","fclName":"city, village,...","countryCode":"RU","lng":"36.26361","fcodeName":"populated place","toponymName":"Kozhino","fcl":"P","name":"Kozhino","fcode":"PPL","geonameId":543293,"lat":"55.60722","adminName1":"Moskovskaya","population":0},{"countryId":"2017370","adminCode1":"37","countryName":"Russia","fclName":"city, village,...","countryCode":"RU","lng":"43.3068","fcodeName":"populated place","toponymName":"Kozhino","fcl":"P","name":"Kozhino","fcode":"PPL","geonameId":7492992,"lat":"58.3297","adminName1":"Kostroma","population":0},{"countryId":"2017370","adminCode1":"85","countryName":"Russia","fclName":"city, village,...","countryCode":"RU","lng":"39.9734","fcodeName":"populated place","toponymName":"Kozhino","fcl":"P","name":"Kozhino","fcode":"PPL","geonameId":7495323,"lat":"59.1082","adminName1":"Vologda","population":0},{"countryId":"2017370","adminCode1":"88","countryName":"Russia","fclName":"city, village,...","countryCode":"RU","lng":"37.7693","fcodeName":"populated place","toponymName":"Kozhino","fcl":"P","name":"Kozhino","fcode":"PPL","geonameId":7586331,"lat":"57.6375","adminName1":"Jaroslavl","population":0},{"countryId":"2017370","adminCode1":"77","countryName":"Russia","fclName":"city, village,...","countryCode":"RU","lng":"34.5014","fcodeName":"populated place","toponymName":"Kozhino","fcl":"P","name":"Kozhino","fcode":"PPL","geonameId":543286,"lat":"57.95834","adminName1":"Tverskaya","population":0},{"countryId":"2017370","adminCode1":"77","countryName":"Russia","fclName":"city, village,...","countryCode":"RU","lng":"37.4436","fcodeName":"populated place","toponymName":"Kozhino","fcl":"P","name":"Kozhino","fcode":"PPL","geonameId":7586061,"lat":"57.4246","adminName1":"Tverskaya","population":0},{"countryId":"2017370","adminCode1":"77","countryName":"Russia","fclName":"city, village,...","countryCode":"RU","lng":"35.89623","fcodeName":"populated place","toponymName":"Kozhino","fcl":"P","name":"Kozhino","fcode":"PPL","geonameId":543285,"lat":"58.07022","adminName1":"Tverskaya","population":0},{"countryId":"2017370","adminCode1":"69","countryName":"Russia","fclName":"city, village,...","countryCode":"RU","lng":"34.49378","fcodeName":"populated place","toponymName":"Kozhino","fcl":"P","name":"Kozhino","fcode":"PPL","geonameId":543292,"lat":"55.67041","adminName1":"Smolensk","population":0},{"countryId":"2017370","adminCode1":"83","countryName":"Russia","fclName":"city, village,...","countryCode":"RU","lng":"39.2271","fcodeName":"populated place","toponymName":"Kozhino","fcl":"P","name":"Kozhino","fcode":"PPL","geonameId":543288,"lat":"56.3573","adminName1":"Vladimir","population":0},{"countryId":"2017370","adminCode1":"76","countryName":"Russia","fclName":"city, village,...","countryCode":"RU","lng":"38.53345","fcodeName":"populated place","toponymName":"Podosinki-Kozhino","fcl":"P","name":"Podosinki-Kozhino","fcode":"PPL","geonameId":508073,"lat":"54.1991","adminName1":"Tula","population":0},{"countryId":"2017370","adminCode1":"83","countryName":"Russia","fclName":"city, village,...","countryCode":"RU","lng":"42.51975","fcodeName":"populated place","toponymName":"Kozhino","fcl":"P","name":"Kozhino","fcode":"PPL","geonameId":543289,"lat":"56.07984","adminName1":"Vladimir","population":0},{"countryId":"2017370","adminCode1":"51","countryName":"Russia","fclName":"city, village,...","countryCode":"RU","lng":"43.87977","fcodeName":"populated place","toponymName":"Kozhino","fcl":"P","name":"Kozhino","fcode":"PPL","geonameId":6419856,"lat":"55.32847","adminName1":"Nizjnij Novgorod","population":0},{"countryId":"2017370","adminCode1":"69","countryName":"Russia","fclName":"city, village,...","countryCode":"RU","lng":"34.98348","fcodeName":"populated place","toponymName":"Kozhino","fcl":"P","name":"Kozhino","fcode":"PPL","geonameId":7440933,"lat":"55.50692","adminName1":"Smolensk","population":0},{"countryId":"2017370","adminCode1":"76","countryName":"Russia","fclName":"city, village,...","countryCode":"RU","lng":"37.27804","fcodeName":"populated place","toponymName":"Kozhino","fcl":"P","name":"Kozhino","fcode":"PPL","geonameId":7502284,"lat":"54.11953","adminName1":"Tula","population":0}]}