{"totalResultsCount":91,"geonames":[{"countryId":"2017370","adminCode1":"09","countryName":"Russia","fclName":"city, village,...","countryCode":"RU","lng":"38.6817","fcodeName":"populated place","toponymName":"Krasnoye","fcl":"P","name":"Krasnoye","fcode":"PPL","geonameId":542121,"lat":"50.9297","adminName1":"Belgorod","population":2352},{"countryId":"2017370","adminCode1":"43","countryName":"Russia","fclName":"city, village,...","countryCode":"RU","lng":"38.79353","fcodeName":"populated place","toponymName":"Krasnoye","fcl":"P","name":"Krasnoye","fcode":"PPL","geonameId":542109,"lat":"52.86449","adminName1":"Lipetsk","population":4021},{"countryId":"2017370","adminCode1":"88","countryName":"Russia","fclName":"city, village,...","countryCode":"RU","lng":"38.89637","fcodeName":"populated place","toponymName":"Krasnoye","fcl":"P","name":"Krasnoye","fcode":"PPL","geonameId":542069,"lat":"56.703","adminName1":"Jaroslavl","population":0},{"countryId":"2017370","adminCode1":"47","countryName":"Russia","fclName":"city, village,...","countryCode":"RU","lng":"38.63613","fcodeName":"populated place","toponymName":"Krasnoye","fcl":"P","name":"Krasnoye","fcode":"PPL","geonameId":542090,"lat":"54.43223","adminName1":"Moskovskaya","population":653},{"countryId":"2017370","adminCode1":"62","countryName":"Russia","fclName":"city, village,...","countryCode":"RU","lng":"39.567","fcodeName":"populated place","toponymName":"Krasnoye","fcl":"P","name":"Krasnoye","fcode":"PPL","geonameId":542091,"lat":"54.2102","adminName1":"Rjazan","population":0},{"countryId":"2017370","adminCode1":"25","countryName":"Russia","fclName":"city, village,...","countryCode":"RU","lng":"35.54669","fcodeName":"populated place","toponymName":"Krasnoye","fcl":"P","name":"Krasnoye","fcode":"PPL","geonameId":542093,"lat":"54.09891","adminName1":"Kaluga","population":0},{"countryId":"2017370","adminCode1":"25","countryName":"Russia","fclName":"city, village,...","countryCode":"RU","lng":"35.16698","fcodeName":"populated place","toponymName":"Krasnoye","fcl":"P","name":"Krasnoye","fcode":"PPL","geonameId":542104,"lat":"53.44825","adminName1":"Kaluga","population":0},{"countryId":"2017370","adminCode1":"09","countryName":"Russia","fclName":"city, village,...","countryCode":"RU","lng":"38.8201","fcodeName":"populated place","toponymName":"Krasnoye","fcl":"P","name":"Krasnoye","fcode":"PPL","geonameId":542124,"lat":"50.3344","adminName1":"Belgorod","population":0},{"countryId":"2017370","adminCode1":"77","countryName":"Russia","fclName":"city, village,...","countryCode":"RU","lng":"32.57639","fcodeName":"populated place","toponymName":"Krasnoye","fcl":"P","name":"Krasnoye","fcode":"PPL","geonameId":542067,"lat":"56.80806","adminName1":"Tverskaya","population":0},{"countryId":"2017370","adminCode1":"77","countryName":"Russia","fclName":"city, village,...","countryCode":"RU","lng":"34.69285","fcodeName":"populated place","toponymName":"Krasnoye","fcl":"P","name":"Krasnoye","fcode":"PPL","geonameId":542070,"lat":"56.60103","adminName1":"Tverskaya","population":0},{"countryId":"2017370","adminCode1":"47","countryName":"Russia","fclName":"city, village,...","countryCode":"RU","lng":"39.4","fcodeName":"populated place","toponymName":"Krasnoye","fcl":"P","name":"Krasnoye","fcode":"PPL","geonameId":542078,"lat":"55.6","adminName1":"Moskovskaya","population":0},{"countryId":"2017370","adminCode1":"69","countryName":"Russia","fclName":"city, village,...","countryCode":"RU","lng":"33.91778","fcodeName":"populated place","toponymName":"Krasnoye","fcl":"P","name":"Krasnoye","fcode":"PPL","geonameId":542079,"lat":"55.57417","adminName1":"Smolensk","population":0},{"countryId":"2017370","adminCode1":"47","countryName":"Russia","fclName":"city, village,...","countryCode":"RU","lng":"37.28395","fcodeName":"populated place","toponymName":"Krasnoye","fcl":"P","name":"Krasnoye","fcode":"PPL","geonameId":542080,"lat":"55.42646","adminName1":"Moskovskaya","population":0},{"countryId":"2017370","adminCode1":"69","countryName":"Russia","fclName":"city, village,...","countryCode":"RU","lng":"34.65339","fcodeName":"populated place","toponymName":"Krasnoye","fcl":"P","name":"Krasnoye","fcode":"PPL","geonameId":542084,"lat":"54.97135","adminName1":"Smolensk","population":0},{"countryId":"2017370","adminCode1":"62","countryName":"Russia","fclName":"city, village,...","countryCode":"RU","lng":"39.1984","fcodeName":"populated place","toponymName":"Krasnoye","fcl":"P","name":"Krasnoye","fcode":"PPL","geonameId":542092,"lat":"54.1714","adminName1":"Rjazan","population":0},{"countryId":"2017370","adminCode1":"76","countryName":"Russia","fclName":"city, village,...","countryCode":"RU","lng":"37.27156","fcodeName":"populated place","toponymName":"Krasnoye","fcl":"P","name":"Krasnoye","fcode":"PPL","geonameId":542096,"lat":"53.79453","adminName1":"Tula","population":0},{"countryId":"2017370","adminCode1":"76","countryName":"Russia","fclName":"city, village,...","countryCode":"RU","lng":"38.78138","fcodeName":"populated place","toponymName":"Krasnoye","fcl":"P","name":"Krasnoye","fcode":"PPL","geonameId":542098,"lat":"53.72504","adminName1":"Tula","population":0},{"countryId":"2017370","adminCode1":"76","countryName":"Russia","fclName":"city, village,...","countryCode":"RU","lng":"37.33732","fcodeName":"populated place","toponymName":"Krasnoye","fcl":"P","name":"Krasnoye","fcode":"PPL","geonameId":542100,"lat":"53.59457","adminName1":"Tula","population":0},{"countryId":"2017370","adminCode1":"76","countryName":"Russia","fclName":"city, village,...","countryCode":"RU","lng":"37.85517","fcodeName":"populated place","toponymName":"Krasnoye","fcl":"P","name":"Krasnoye","fcode":"PPL","geonameId":542105,"lat":"53.36874","adminName1":"Tula","population":0},{"countryId":"2017370","adminCode1":"56","countryName":"Russia","fclName":"city, village,...","countryCode":"RU","lng":"37.45833","fcodeName":"populated place","toponymName":"Krasnoye","fcl":"P","name":"Krasnoye","fcode":"PPL","geonameId":542108,"lat":"53.0315","adminName1":"Orjol","population":0},{"countryId":"2017370","adminCode1":"56","countryName":"Russia","fclName":"city, village,...","countryCode":"RU","lng":"37.23845","fcodeName":"populated place","toponymName":"Krasnoye","fcl":"P","name":"Krasnoye","fcode":"PPL","geonameId":542111,"lat":"52.62685","adminName1":"Orjol","population":0},{"countryId":"2017370","adminCode1":"43","countryName":"Russia","fclName":"city, village,...","countryCode":"RU","lng":"39.78133","fcodeName":"populated place","toponymName":"Krasnoye","fcl":"P","name":"Krasnoye","fcode":"PPL","geonameId":542115,"lat":"52.11795","adminName1":"Lipetsk","population":0},{"countryId":"2017370","adminCode1":"10","countryName":"Russia","fclName":"city, village,...","countryCode":"RU","lng":"32.71889","fcodeName":"populated place","toponymName":"Krasnoye","fcl":"P","name":"Krasnoye","fcode":"PPL","geonameId":819308,"lat":"52.77417","adminName1":"Brjansk","population":0},{"countryId":"2017370","adminCode1":"76","countryName":"Russia","fclName":"city, village,...","countryCode":"RU","lng":"36.69161","fcodeName":"populated place","toponymName":"Krasnoye","fcl":"P","name":"Krasnoye","fcode":"PPL","geonameId":823615,"lat":"53.96757","adminName1":"Tula","population":0},{"countryId":"2017370","adminCode1":"69","countryName":"Russia","fclName":"city, village,...","countryCode":"RU","lng":"33.86639","fcodeName":"populated place","toponymName":"Krasnoye","fcl":"P","name":"Krasnoye","fcode":"PPL","geonameId":811216,"lat":"55.04556","adminName1":"Smolensk","population":0},{"countryId":"2017370","adminCode1":"69","countryName":"Russia","fclName":"city, village,...","countryCode":"RU","lng":"34.22972","fcodeName":"populated place","toponymName":"Krasnoye","fcl":"P","name":"Krasnoye","fcode":"PPL","geonameId":813301,"lat":"55.86667","adminName1":"Smolensk","population":0},{"countryId":"2017370","adminCode1":"10","countryName":"Russia","fclName":"city, village,...","countryCode":"RU","lng":"32.57783","fcodeName":"populated place","toponymName":"Krasnoye","fcl":"P","name":"Krasnoye","fcode":"PPL","geonameId":814205,"lat":"53.09984","adminName1":"Brjansk","population":0},{"countryId":"2017370","adminCode1":"25","countryName":"Russia","fclName":"city, village,...","countryCode":"RU","lng":"36.45917","fcodeName":"populated place","toponymName":"Krasnoye","fcl":"P","name":"Krasnoye","fcode":"PPL","geonameId":816236,"lat":"55.20972","adminName1":"Kaluga","population":0},{"countryId":"2017370","adminCode1":"43","countryName":"Russia","fclName":"city, village,...","countryCode":"RU","lng":"39.1629","fcodeName":"populated place","toponymName":"Krasnoye","fcl":"P","name":"Krasnoye","fcode":"PPL","geonameId":7452165,"lat":"52.7295","adminName1":"Lipetsk","population":0},{"countryId":"2017370","adminCode1":"56","countryName":"Russia","fclName":"city, village,...","countryCode":"RU","lng":"36.84166","fcodeName":"populated place","toponymName":"Krasnoye","fcl":"P","name":"Krasnoye","fcode":"PPL","geonameId":542021,"lat":"52.25104","adminName1":"Orjol","population":0},{"countryId":"2017370","adminCode1":"10","countryName":"Russia","fclName":"city, village,...","countryCode":"RU","lng":"33.69678","fcodeName":"populated place","toponymName":"Krasnoye","fcl":"P","name":"Krasnoye","fcode":"PPL","geonameId":542112,"lat":"52.56279","adminName1":"Brjansk","population":0},{"countryId":"2017370","adminCode1":"43","countryName":"Russia","fclName":"city, village,...","countryCode":"RU","lng":"38.31008","fcodeName":"populated place","toponymName":"Krasnoye","fcl":"P","name":"Krasnoye","fcode":"PPL","geonameId":510791,"lat":"52.36712","adminName1":"Lipetsk","population":0},{"countryId":"2017370","adminCode1":"76","countryName":"Russia","fclName":"city, village,...","countryCode":"RU","lng":"37.41781","fcodeName":"populated place","toponymName":"Krasnoye","fcl":"P","name":"Krasnoye","fcode":"PPL","geonameId":542106,"lat":"53.31832","adminName1":"Tula","population":0},{"countryId":"2017370","adminCode1":"56","countryName":"Russia","fclName":"city, village,...","countryCode":"RU","lng":"36.73333","fcodeName":"populated place","toponymName":"Krasnoye","fcl":"P","name":"Krasnoye","fcode":"PPL","geonameId":542110,"lat":"52.83333","adminName1":"Orjol","population":0},{"countryId":"2017370","adminCode1":"09","countryName":"Russia","fclName":"city, village,...","countryCode":"RU","lng":"38.16","fcodeName":"populated place","toponymName":"Krasnoye","fcl":"P","name":"Krasnoye","fcode":"PPL","geonameId":542122,"lat":"50.6844","adminName1":"Belgorod","population":0},{"countryId":"2017370","adminCode1":"56","countryName":"Russia","fclName":"city, village,...","countryCode":"RU","lng":"36.73378","fcodeName":"populated place","toponymName":"Krasnoye","fcl":"P","name":"Krasnoye","fcode":"PPL","geonameId":542017,"lat":"52.82734","adminName1":"Orjol","population":0},{"countryId":"2017370","adminCode1":"77","countryName":"Russia","fclName":"city, village,...","countryCode":"RU","lng":"33.35","fcodeName":"populated place","toponymName":"Krasnoye","fcl":"P","name":"Krasnoye","fcode":"PPL","geonameId":542074,"lat":"56.41667","adminName1":"Tverskaya","population":0},{"countryId":"2017370","adminCode1":"69","countryName":"Russia","fclName":"city, village,...","countryCode":"RU","lng":"34.1352","fcodeName":"populated place","toponymName":"Krasnoye","fcl":"P","name":"Krasnoye","fcode":"PPL","geonameId":542083,"lat":"55.007","adminName1":"Smolensk","population":0},{"countryId":"2017370","adminCode1":"25","countryName":"Russia","fclName":"city, village,...","countryCode":"RU","lng":"34.92028","fcodeName":"populated place","toponymName":"Krasnoye","fcl":"P","name":"Krasnoye","fcode":"PPL","geonameId":542087,"lat":"54.71389","adminName1":"Kaluga","population":0},{"countryId":"2017370","adminCode1":"62","countryName":"Russia","fclName":"city, village,...","countryCode":"RU","lng":"38.82577","fcodeName":"populated place","toponymName":"Krasnoye","fcl":"P","name":"Krasnoye","fcode":"PPL","geonameId":542095,"lat":"53.93967","adminName1":"Rjazan","population":0},{"countryId":"2017370","adminCode1":"76","countryName":"Russia","fclName":"city, village,...","countryCode":"RU","lng":"36.75044","fcodeName":"populated place","toponymName":"Krasnoye","fcl":"P","name":"Krasnoye","fcode":"PPL","geonameId":542099,"lat":"53.66624","adminName1":"Tula","population":0},{"countryId":"2017370","adminCode1":"25","countryName":"Russia","fclName":"city, village,...","countryCode":"RU","lng":"34.65302","fcodeName":"populated place","toponymName":"Krasnoye","fcl":"P","name":"Krasnoye","fcode":"PPL","geonameId":542102,"lat":"53.55644","adminName1":"Kaluga","population":0},{"countryId":"2017370","adminCode1":"43","countryName":"Russia","fclName":"city, village,...","countryCode":"RU","lng":"38.7296","fcodeName":"populated place","toponymName":"Krasnoye","fcl":"P","name":"Krasnoye","fcode":"PPL","geonameId":820352,"lat":"53.22321","adminName1":"Lipetsk","population":0},{"countryId":"690791","adminCode1":"02","countryName":"Ukraine","fclName":"city, village,...","countryCode":"UA","lng":"32.99489","fcodeName":"populated place","toponymName":"Krasne","fcl":"P","name":"Krasnoye","fcode":"PPL","geonameId":704270,"lat":"51.2657","adminName1":"Chernihiv","population":0},{"countryId":"2017370","adminCode1":"76","countryName":"Russia","fclName":"city, village,...","countryCode":"RU","lng":"36.91186","fcodeName":"populated place","toponymName":"Krasnoye","fcl":"P","name":"Krasnoye","fcode":"PPL","geonameId":542089,"lat":"54.46066","adminName1":"Tula","population":0},{"countryId":"2017370","adminCode1":"09","countryName":"Russia","fclName":"city, village,...","countryCode":"RU","lng":"36.56361","fcodeName":"populated place","toponymName":"Krasnoye","fcl":"P","name":"Krasnoye","fcode":"PPL","geonameId":542123,"lat":"50.58278","adminName1":"Belgorod","population":0},{"countryId":"2017370","adminCode1":"09","countryName":"Russia","fclName":"city, village,...","countryCode":"RU","lng":"37.1473","fcodeName":"populated place","toponymName":"Krasnoye","fcl":"P","name":"Krasnoye","fcode":"PPL","geonameId":807455,"lat":"50.3651","adminName1":"Belgorod","population":0},{"countryId":"2017370","adminCode1":"69","countryName":"Russia","fclName":"city, village,...","countryCode":"RU","lng":"32.53551","fcodeName":"populated place","toponymName":"Krasnoye Znamya","fcl":"P","name":"Krasnoye Znamya","fcode":"PPL","geonameId":541963,"lat":"54.12287","adminName1":"Smolensk","population":0},{"countryId":"2017370","adminCode1":"83","countryName":"Russia","fclName":"city, village,...","countryCode":"RU","lng":"39.67567","fcodeName":"populated place","toponymName":"Krasnoye","fcl":"P","name":"Krasnoye","fcode":"PPL","geonameId":542002,"lat":"56.52771","adminName1":"Vladimir","population":0},{"countryId":"2017370","adminCode1":"10","countryName":"Russia","fclName":"city, village,...","countryCode":"RU","lng":"33.91499","fcodeName":"populated place","toponymName":"Krasnoye","fcl":"P","name":"Krasnoye","fcode":"PPL","geonameId":542107,"lat":"53.06817","adminName1":"Brjansk","population":0},{"countryId":"2017370","adminCode1":"09","countryName":"Russia","fclName":"city, village,...","countryCode":"RU","lng":"36.53419","fcodeName":"populated place","toponymName":"Krasnoye","fcl":"P","name":"Krasnoye","fcode":"PPL","geonameId":558276,"lat":"50.57961","adminName1":"Belgorod","population":0},{"countryId":"2017370","adminCode1":"09","countryName":"Russia","fclName":"city, village,...","countryCode":"RU","lng":"36.8005","fcodeName":"populated place","toponymName":"Krasnoye","fcl":"P","name":"Krasnoye","fcode":"PPL","geonameId":542120,"lat":"51.01458","adminName1":"Belgorod","population":0},{"countryId":"690791","adminCode1":"18","countryName":"Ukraine","fclName":"city, village,...","countryCode":"UA","lng":"35.40436","fcodeName":"populated place","toponymName":"Krasnoye","fcl":"P","name":"Krasnoye","fcode":"PPL","geonameId":8679012,"lat":"49.50989","adminName1":"Poltava","population":0},{"countryId":"2017370","adminCode1":"56","countryName":"Russia","fclName":"city, village,...","countryCode":"RU","lng":"37.11058","fcodeName":"populated place","toponymName":"Krasnoye Zarech’ye","fcl":"P","name":"Krasnoye Zarech’ye","fcode":"PPL","geonameId":541986,"lat":"52.97919","adminName1":"Orjol","population":0},{"countryId":"2017370","adminCode1":"77","countryName":"Russia","fclName":"city, village,...","countryCode":"RU","lng":"33.71258","fcodeName":"populated place","toponymName":"Krasnoye Podvor’ye","fcl":"P","name":"Krasnoye Podvor’ye","fcode":"PPL","geonameId":820993,"lat":"56.15176","adminName1":"Tverskaya","population":0},{"countryId":"2017370","adminCode1":"62","countryName":"Russia","fclName":"city, village,...","countryCode":"RU","lng":"40.045","fcodeName":"populated place","toponymName":"Krasnoye Znamya","fcl":"P","name":"Krasnoye Znamya","fcode":"PPL","geonameId":541965,"lat":"53.4826","adminName1":"Rjazan","population":0},{"countryId":"2017370","adminCode1":"47","countryName":"Russia","fclName":"city, village,...","countryCode":"RU","lng":"35.51858","fcodeName":"populated place","toponymName":"Krasnoye Selo","fcl":"P","name":"Krasnoye Selo","fcode":"PPL","geonameId":542003,"lat":"55.9329","adminName1":"Moskovskaya","population":0},{"countryId":"2017370","adminCode1":"47","countryName":"Russia","fclName":"city, village,...","countryCode":"RU","lng":"35.76722","fcodeName":"populated place","toponymName":"Krasnoye Insheno","fcl":"P","name":"Krasnoye Insheno","fcode":"PPL","geonameId":542033,"lat":"55.56833","adminName1":"Moskovskaya","population":0},{"countryId":"2017370","adminCode1":"41","countryName":"Russia","fclName":"city, village,...","countryCode":"RU","lng":"36.61556","fcodeName":"populated place","toponymName":"Nizhne-Krasnoye","fcl":"P","name":"Nizhne-Krasnoye","fcode":"PPL","geonameId":521105,"lat":"51.96262","adminName1":"Kursk","population":0},{"countryId":"2017370","adminCode1":"25","countryName":"Russia","fclName":"city, village,...","countryCode":"RU","lng":"34.58472","fcodeName":"populated place","toponymName":"Krasnoye Znamya","fcl":"P","name":"Krasnoye Znamya","fcode":"PPL","geonameId":541964,"lat":"53.72","adminName1":"Kaluga","population":0},{"countryId":"2017370","adminCode1":"25","countryName":"Russia","fclName":"city, village,...","countryCode":"RU","lng":"35.51667","fcodeName":"populated place","toponymName":"Krasnoye Utro","fcl":"P","name":"Krasnoye Utro","fcode":"PPL","geonameId":541991,"lat":"54.66667","adminName1":"Kaluga","population":0},{"countryId":"2017370","adminCode1":"43","countryName":"Russia","fclName":"city, village,...","countryCode":"RU","lng":"38.30008","fcodeName":"populated place","toponymName":"Krasnoye Utro","fcl":"P","name":"Krasnoye Utro","fcode":"PPL","geonameId":541992,"lat":"52.43144","adminName1":"Lipetsk","population":0},{"countryId":"2017370","adminCode1":"76","countryName":"Russia","fclName":"city, village,...","countryCode":"RU","lng":"36.73273","fcodeName":"populated place","toponymName":"Krasnoye Turgenevo","fcl":"P","name":"Krasnoye Turgenevo","fcode":"PPL","geonameId":541993,"lat":"53.4725","adminName1":"Tula","population":0},{"countryId":"2017370","adminCode1":"69","countryName":"Russia","fclName":"city, village,...","countryCode":"RU","lng":"32.95333","fcodeName":"populated place","toponymName":"Krasnoye Solnyshko","fcl":"P","name":"Krasnoye Solnyshko","fcode":"PPL","geonameId":541995,"lat":"53.78056","adminName1":"Smolensk","population":0},{"countryId":"2017370","adminCode1":"56","countryName":"Russia","fclName":"city, village,...","countryCode":"RU","lng":"37.23333","fcodeName":"populated place","toponymName":"Krasnoye Rossoshnoye","fcl":"P","name":"Krasnoye Rossoshnoye","fcode":"PPL","geonameId":542007,"lat":"52.98333","adminName1":"Orjol","population":0},{"countryId":"2017370","adminCode1":"56","countryName":"Russia","fclName":"city, village,...","countryCode":"RU","lng":"37.17722","fcodeName":"populated place","toponymName":"Krasnoye Korsakovo","fcl":"P","name":"Krasnoye Korsakovo","fcode":"PPL","geonameId":542027,"lat":"53.17306","adminName1":"Orjol","population":0},{"countryId":"2017370","adminCode1":"43","countryName":"Russia","fclName":"city, village,...","countryCode":"RU","lng":"39.47528","fcodeName":"populated place","toponymName":"Krasnoye Kolychevo","fcl":"P","name":"Krasnoye Kolychevo","fcode":"PPL","geonameId":542028,"lat":"53.14005","adminName1":"Lipetsk","population":0},{"countryId":"2017370","adminCode1":"62","countryName":"Russia","fclName":"city, village,...","countryCode":"RU","lng":"38.73356","fcodeName":"populated place","toponymName":"Krasnoye Gorodishche","fcl":"P","name":"Krasnoye Gorodishche","fcode":"PPL","geonameId":542035,"lat":"54.06966","adminName1":"Rjazan","population":0},{"countryId":"2017370","adminCode1":"56","countryName":"Russia","fclName":"city, village,...","countryCode":"RU","lng":"36.6937","fcodeName":"populated place","toponymName":"Krasnoye Znamya","fcl":"P","name":"Krasnoye Znamya","fcode":"PPL","geonameId":542562,"lat":"52.75072","adminName1":"Orjol","population":0},{"countryId":"2017370","adminCode1":"56","countryName":"Russia","fclName":"city, village,...","countryCode":"RU","lng":"35.5325","fcodeName":"populated place","toponymName":"Krasnoye Solntse","fcl":"P","name":"Krasnoye Solntse","fcode":"PPL","geonameId":818080,"lat":"52.89167","adminName1":"Orjol","population":0},{"countryId":"2017370","adminCode1":"56","countryName":"Russia","fclName":"city, village,...","countryCode":"RU","lng":"35.2834","fcodeName":"populated place","toponymName":"Krasnoye Znamya","fcl":"P","name":"Krasnoye Znamya","fcode":"PPL","geonameId":818557,"lat":"52.6236","adminName1":"Orjol","population":0},{"countryId":"2017370","adminCode1":"76","countryName":"Russia","fclName":"city, village,...","countryCode":"RU","lng":"37.29234","fcodeName":"populated place","toponymName":"Krasnoye Ozero","fcl":"P","name":"Krasnoye Ozero","fcode":"PPL","geonameId":821831,"lat":"53.32668","adminName1":"Tula","population":0},{"countryId":"2017370","adminCode1":"76","countryName":"Russia","fclName":"city, village,...","countryCode":"RU","lng":"37.4175","fcodeName":"populated place","toponymName":"Krasnoye Utro","fcl":"P","name":"Krasnoye Utro","fcode":"PPL","geonameId":821903,"lat":"53.34278","adminName1":"Tula","population":0},{"countryId":"2017370","adminCode1":"77","countryName":"Russia","fclName":"city, village,...","countryCode":"RU","lng":"32.77806","fcodeName":"populated place","toponymName":"Krasnoye Pokatishche","fcl":"P","name":"Krasnoye Pokatishche","fcode":"PPL","geonameId":823048,"lat":"56.83306","adminName1":"Tverskaya","population":0},{"countryId":"2017370","adminCode1":"56","countryName":"Russia","fclName":"city, village,...","countryCode":"RU","lng":"35.34417","fcodeName":"populated place","toponymName":"Krasnoye Ozero","fcl":"P","name":"Krasnoye Ozero","fcode":"PPL","geonameId":815130,"lat":"53.12972","adminName1":"Orjol","population":0},{"countryId":"2017370","adminCode1":"56","countryName":"Russia","fclName":"city, village,...","countryCode":"RU","lng":"35.77966","fcodeName":"populated place","toponymName":"Krasnoye Znamya","fcl":"P","name":"Krasnoye Znamya","fcode":"PPL","geonameId":816522,"lat":"53.25781","adminName1":"Orjol","population":0},{"countryId":"2017370","adminCode1":"76","countryName":"Russia","fclName":"city, village,...","countryCode":"RU","lng":"36.5235","fcodeName":"populated place","toponymName":"Krasnoye Mikhaylovo","fcl":"P","name":"Krasnoye Mikhaylovo","fcode":"PPL","geonameId":542296,"lat":"54.2351","adminName1":"Tula","population":0},{"countryId":"690791","adminCode1":"18","countryName":"Ukraine","fclName":"city, village,...","countryCode":"UA","lng":"34.2589","fcodeName":"populated place","toponymName":"Krasnoye","fcl":"P","name":"Krasnoye","fcode":"PPL","geonameId":704281,"lat":"49.0818","adminName1":"Poltava","population":0},{"countryId":"2017370","adminCode1":"10","countryName":"Russia","fclName":"city, village,...","countryCode":"RU","lng":"32.73568","fcodeName":"populated place","toponymName":"Krasnoye Privol’ye","fcl":"P","name":"Krasnoye Privol’ye","fcode":"PPL","geonameId":819309,"lat":"52.7641","adminName1":"Brjansk","population":0},{"countryId":"2017370","adminCode1":"10","countryName":"Russia","fclName":"city, village,...","countryCode":"RU","lng":"32.2112","fcodeName":"populated place","toponymName":"Krasnoye Zarech’ye","fcl":"P","name":"Krasnoye Zarech’ye","fcode":"PPL","geonameId":7450121,"lat":"52.6581","adminName1":"Brjansk","population":0},{"countryId":"2017370","adminCode1":"77","countryName":"Russia","fclName":"city, village,...","countryCode":"RU","lng":"35.83114","fcodeName":"section of populated place","toponymName":"Krasnoye Znamya","fcl":"P","name":"Krasnoye Znamya","fcode":"PPLX","geonameId":541962,"lat":"56.90045","adminName1":"Tverskaya","population":0},{"countryId":"2017370","adminCode1":"10","countryName":"Russia","fclName":"city, village,...","countryCode":"RU","lng":"32.52933","fcodeName":"abandoned populated place","toponymName":"Krasnoye Yartsevo","fcl":"P","name":"Krasnoye Yartsevo","fcode":"PPLQ","geonameId":506044,"lat":"52.59343","adminName1":"Brjansk","population":0},{"countryId":"2017370","adminCode1":"83","countryName":"Russia","fclName":"city, village,...","countryCode":"RU","lng":"39.87087","fcodeName":"populated place","toponymName":"Krasnoye Zarech’ye","fcl":"P","name":"Krasnoye Zarech’ye","fcode":"PPL","geonameId":541985,"lat":"56.32731","adminName1":"Vladimir","population":0},{"countryId":"2017370","adminCode1":"47","countryName":"Russia","fclName":"city, village,...","countryCode":"RU","lng":"37.6","fcodeName":"section of populated place","toponymName":"Turbaza Krasnyy Mayak","fcl":"P","name":"Turbaza Krasnyy Mayak","fcode":"PPLX","geonameId":542044,"lat":"55.61667","adminName1":"Moskovskaya","population":0},{"countryId":"2017370","adminCode1":"43","countryName":"Russia","fclName":"city, village,...","countryCode":"RU","lng":"38.60691","fcodeName":"abandoned populated place","toponymName":"Krasnoye Vtoroye","fcl":"P","name":"Krasnoye Vtoroye","fcode":"PPLQ","geonameId":471005,"lat":"53.02291","adminName1":"Lipetsk","population":0},{"countryId":"2017370","adminCode1":"10","countryName":"Russia","fclName":"city, village,...","countryCode":"RU","lng":"33.9743","fcodeName":"populated place","toponymName":"Krasnoye Znamya","fcl":"P","name":"Krasnoye Znamya","fcode":"PPL","geonameId":864072,"lat":"53.1789","adminName1":"Brjansk","population":0},{"countryId":"2017370","adminCode1":"09","countryName":"Russia","fclName":"city, village,...","countryCode":"RU","lng":"36.8512","fcodeName":"populated place","toponymName":"Krasnoye Znamya","fcl":"P","name":"Krasnoye Znamya","fcode":"PPL","geonameId":809385,"lat":"50.88785","adminName1":"Belgorod","population":0},{"countryId":"2017370","adminCode1":"76","countryName":"Russia","fclName":"city, village,...","countryCode":"RU","lng":"38.2254","fcodeName":"populated place","toponymName":"Krasnoye Gremyachevo","fcl":"P","name":"Krasnoye Gremyachevo","fcode":"PPL","geonameId":7690500,"lat":"54.0338","adminName1":"Tula","population":0},{"countryId":"2017370","adminCode1":"09","countryName":"Russia","fclName":"city, village,...","countryCode":"RU","lng":"38.0472","fcodeName":"populated place","toponymName":"Krasnoye Gorodishche","fcl":"P","name":"Krasnoye Gorodishche","fcode":"PPL","geonameId":7690757,"lat":"50.527","adminName1":"Belgorod","population":0},{"countryId":"2017370","adminCode1":"10","countryName":"Russia","fclName":"city, village,...","countryCode":"RU","lng":"34.5213","fcodeName":"populated place","toponymName":"Krasnoye Pole","fcl":"P","name":"Krasnoye Pole","fcode":"PPL","geonameId":7665343,"lat":"52.5658","adminName1":"Brjansk","population":0},{"countryId":"2017370","adminCode1":"62","countryName":"Russia","fclName":"city, village,...","countryCode":"RU","lng":"39.2398","fcodeName":"populated place","toponymName":"Posëlok Sanatoriya Krasnoye","fcl":"P","name":"Posëlok Sanatoriya Krasnoye","fcode":"PPL","geonameId":8535569,"lat":"54.1562","adminName1":"Rjazan","population":0}]}