{"geonames": [{"fcl": "P", "countryName": "Russia", "adminCode1": "85", "fcodeName": "populated place", "adminName1": "Vologda", "lng": "36.9714", "name": "Krasnoye", "toponymName": "Krasnoye", "lat": "59.5661", "fclName": "city, village,...", "geonameId": 542048, "fcode": "PPL", "population": 0, "countryCode": "RU", "countryId": "2017370"}, {"fcl": "P", "countryName": "Russia", "adminCode1": "88", "fcodeName": "populated place", "adminName1": "Jaroslavl", "lng": "39.21324", "name": "Krasnoye", "toponymName": "Krasnoye", "lat": "58.61926", "fclName": "city, village,...", "geonameId": 542052, "fcode": "PPL", "population": 0, "countryCode": "RU", "countryId": "2017370"}, {"fcl": "P", "countryName": "Russia", "adminCode1": "88", "fcodeName": "populated place", "adminName1": "Jaroslavl", "lng": "37.86545", "name": "Krasnoye", "toponymName": "Krasnoye", "lat": "58.06667", "fclName": "city, village,...", "geonameId": 542056, "fcode": "PPL", "population": 0, "countryCode": "RU", "countryId": "2017370"}, {"fcl": "P", "countryName": "Russia", "adminCode1": "88", "fcodeName": "populated place", "adminName1": "Jaroslavl", "lng": "40.36183", "name": "Krasnoye", "toponymName": "Krasnoye", "lat": "57.59095", "fclName": "city, village,...", "geonameId": 542059, "fcode": "PPL", "population": 0, "countryCode": "RU", "countryId": "2017370"}, {"fcl": "P", "countryName": "Russia", "adminCode1": "21", "fcodeName": "populated place", "adminName1": "Ivanovo", "lng": "41.81623", "name": "Krasnoye", "toponymName": "Krasnoye", "lat": "56.82651", "fclName": "city, village,...", "geonameId": 542066, "fcode": "PPL", "population": 0, "countryCode": "RU", "countryId": "2017370"}, {"fcl": "P", "countryName": "Russia", "adminCode1": "88", "fcodeName": "populated place", "adminName1": "Jaroslavl", "lng": "38.89637", "name": "Krasnoye", "toponymName": "Krasnoye", "lat": "56.703", "fclName": "city, village,...", "geonameId": 542069, "fcode": "PPL", "population": 77, "countryCode": "RU", "countryId": "2017370"}, {"fcl": "P", "countryName": "Russia", "adminCode1": "51", "fcodeName": "populated place", "adminName1": "Nizjnij Novgorod", "lng": "43.74428", "name": "Krasnoye", "toponymName": "Krasnoye", "lat": "55.3959", "fclName": "city, village,...", "geonameId": 542081, "fcode": "PPL", "population": 0, "countryCode": "RU", "countryId": "2017370"}, {"fcl": "P", "countryName": "Russia", "adminCode1": "47", "fcodeName": "populated place", "adminName1": "Moskovskaya", "lng": "38.63613", "name": "Krasnoye", "toponymName": "Krasnoye", "lat": "54.43223", "fclName": "city, village,...", "geonameId": 542090, "fcode": "PPL", "population": 653, "countryCode": "RU", "countryId": "2017370"}, {"fcl": "P", "countryName": "Russia", "adminCode1": "62", "fcodeName": "populated place", "adminName1": "Rjazan", "lng": "39.567", "name": "Krasnoye", "toponymName": "Krasnoye", "lat": "54.2102", "fclName": "city, village,...", "geonameId": 542091, "fcode": "PPL", "population": 0, "countryCode": "RU", "countryId": "2017370"}, {"fcl": "P", "countryName": "Russia", "adminCode1": "62", "fcodeName": "populated place", "adminName1": "Rjazan", "lng": "40.87722", "name": "Krasnoye", "toponymName": "Krasnoye", "lat": "53.98556", "fclName": "city, village,...", "geonameId": 542094, "fcode": "PPL", "population": 0, "countryCode": "RU", "countryId": "2017370"}, {"fcl": "P", "countryName": "Russia", "adminCode1": "85", "fcodeName": "populated place", "adminName1": "Vologda", "lng": "37.21667", "name": "Krasnoye", "toponymName": "Krasnoye", "lat": "59.51667", "fclName": "city, village,...", "geonameId": 542049, "fcode": "PPL", "population": 0, "countryCode": "RU", "countryId": "2017370"}, {"fcl": "P", "countryName": "Russia", "adminCode1": "88", "fcodeName": "populated place", "adminName1": "Jaroslavl", "lng": "39.1", "name": "Krasnoye", "toponymName": "Krasnoye", "lat": "58.03333", "fclName": "city, village,...", "geonameId": 542058, "fcode": "PPL", "population": 0, "countryCode": "RU", "countryId": "2017370"}, {"fcl": "P", "countryName": "Russia", "adminCode1": "21", "fcodeName": "populated place", "adminName1": "Ivanovo", "lng": "41.66428", "name": "Krasnoye", "toponymName": "Krasnoye", "lat": "57.19766", "fclName": "city, village,...", "geonameId": 542064, "fcode": "PPL", "population": 0, "countryCode": "RU", "countryId": "2017370"}, {"fcl": "P", "countryName": "Russia", "adminCode1": "21", "fcodeName": "populated place", "adminName1": "Ivanovo", "lng": "41.15882", "name": "Krasnoye", "toponymName": "Krasnoye", "lat": "57.06474", "fclName": "city, village,...", "geonameId": 542065, "fcode": "PPL", "population": 0, "countryCode": "RU", "countryId": "2017370"}, {"fcl": "P", "countryName": "Russia", "adminCode1": "83", "fcodeName": "populated place", "adminName1": "Vladimir", "lng": "40.50124", "name": "Krasnoye", "toponymName": "Krasnoye", "lat": "56.43467", "fclName": "city, village,...", "geonameId": 542073, "fcode": "PPL", "population": 0, "countryCode": "RU", "countryId": "2017370"}, {"fcl": "P", "countryName": "Russia", "adminCode1": "83", "fcodeName": "populated place", "adminName1": "Vladimir", "lng": "42.7", "name": "Krasnoye", "toponymName": "Krasnoye", "lat": "56.2", "fclName": "city, village,...", "geonameId": 542075, "fcode": "PPL", "population": 0, "countryCode": "RU", "countryId": "2017370"}, {"fcl": "P", "countryName": "Russia", "adminCode1": "47", "fcodeName": "populated place", "adminName1": "Moskovskaya", "lng": "39.4", "name": "Krasnoye", "toponymName": "Krasnoye", "lat": "55.6", "fclName": "city, village,...", "geonameId": 542078, "fcode": "PPL", "population": 0, "countryCode": "RU", "countryId": "2017370"}, {"fcl": "P", "countryName": "Russia", "adminCode1": "47", "fcodeName": "populated place", "adminName1": "Moskovskaya", "lng": "37.28395", "name": "Krasnoye", "toponymName": "Krasnoye", "lat": "55.42646", "fclName": "city, village,...", "geonameId": 542080, "fcode": "PPL", "population": 0, "countryCode": "RU", "countryId": "2017370"}, {"fcl": "P", "countryName": "Russia", "adminCode1": "62", "fcodeName": "populated place", "adminName1": "Rjazan", "lng": "39.1984", "name": "Krasnoye", "toponymName": "Krasnoye", "lat": "54.1714", "fclName": "city, village,...", "geonameId": 542092, "fcode": "PPL", "population": 0, "countryCode": "RU", "countryId": "2017370"}, {"fcl": "P", "countryName": "Russia", "adminCode1": "76", "fcodeName": "populated place", "adminName1": "Tula", "lng": "37.27156", "name": "Krasnoye", "toponymName": "Krasnoye", "lat": "53.79453", "fclName": "city, village,...", "geonameId": 542096, "fcode": "PPL", "population": 0, "countryCode": "RU", "countryId": "2017370"}, {"fcl": "P", "countryName": "Russia", "adminCode1": "85", "fcodeName": "populated place", "adminName1": "Vologda", "lng": "40.80556", "name": "Krasnoye", "toponymName": "Krasnoye", "lat": "58.90499", "fclName": "city, village,...", "geonameId": 6313574, "fcode": "PPL", "population": 0, "countryCode": "RU", "countryId": "2017370"}, {"fcl": "P", "countryName": "Russia", "adminCode1": "85", "fcodeName": "populated place", "adminName1": "Vologda", "lng": "38.38246", "name": "Krasnoye", "toponymName": "Krasnoye", "lat": "59.16936", "fclName": "city, village,...", "geonameId": 7494286, "fcode": "PPL", "population": 0, "countryCode": "RU", "countryId": "2017370"}, {"fcl": "P", "countryName": "Russia", "adminCode1": "88", "fcodeName": "populated place", "adminName1": "Jaroslavl", "lng": "38.2808", "name": "Krasnoye", "toponymName": "Krasnoye", "lat": "57.5492", "fclName": "city, village,...", "geonameId": 7587810, "fcode": "PPL", "population": 0, "countryCode": "RU", "countryId": "2017370"}, {"fcl": "P", "countryName": "Russia", "adminCode1": "37", "fcodeName": "populated place", "adminName1": "Kostroma", "lng": "41.239", "name": "Krasnoye-na-Volge", "toponymName": "Krasnoye-na-Volge", "lat": "57.51483", "fclName": "city, village,...", "geonameId": 542024, "fcode": "PPL", "population": 7953, "countryCode": "RU", "countryId": "2017370"}, {"fcl": "P", "countryName": "Russia", "adminCode1": "85", "fcodeName": "populated place", "adminName1": "Vologda", "lng": "42.23756", "name": "Krasnoye", "toponymName": "Krasnoye", "lat": "59.64329", "fclName": "city, village,...", "geonameId": 497626, "fcode": "PPL", "population": 0, "countryCode": "RU", "countryId": "2017370"}, {"fcl": "P", "countryName": "Russia", "adminCode1": "88", "fcodeName": "populated place", "adminName1": "Jaroslavl", "lng": "38.13333", "name": "Krasnoye", "toponymName": "Krasnoye", "lat": "57.38333", "fclName": "city, village,...", "geonameId": 542061, "fcode": "PPL", "population": 0, "countryCode": "RU", "countryId": "2017370"}, {"fcl": "P", "countryName": "Russia", "adminCode1": "62", "fcodeName": "populated place", "adminName1": "Rjazan", "lng": "38.82577", "name": "Krasnoye", "toponymName": "Krasnoye", "lat": "53.93967", "fclName": "city, village,...", "geonameId": 542095, "fcode": "PPL", "population": 0, "countryCode": "RU", "countryId": "2017370"}, {"fcl": "P", "countryName": "Russia", "adminCode1": "51", "fcodeName": "populated place", "adminName1": "Nizjnij Novgorod", "lng": "43.38586", "name": "Krasnoye", "toponymName": "Krasnoye", "lat": "55.80645", "fclName": "city, village,...", "geonameId": 542827, "fcode": "PPL", "population": 0, "countryCode": "RU", "countryId": "2017370"}, {"fcl": "P", "countryName": "Russia", "adminCode1": "85", "fcodeName": "populated place", "adminName1": "Vologda", "lng": "43.22215", "name": "Krasnoye", "toponymName": "Krasnoye", "lat": "60.51228", "fclName": "city, village,...", "geonameId": 542047, "fcode": "PPL", "population": 0, "countryCode": "RU", "countryId": "2017370"}, {"fcl": "P", "countryName": "Russia", "adminCode1": "85", "fcodeName": "abandoned populated place", "adminName1": "Vologda", "lng": "39.5624", "name": "Krasnoye", "toponymName": "Krasnoye", "lat": "59.1066", "fclName": "city, village,...", "geonameId": 7495309, "fcode": "PPLQ", "population": 0, "countryCode": "RU", "countryId": "2017370"}, {"fcl": "P", "countryName": "Russia", "adminCode1": "83", "fcodeName": "populated place", "adminName1": "Vladimir", "lng": "39.67567", "name": "Krasnoye", "toponymName": "Krasnoye", "lat": "56.52771", "fclName": "city, village,...", "geonameId": 542002, "fcode": "PPL", "population": 0, "countryCode": "RU", "countryId": "2017370"}, {"fcl": "P", "countryName": "Russia", "adminCode1": "88", "fcodeName": "populated place", "adminName1": "Jaroslavl", "lng": "39.792", "name": "Krasnoye", "toponymName": "Krasnoye", "lat": "57.78803", "fclName": "city, village,...", "geonameId": 7079464, "fcode": "PPL", "population": 0, "countryCode": "RU", "countryId": "2017370"}, {"fcl": "P", "countryName": "Russia", "adminCode1": "83", "fcodeName": "populated place", "adminName1": "Vladimir", "lng": "40.70522", "name": "Krasnoye Ekho", "toponymName": "Krasnoye Ekho", "lat": "55.79389", "fclName": "city, village,...", "geonameId": 542037, "fcode": "PPL", "population": 0, "countryCode": "RU", "countryId": "2017370"}, {"fcl": "P", "countryName": "Russia", "adminCode1": "51", "fcodeName": "populated place", "adminName1": "Nizjnij Novgorod", "lng": "42.7415", "name": "Krasnoye Solntse", "toponymName": "Krasnoye Solntse", "lat": "55.0891", "fclName": "city, village,...", "geonameId": 541996, "fcode": "PPL", "population": 0, "countryCode": "RU", "countryId": "2017370"}, {"fcl": "P", "countryName": "Russia", "adminCode1": "62", "fcodeName": "populated place", "adminName1": "Rjazan", "lng": "41.05357", "name": "Krasnoye Shirino", "toponymName": "Krasnoye Shirino", "lat": "54.0692", "fclName": "city, village,...", "geonameId": 541997, "fcode": "PPL", "population": 0, "countryCode": "RU", "countryId": "2017370"}, {"fcl": "P", "countryName": "Russia", "adminCode1": "62", "fcodeName": "populated place", "adminName1": "Rjazan", "lng": "41.65209", "name": "Krasnoye Ozero", "toponymName": "Krasnoye Ozero", "lat": "54.33247", "fclName": "city, village,...", "geonameId": 542022, "fcode": "PPL", "population": 0, "countryCode": "RU", "countryId": "2017370"}, {"fcl": "P", "countryName": "Russia", "adminCode1": "62", "fcodeName": "populated place", "adminName1": "Rjazan", "lng": "38.73356", "name": "Krasnoye Gorodishche", "toponymName": "Krasnoye Gorodishche", "lat": "54.06966", "fclName": "city, village,...", "geonameId": 542035, "fcode": "PPL", "population": 0, "countryCode": "RU", "countryId": "2017370"}, {"fcl": "P", "countryName": "Russia", "adminCode1": "37", "fcodeName": "populated place", "adminName1": "Kostroma", "lng": "41.05", "name": "Krasnoye Sumarokovo", "toponymName": "Krasnoye Sumarokovo", "lat": "57.46201", "fclName": "city, village,...", "geonameId": 6283279, "fcode": "PPL", "population": 0, "countryCode": "RU", "countryId": "2017370"}, {"fcl": "P", "countryName": "Russia", "adminCode1": "83", "fcodeName": "populated place", "adminName1": "Vladimir", "lng": "39.87087", "name": "Krasnoye Zarech\u2019ye", "toponymName": "Krasnoye Zarech\u2019ye", "lat": "56.32731", "fclName": "city, village,...", "geonameId": 541985, "fcode": "PPL", "population": 0, "countryCode": "RU", "countryId": "2017370"}, {"fcl": "P", "countryName": "Russia", "adminCode1": "47", "fcodeName": "section of populated place", "adminName1": "Moskovskaya", "lng": "37.6", "name": "Turbaza Krasnyy Mayak", "toponymName": "Turbaza Krasnyy Mayak", "lat": "55.61667", "fclName": "city, village,...", "geonameId": 542044, "fcode": "PPLX", "population": 0, "countryCode": "RU", "countryId": "2017370"}, {"fcl": "P", "countryName": "Russia", "adminCode1": "46", "fcodeName": "populated place", "adminName1": "Mordoviya", "lng": "44.87761", "name": "Krasnoye Sel\u2019tso", "toponymName": "Krasnoye Sel\u2019tso", "lat": "54.03226", "fclName": "city, village,...", "geonameId": 6846006, "fcode": "PPL", "population": 0, "countryCode": "RU", "countryId": "2017370"}, {"fcl": "P", "countryName": "Russia", "adminCode1": "83", "fcodeName": "section of populated place", "adminName1": "Vladimir", "lng": "40.44834", "name": "Krasnoye Selo", "toponymName": "Krasnoye Selo", "lat": "56.16976", "fclName": "city, village,...", "geonameId": 542076, "fcode": "PPLX", "population": 0, "countryCode": "RU", "countryId": "2017370"}, {"fcl": "P", "countryName": "Russia", "adminCode1": "76", "fcodeName": "populated place", "adminName1": "Tula", "lng": "38.2254", "name": "Krasnoye Gremyachevo", "toponymName": "Krasnoye Gremyachevo", "lat": "54.0338", "fclName": "city, village,...", "geonameId": 7690500, "fcode": "PPL", "population": 0, "countryCode": "RU", "countryId": "2017370"}, {"fcl": "P", "countryName": "Russia", "adminCode1": "83", "fcodeName": "populated place", "adminName1": "Vladimir", "lng": "40.40311", "name": "Krasnoye Sushchevo", "toponymName": "Krasnoye Sushchevo", "lat": "56.18447", "fclName": "city, village,...", "geonameId": 7042477, "fcode": "PPL", "population": 0, "countryCode": "RU", "countryId": "2017370"}, {"fcl": "P", "countryName": "Russia", "adminCode1": "83", "fcodeName": "populated place", "adminName1": "Vladimir", "lng": "40.44084", "name": "Sem\u00ebnovskoye-Krasnoye", "toponymName": "Sem\u00ebnovskoye-Krasnoye", "lat": "56.33626", "fclName": "city, village,...", "geonameId": 7042550, "fcode": "PPL", "population": 0, "countryCode": "RU", "countryId": "2017370"}, {"fcl": "P", "countryName": "Russia", "adminCode1": "62", "fcodeName": "populated place", "adminName1": "Rjazan", "lng": "39.2398", "name": "Pos\u00eblok Sanatoriya Krasnoye", "toponymName": "Pos\u00eblok Sanatoriya Krasnoye", "lat": "54.1562", "fclName": "city, village,...", "geonameId": 8535569, "fcode": "PPL", "population": 0, "countryCode": "RU", "countryId": "2017370"}, {"fcl": "P", "countryName": "Russia", "adminCode1": "51", "fcodeName": "abandoned populated place", "adminName1": "Nizjnij Novgorod", "lng": "42.2444", "name": "Krasnoye Pyatovo", "toponymName": "Krasnoye Pyatovo", "lat": "55.0898", "fclName": "city, village,...", "geonameId": 7751114, "fcode": "PPLQ", "population": 0, "countryCode": "RU", "countryId": "2017370"}], "totalResultsCount": 47, "url": "http://api.geonames.org/search?north=61.766667&west=36.933333&south=53.766667&name=%D0%9A%D1%80%D0%B0%D1%81%D0%BD%D0%BE%D0%B5&username=jaguillette&east=44.933333&featureClass=P&type=json"}