{"totalResultsCount":110,"geonames":[{"countryId":"2017370","adminCode1":"43","countryName":"Russia","fclName":"city, village,...","countryCode":"RU","lng":"38.79353","fcodeName":"populated place","toponymName":"Krasnoye","fcl":"P","name":"Krasnoye","fcode":"PPL","geonameId":542109,"lat":"52.86449","adminName1":"Lipetsk","population":4021},{"countryId":"2017370","adminCode1":"85","countryName":"Russia","fclName":"city, village,...","countryCode":"RU","lng":"36.9714","fcodeName":"populated place","toponymName":"Krasnoye","fcl":"P","name":"Krasnoye","fcode":"PPL","geonameId":542048,"lat":"59.5661","adminName1":"Vologda","population":0},{"countryId":"2017370","adminCode1":"88","countryName":"Russia","fclName":"city, village,...","countryCode":"RU","lng":"39.21324","fcodeName":"populated place","toponymName":"Krasnoye","fcl":"P","name":"Krasnoye","fcode":"PPL","geonameId":542052,"lat":"58.61926","adminName1":"Jaroslavl","population":0},{"countryId":"2017370","adminCode1":"88","countryName":"Russia","fclName":"city, village,...","countryCode":"RU","lng":"37.86545","fcodeName":"populated place","toponymName":"Krasnoye","fcl":"P","name":"Krasnoye","fcode":"PPL","geonameId":542056,"lat":"58.06667","adminName1":"Jaroslavl","population":0},{"countryId":"2017370","adminCode1":"88","countryName":"Russia","fclName":"city, village,...","countryCode":"RU","lng":"40.36183","fcodeName":"populated place","toponymName":"Krasnoye","fcl":"P","name":"Krasnoye","fcode":"PPL","geonameId":542059,"lat":"57.59095","adminName1":"Jaroslavl","population":0},{"countryId":"2017370","adminCode1":"77","countryName":"Russia","fclName":"city, village,...","countryCode":"RU","lng":"36.87889","fcodeName":"populated place","toponymName":"Krasnoye","fcl":"P","name":"Krasnoye","fcode":"PPL","geonameId":542063,"lat":"57.285","adminName1":"Tverskaya","population":0},{"countryId":"2017370","adminCode1":"21","countryName":"Russia","fclName":"city, village,...","countryCode":"RU","lng":"41.81623","fcodeName":"populated place","toponymName":"Krasnoye","fcl":"P","name":"Krasnoye","fcode":"PPL","geonameId":542066,"lat":"56.82651","adminName1":"Ivanovo","population":0},{"countryId":"2017370","adminCode1":"88","countryName":"Russia","fclName":"city, village,...","countryCode":"RU","lng":"38.89637","fcodeName":"populated place","toponymName":"Krasnoye","fcl":"P","name":"Krasnoye","fcode":"PPL","geonameId":542069,"lat":"56.703","adminName1":"Jaroslavl","population":0},{"countryId":"2017370","adminCode1":"51","countryName":"Russia","fclName":"city, village,...","countryCode":"RU","lng":"43.74428","fcodeName":"populated place","toponymName":"Krasnoye","fcl":"P","name":"Krasnoye","fcode":"PPL","geonameId":542081,"lat":"55.3959","adminName1":"Nizjnij Novgorod","population":0},{"countryId":"2017370","adminCode1":"47","countryName":"Russia","fclName":"city, village,...","countryCode":"RU","lng":"38.63613","fcodeName":"populated place","toponymName":"Krasnoye","fcl":"P","name":"Krasnoye","fcode":"PPL","geonameId":542090,"lat":"54.43223","adminName1":"Moskovskaya","population":653},{"countryId":"2017370","adminCode1":"62","countryName":"Russia","fclName":"city, village,...","countryCode":"RU","lng":"39.567","fcodeName":"populated place","toponymName":"Krasnoye","fcl":"P","name":"Krasnoye","fcode":"PPL","geonameId":542091,"lat":"54.2102","adminName1":"Rjazan","population":0},{"countryId":"2017370","adminCode1":"25","countryName":"Russia","fclName":"city, village,...","countryCode":"RU","lng":"35.54669","fcodeName":"populated place","toponymName":"Krasnoye","fcl":"P","name":"Krasnoye","fcode":"PPL","geonameId":542093,"lat":"54.09891","adminName1":"Kaluga","population":0},{"countryId":"2017370","adminCode1":"62","countryName":"Russia","fclName":"city, village,...","countryCode":"RU","lng":"40.87722","fcodeName":"populated place","toponymName":"Krasnoye","fcl":"P","name":"Krasnoye","fcode":"PPL","geonameId":542094,"lat":"53.98556","adminName1":"Rjazan","population":0},{"countryId":"2017370","adminCode1":"25","countryName":"Russia","fclName":"city, village,...","countryCode":"RU","lng":"35.16698","fcodeName":"populated place","toponymName":"Krasnoye","fcl":"P","name":"Krasnoye","fcode":"PPL","geonameId":542104,"lat":"53.44825","adminName1":"Kaluga","population":0},{"countryId":"2017370","adminCode1":"85","countryName":"Russia","fclName":"city, village,...","countryCode":"RU","lng":"37.21667","fcodeName":"populated place","toponymName":"Krasnoye","fcl":"P","name":"Krasnoye","fcode":"PPL","geonameId":542049,"lat":"59.51667","adminName1":"Vologda","population":0},{"countryId":"2017370","adminCode1":"77","countryName":"Russia","fclName":"city, village,...","countryCode":"RU","lng":"36.60282","fcodeName":"populated place","toponymName":"Krasnoye","fcl":"P","name":"Krasnoye","fcode":"PPL","geonameId":542053,"lat":"58.61667","adminName1":"Tverskaya","population":0},{"countryId":"2017370","adminCode1":"77","countryName":"Russia","fclName":"city, village,...","countryCode":"RU","lng":"35.03333","fcodeName":"populated place","toponymName":"Krasnoye","fcl":"P","name":"Krasnoye","fcode":"PPL","geonameId":542057,"lat":"58.05","adminName1":"Tverskaya","population":0},{"countryId":"2017370","adminCode1":"88","countryName":"Russia","fclName":"city, village,...","countryCode":"RU","lng":"39.1","fcodeName":"populated place","toponymName":"Krasnoye","fcl":"P","name":"Krasnoye","fcode":"PPL","geonameId":542058,"lat":"58.03333","adminName1":"Jaroslavl","population":0},{"countryId":"2017370","adminCode1":"77","countryName":"Russia","fclName":"city, village,...","countryCode":"RU","lng":"35.94687","fcodeName":"populated place","toponymName":"Krasnoye","fcl":"P","name":"Krasnoye","fcode":"PPL","geonameId":542062,"lat":"57.39222","adminName1":"Tverskaya","population":0},{"countryId":"2017370","adminCode1":"21","countryName":"Russia","fclName":"city, village,...","countryCode":"RU","lng":"41.66428","fcodeName":"populated place","toponymName":"Krasnoye","fcl":"P","name":"Krasnoye","fcode":"PPL","geonameId":542064,"lat":"57.19766","adminName1":"Ivanovo","population":0},{"countryId":"2017370","adminCode1":"21","countryName":"Russia","fclName":"city, village,...","countryCode":"RU","lng":"41.15882","fcodeName":"populated place","toponymName":"Krasnoye","fcl":"P","name":"Krasnoye","fcode":"PPL","geonameId":542065,"lat":"57.06474","adminName1":"Ivanovo","population":0},{"countryId":"2017370","adminCode1":"83","countryName":"Russia","fclName":"city, village,...","countryCode":"RU","lng":"40.50124","fcodeName":"populated place","toponymName":"Krasnoye","fcl":"P","name":"Krasnoye","fcode":"PPL","geonameId":542073,"lat":"56.43467","adminName1":"Vladimir","population":0},{"countryId":"2017370","adminCode1":"83","countryName":"Russia","fclName":"city, village,...","countryCode":"RU","lng":"42.7","fcodeName":"populated place","toponymName":"Krasnoye","fcl":"P","name":"Krasnoye","fcode":"PPL","geonameId":542075,"lat":"56.2","adminName1":"Vladimir","population":0},{"countryId":"2017370","adminCode1":"47","countryName":"Russia","fclName":"city, village,...","countryCode":"RU","lng":"39.4","fcodeName":"populated place","toponymName":"Krasnoye","fcl":"P","name":"Krasnoye","fcode":"PPL","geonameId":542078,"lat":"55.6","adminName1":"Moskovskaya","population":0},{"countryId":"2017370","adminCode1":"47","countryName":"Russia","fclName":"city, village,...","countryCode":"RU","lng":"37.28395","fcodeName":"populated place","toponymName":"Krasnoye","fcl":"P","name":"Krasnoye","fcode":"PPL","geonameId":542080,"lat":"55.42646","adminName1":"Moskovskaya","population":0},{"countryId":"2017370","adminCode1":"51","countryName":"Russia","fclName":"city, village,...","countryCode":"RU","lng":"45.97793","fcodeName":"populated place","toponymName":"Krasnoye","fcl":"P","name":"Krasnoye","fcode":"PPL","geonameId":542082,"lat":"55.2911","adminName1":"Nizjnij Novgorod","population":0},{"countryId":"2017370","adminCode1":"62","countryName":"Russia","fclName":"city, village,...","countryCode":"RU","lng":"39.1984","fcodeName":"populated place","toponymName":"Krasnoye","fcl":"P","name":"Krasnoye","fcode":"PPL","geonameId":542092,"lat":"54.1714","adminName1":"Rjazan","population":0},{"countryId":"2017370","adminCode1":"76","countryName":"Russia","fclName":"city, village,...","countryCode":"RU","lng":"37.27156","fcodeName":"populated place","toponymName":"Krasnoye","fcl":"P","name":"Krasnoye","fcode":"PPL","geonameId":542096,"lat":"53.79453","adminName1":"Tula","population":0},{"countryId":"2017370","adminCode1":"76","countryName":"Russia","fclName":"city, village,...","countryCode":"RU","lng":"38.78138","fcodeName":"populated place","toponymName":"Krasnoye","fcl":"P","name":"Krasnoye","fcode":"PPL","geonameId":542098,"lat":"53.72504","adminName1":"Tula","population":0},{"countryId":"2017370","adminCode1":"76","countryName":"Russia","fclName":"city, village,...","countryCode":"RU","lng":"37.33732","fcodeName":"populated place","toponymName":"Krasnoye","fcl":"P","name":"Krasnoye","fcode":"PPL","geonameId":542100,"lat":"53.59457","adminName1":"Tula","population":0},{"countryId":"2017370","adminCode1":"76","countryName":"Russia","fclName":"city, village,...","countryCode":"RU","lng":"37.85517","fcodeName":"populated place","toponymName":"Krasnoye","fcl":"P","name":"Krasnoye","fcode":"PPL","geonameId":542105,"lat":"53.36874","adminName1":"Tula","population":0},{"countryId":"2017370","adminCode1":"56","countryName":"Russia","fclName":"city, village,...","countryCode":"RU","lng":"37.45833","fcodeName":"populated place","toponymName":"Krasnoye","fcl":"P","name":"Krasnoye","fcode":"PPL","geonameId":542108,"lat":"53.0315","adminName1":"Orjol","population":0},{"countryId":"2017370","adminCode1":"56","countryName":"Russia","fclName":"city, village,...","countryCode":"RU","lng":"37.23845","fcodeName":"populated place","toponymName":"Krasnoye","fcl":"P","name":"Krasnoye","fcode":"PPL","geonameId":542111,"lat":"52.62685","adminName1":"Orjol","population":0},{"countryId":"2017370","adminCode1":"43","countryName":"Russia","fclName":"city, village,...","countryCode":"RU","lng":"39.78133","fcodeName":"populated place","toponymName":"Krasnoye","fcl":"P","name":"Krasnoye","fcode":"PPL","geonameId":542115,"lat":"52.11795","adminName1":"Lipetsk","population":0},{"countryId":"2017370","adminCode1":"77","countryName":"Russia","fclName":"city, village,...","countryCode":"RU","lng":"34.991","fcodeName":"populated place","toponymName":"Krasnoye","fcl":"P","name":"Krasnoye","fcode":"PPL","geonameId":453141,"lat":"57.56082","adminName1":"Tverskaya","population":0},{"countryId":"2017370","adminCode1":"85","countryName":"Russia","fclName":"city, village,...","countryCode":"RU","lng":"40.80556","fcodeName":"populated place","toponymName":"Krasnoye","fcl":"P","name":"Krasnoye","fcode":"PPL","geonameId":6313574,"lat":"58.90499","adminName1":"Vologda","population":0},{"countryId":"2017370","adminCode1":"77","countryName":"Russia","fclName":"city, village,...","countryCode":"RU","lng":"35.41222","fcodeName":"populated place","toponymName":"Krasnoye","fcl":"P","name":"Krasnoye","fcode":"PPL","geonameId":857545,"lat":"57.83611","adminName1":"Tverskaya","population":0},{"countryId":"2017370","adminCode1":"76","countryName":"Russia","fclName":"city, village,...","countryCode":"RU","lng":"36.69161","fcodeName":"populated place","toponymName":"Krasnoye","fcl":"P","name":"Krasnoye","fcode":"PPL","geonameId":823615,"lat":"53.96757","adminName1":"Tula","population":0},{"countryId":"2017370","adminCode1":"25","countryName":"Russia","fclName":"city, village,...","countryCode":"RU","lng":"36.45917","fcodeName":"populated place","toponymName":"Krasnoye","fcl":"P","name":"Krasnoye","fcode":"PPL","geonameId":816236,"lat":"55.20972","adminName1":"Kaluga","population":0},{"countryId":"2017370","adminCode1":"43","countryName":"Russia","fclName":"city, village,...","countryCode":"RU","lng":"39.1629","fcodeName":"populated place","toponymName":"Krasnoye","fcl":"P","name":"Krasnoye","fcode":"PPL","geonameId":7452165,"lat":"52.7295","adminName1":"Lipetsk","population":0},{"countryId":"2017370","adminCode1":"85","countryName":"Russia","fclName":"city, village,...","countryCode":"RU","lng":"38.38246","fcodeName":"populated place","toponymName":"Krasnoye","fcl":"P","name":"Krasnoye","fcode":"PPL","geonameId":7494286,"lat":"59.16936","adminName1":"Vologda","population":0},{"countryId":"2017370","adminCode1":"88","countryName":"Russia","fclName":"city, village,...","countryCode":"RU","lng":"38.2808","fcodeName":"populated place","toponymName":"Krasnoye","fcl":"P","name":"Krasnoye","fcode":"PPL","geonameId":7587810,"lat":"57.5492","adminName1":"Jaroslavl","population":0},{"countryId":"2017370","adminCode1":"37","countryName":"Russia","fclName":"city, village,...","countryCode":"RU","lng":"41.239","fcodeName":"populated place","toponymName":"Krasnoye-na-Volge","fcl":"P","name":"Krasnoye-na-Volge","fcode":"PPL","geonameId":542024,"lat":"57.51483","adminName1":"Kostroma","population":7953},{"countryId":"2017370","adminCode1":"56","countryName":"Russia","fclName":"city, village,...","countryCode":"RU","lng":"36.84166","fcodeName":"populated place","toponymName":"Krasnoye","fcl":"P","name":"Krasnoye","fcode":"PPL","geonameId":542021,"lat":"52.25104","adminName1":"Orjol","population":0},{"countryId":"2017370","adminCode1":"43","countryName":"Russia","fclName":"city, village,...","countryCode":"RU","lng":"38.31008","fcodeName":"populated place","toponymName":"Krasnoye","fcl":"P","name":"Krasnoye","fcode":"PPL","geonameId":510791,"lat":"52.36712","adminName1":"Lipetsk","population":0},{"countryId":"2017370","adminCode1":"85","countryName":"Russia","fclName":"city, village,...","countryCode":"RU","lng":"42.23756","fcodeName":"populated place","toponymName":"Krasnoye","fcl":"P","name":"Krasnoye","fcode":"PPL","geonameId":497626,"lat":"59.64329","adminName1":"Vologda","population":0},{"countryId":"2017370","adminCode1":"76","countryName":"Russia","fclName":"city, village,...","countryCode":"RU","lng":"37.41781","fcodeName":"populated place","toponymName":"Krasnoye","fcl":"P","name":"Krasnoye","fcode":"PPL","geonameId":542106,"lat":"53.31832","adminName1":"Tula","population":0},{"countryId":"2017370","adminCode1":"56","countryName":"Russia","fclName":"city, village,...","countryCode":"RU","lng":"36.73333","fcodeName":"populated place","toponymName":"Krasnoye","fcl":"P","name":"Krasnoye","fcode":"PPL","geonameId":542110,"lat":"52.83333","adminName1":"Orjol","population":0},{"countryId":"2017370","adminCode1":"56","countryName":"Russia","fclName":"city, village,...","countryCode":"RU","lng":"36.73378","fcodeName":"populated place","toponymName":"Krasnoye","fcl":"P","name":"Krasnoye","fcode":"PPL","geonameId":542017,"lat":"52.82734","adminName1":"Orjol","population":0},{"countryId":"2017370","adminCode1":"88","countryName":"Russia","fclName":"city, village,...","countryCode":"RU","lng":"38.13333","fcodeName":"populated place","toponymName":"Krasnoye","fcl":"P","name":"Krasnoye","fcode":"PPL","geonameId":542061,"lat":"57.38333","adminName1":"Jaroslavl","population":0},{"countryId":"2017370","adminCode1":"62","countryName":"Russia","fclName":"city, village,...","countryCode":"RU","lng":"38.82577","fcodeName":"populated place","toponymName":"Krasnoye","fcl":"P","name":"Krasnoye","fcode":"PPL","geonameId":542095,"lat":"53.93967","adminName1":"Rjazan","population":0},{"countryId":"2017370","adminCode1":"76","countryName":"Russia","fclName":"city, village,...","countryCode":"RU","lng":"36.75044","fcodeName":"populated place","toponymName":"Krasnoye","fcl":"P","name":"Krasnoye","fcode":"PPL","geonameId":542099,"lat":"53.66624","adminName1":"Tula","population":0},{"countryId":"2017370","adminCode1":"62","countryName":"Russia","fclName":"city, village,...","countryCode":"RU","lng":"40.37694","fcodeName":"populated place","toponymName":"Krasnoye","fcl":"P","name":"Krasnoye","fcode":"PPL","geonameId":542101,"lat":"53.58667","adminName1":"Rjazan","population":0},{"countryId":"2017370","adminCode1":"51","countryName":"Russia","fclName":"city, village,...","countryCode":"RU","lng":"43.38586","fcodeName":"populated place","toponymName":"Krasnoye","fcl":"P","name":"Krasnoye","fcode":"PPL","geonameId":542827,"lat":"55.80645","adminName1":"Nizjnij Novgorod","population":0},{"countryId":"2017370","adminCode1":"43","countryName":"Russia","fclName":"city, village,...","countryCode":"RU","lng":"38.7296","fcodeName":"populated place","toponymName":"Krasnoye","fcl":"P","name":"Krasnoye","fcode":"PPL","geonameId":820352,"lat":"53.22321","adminName1":"Lipetsk","population":0},{"countryId":"2017370","adminCode1":"77","countryName":"Russia","fclName":"city, village,...","countryCode":"RU","lng":"36.58194","fcodeName":"populated place","toponymName":"Krasnoye Ramen’ye","fcl":"P","name":"Krasnoye Ramen'ye","fcode":"PPL","geonameId":542011,"lat":"57.53972","adminName1":"Tverskaya","population":0},{"countryId":"2017370","adminCode1":"76","countryName":"Russia","fclName":"city, village,...","countryCode":"RU","lng":"36.91186","fcodeName":"populated place","toponymName":"Krasnoye","fcl":"P","name":"Krasnoye","fcode":"PPL","geonameId":542089,"lat":"54.46066","adminName1":"Tula","population":0},{"countryId":"2017370","adminCode1":"85","countryName":"Russia","fclName":"city, village,...","countryCode":"RU","lng":"43.22215","fcodeName":"populated place","toponymName":"Krasnoye","fcl":"P","name":"Krasnoye","fcode":"PPL","geonameId":542047,"lat":"60.51228","adminName1":"Vologda","population":0},{"countryId":"2017370","adminCode1":"83","countryName":"Russia","fclName":"city, village,...","countryCode":"RU","lng":"39.67567","fcodeName":"populated place","toponymName":"Krasnoye","fcl":"P","name":"Krasnoye","fcode":"PPL","geonameId":542002,"lat":"56.52771","adminName1":"Vladimir","population":0},{"countryId":"2017370","adminCode1":"57","countryName":"Russia","fclName":"city, village,...","countryCode":"RU","lng":"45.86735","fcodeName":"populated place","toponymName":"Krasnoye","fcl":"P","name":"Krasnoye","fcode":"PPL","geonameId":542097,"lat":"53.73943","adminName1":"Penza","population":0},{"countryId":"2017370","adminCode1":"88","countryName":"Russia","fclName":"city, village,...","countryCode":"RU","lng":"39.792","fcodeName":"populated place","toponymName":"Krasnoye","fcl":"P","name":"Krasnoye","fcode":"PPL","geonameId":7079464,"lat":"57.78803","adminName1":"Jaroslavl","population":0},{"countryId":"2017370","adminCode1":"56","countryName":"Russia","fclName":"city, village,...","countryCode":"RU","lng":"37.11058","fcodeName":"populated place","toponymName":"Krasnoye Zarech’ye","fcl":"P","name":"Krasnoye Zarech’ye","fcode":"PPL","geonameId":541986,"lat":"52.97919","adminName1":"Orjol","population":0},{"countryId":"2017370","adminCode1":"52","countryName":"Russia","fclName":"city, village,...","countryCode":"RU","lng":"34.93333","fcodeName":"populated place","toponymName":"Krasnoye Ramen’ye","fcl":"P","name":"Krasnoye Ramen’ye","fcode":"PPL","geonameId":542008,"lat":"58.86667","adminName1":"Novgorod","population":0},{"countryId":"2017370","adminCode1":"52","countryName":"Russia","fclName":"city, village,...","countryCode":"RU","lng":"35.95","fcodeName":"populated place","toponymName":"Krasnoye Ramen’ye","fcl":"P","name":"Krasnoye Ramen’ye","fcode":"PPL","geonameId":542009,"lat":"58.56667","adminName1":"Novgorod","population":0},{"countryId":"2017370","adminCode1":"46","countryName":"Russia","fclName":"city, village,...","countryCode":"RU","lng":"46.5139","fcodeName":"populated place","toponymName":"Krasnoye Pol’tso","fcl":"P","name":"Krasnoye Pol’tso","fcode":"PPL","geonameId":7596571,"lat":"54.4135","adminName1":"Mordoviya","population":0},{"countryId":"2017370","adminCode1":"77","countryName":"Russia","fclName":"city, village,...","countryCode":"RU","lng":"35.21397","fcodeName":"populated place","toponymName":"Krasnoye Znamya","fcl":"P","name":"Krasnoye Znamya","fcode":"PPL","geonameId":541961,"lat":"57.42931","adminName1":"Tverskaya","population":0},{"countryId":"2017370","adminCode1":"62","countryName":"Russia","fclName":"city, village,...","countryCode":"RU","lng":"40.045","fcodeName":"populated place","toponymName":"Krasnoye Znamya","fcl":"P","name":"Krasnoye Znamya","fcode":"PPL","geonameId":541965,"lat":"53.4826","adminName1":"Rjazan","population":0},{"countryId":"2017370","adminCode1":"47","countryName":"Russia","fclName":"city, village,...","countryCode":"RU","lng":"35.51858","fcodeName":"populated place","toponymName":"Krasnoye Selo","fcl":"P","name":"Krasnoye Selo","fcode":"PPL","geonameId":542003,"lat":"55.9329","adminName1":"Moskovskaya","population":0},{"countryId":"2017370","adminCode1":"47","countryName":"Russia","fclName":"city, village,...","countryCode":"RU","lng":"35.76722","fcodeName":"populated place","toponymName":"Krasnoye Insheno","fcl":"P","name":"Krasnoye Insheno","fcode":"PPL","geonameId":542033,"lat":"55.56833","adminName1":"Moskovskaya","population":0},{"countryId":"2017370","adminCode1":"83","countryName":"Russia","fclName":"city, village,...","countryCode":"RU","lng":"40.70522","fcodeName":"populated place","toponymName":"Krasnoye Ekho","fcl":"P","name":"Krasnoye Ekho","fcode":"PPL","geonameId":542037,"lat":"55.79389","adminName1":"Vladimir","population":0},{"countryId":"2017370","adminCode1":"41","countryName":"Russia","fclName":"city, village,...","countryCode":"RU","lng":"36.61556","fcodeName":"populated place","toponymName":"Nizhne-Krasnoye","fcl":"P","name":"Nizhne-Krasnoye","fcode":"PPL","geonameId":521105,"lat":"51.96262","adminName1":"Kursk","population":0},{"countryId":"2017370","adminCode1":"43","countryName":"Russia","fclName":"city, village,...","countryCode":"RU","lng":"40.0723","fcodeName":"populated place","toponymName":"Krasnoye Znamya","fcl":"P","name":"Krasnoye Znamya","fcode":"PPL","geonameId":541967,"lat":"52.3071","adminName1":"Lipetsk","population":0},{"countryId":"2017370","adminCode1":"72","countryName":"Russia","fclName":"city, village,...","countryCode":"RU","lng":"41.3525","fcodeName":"populated place","toponymName":"Krasnoye Znamya","fcl":"P","name":"Krasnoye Znamya","fcode":"PPL","geonameId":541968,"lat":"52.16111","adminName1":"Tambov","population":0},{"countryId":"2017370","adminCode1":"72","countryName":"Russia","fclName":"city, village,...","countryCode":"RU","lng":"42.37963","fcodeName":"populated place","toponymName":"Krasnoye Znamya","fcl":"P","name":"Krasnoye Znamya","fcode":"PPL","geonameId":541970,"lat":"52.08498","adminName1":"Tambov","population":0},{"countryId":"2017370","adminCode1":"67","countryName":"Russia","fclName":"city, village,...","countryCode":"RU","lng":"43.53609","fcodeName":"populated place","toponymName":"Krasnoye Znamya","fcl":"P","name":"Krasnoye Znamya","fcode":"PPL","geonameId":541971,"lat":"52.05918","adminName1":"Saratov","population":0},{"countryId":"2017370","adminCode1":"25","countryName":"Russia","fclName":"city, village,...","countryCode":"RU","lng":"35.51667","fcodeName":"populated place","toponymName":"Krasnoye Utro","fcl":"P","name":"Krasnoye Utro","fcode":"PPL","geonameId":541991,"lat":"54.66667","adminName1":"Kaluga","population":0},{"countryId":"2017370","adminCode1":"43","countryName":"Russia","fclName":"city, village,...","countryCode":"RU","lng":"38.30008","fcodeName":"populated place","toponymName":"Krasnoye Utro","fcl":"P","name":"Krasnoye Utro","fcode":"PPL","geonameId":541992,"lat":"52.43144","adminName1":"Lipetsk","population":0},{"countryId":"2017370","adminCode1":"76","countryName":"Russia","fclName":"city, village,...","countryCode":"RU","lng":"36.73273","fcodeName":"populated place","toponymName":"Krasnoye Turgenevo","fcl":"P","name":"Krasnoye Turgenevo","fcode":"PPL","geonameId":541993,"lat":"53.4725","adminName1":"Tula","population":0},{"countryId":"2017370","adminCode1":"51","countryName":"Russia","fclName":"city, village,...","countryCode":"RU","lng":"42.7415","fcodeName":"populated place","toponymName":"Krasnoye Solntse","fcl":"P","name":"Krasnoye Solntse","fcode":"PPL","geonameId":541996,"lat":"55.0891","adminName1":"Nizjnij Novgorod","population":0},{"countryId":"2017370","adminCode1":"62","countryName":"Russia","fclName":"city, village,...","countryCode":"RU","lng":"41.05357","fcodeName":"populated place","toponymName":"Krasnoye Shirino","fcl":"P","name":"Krasnoye Shirino","fcode":"PPL","geonameId":541997,"lat":"54.0692","adminName1":"Rjazan","population":0},{"countryId":"2017370","adminCode1":"06","countryName":"Russia","fclName":"city, village,...","countryCode":"RU","lng":"46.65","fcodeName":"populated place","toponymName":"Krasnoye Selo","fcl":"P","name":"Krasnoye Selo","fcode":"PPL","geonameId":541999,"lat":"61.18333","adminName1":"Arkhangelskaya","population":0},{"countryId":"2017370","adminCode1":"56","countryName":"Russia","fclName":"city, village,...","countryCode":"RU","lng":"37.23333","fcodeName":"populated place","toponymName":"Krasnoye Rossoshnoye","fcl":"P","name":"Krasnoye Rossoshnoye","fcode":"PPL","geonameId":542007,"lat":"52.98333","adminName1":"Orjol","population":0},{"countryId":"2017370","adminCode1":"57","countryName":"Russia","fclName":"city, village,...","countryCode":"RU","lng":"46.29386","fcodeName":"populated place","toponymName":"Krasnoye Pole","fcl":"P","name":"Krasnoye Pole","fcode":"PPL","geonameId":542016,"lat":"52.83591","adminName1":"Penza","population":0},{"countryId":"2017370","adminCode1":"67","countryName":"Russia","fclName":"city, village,...","countryCode":"RU","lng":"46.34504","fcodeName":"populated place","toponymName":"Krasnoye Pole","fcl":"P","name":"Krasnoye Pole","fcode":"PPL","geonameId":542018,"lat":"52.64331","adminName1":"Saratov","population":0},{"countryId":"2017370","adminCode1":"62","countryName":"Russia","fclName":"city, village,...","countryCode":"RU","lng":"41.65209","fcodeName":"populated place","toponymName":"Krasnoye Ozero","fcl":"P","name":"Krasnoye Ozero","fcode":"PPL","geonameId":542022,"lat":"54.33247","adminName1":"Rjazan","population":0},{"countryId":"2017370","adminCode1":"56","countryName":"Russia","fclName":"city, village,...","countryCode":"RU","lng":"37.17722","fcodeName":"populated place","toponymName":"Krasnoye Korsakovo","fcl":"P","name":"Krasnoye Korsakovo","fcode":"PPL","geonameId":542027,"lat":"53.17306","adminName1":"Orjol","population":0},{"countryId":"2017370","adminCode1":"43","countryName":"Russia","fclName":"city, village,...","countryCode":"RU","lng":"39.47528","fcodeName":"populated place","toponymName":"Krasnoye Kolychevo","fcl":"P","name":"Krasnoye Kolychevo","fcode":"PPL","geonameId":542028,"lat":"53.14005","adminName1":"Lipetsk","population":0},{"countryId":"2017370","adminCode1":"67","countryName":"Russia","fclName":"city, village,...","countryCode":"RU","lng":"42.78554","fcodeName":"populated place","toponymName":"Krasnoye Koleno","fcl":"P","name":"Krasnoye Koleno","fcode":"PPL","geonameId":542029,"lat":"52.1811","adminName1":"Saratov","population":0},{"countryId":"2017370","adminCode1":"45","countryName":"Russia","fclName":"city, village,...","countryCode":"RU","lng":"46.35935","fcodeName":"populated place","toponymName":"Krasnoye Ivanovo","fcl":"P","name":"Krasnoye Ivanovo","fcode":"PPL","geonameId":542032,"lat":"56.50222","adminName1":"Mariy-El","population":0},{"countryId":"2017370","adminCode1":"62","countryName":"Russia","fclName":"city, village,...","countryCode":"RU","lng":"38.73356","fcodeName":"populated place","toponymName":"Krasnoye Gorodishche","fcl":"P","name":"Krasnoye Gorodishche","fcode":"PPL","geonameId":542035,"lat":"54.06966","adminName1":"Rjazan","population":0},{"countryId":"2017370","adminCode1":"56","countryName":"Russia","fclName":"city, village,...","countryCode":"RU","lng":"36.6937","fcodeName":"populated place","toponymName":"Krasnoye Znamya","fcl":"P","name":"Krasnoye Znamya","fcode":"PPL","geonameId":542562,"lat":"52.75072","adminName1":"Orjol","population":0},{"countryId":"2017370","adminCode1":"37","countryName":"Russia","fclName":"city, village,...","countryCode":"RU","lng":"41.05","fcodeName":"populated place","toponymName":"Krasnoye Sumarokovo","fcl":"P","name":"Krasnoye Sumarokovo","fcode":"PPL","geonameId":6283279,"lat":"57.46201","adminName1":"Kostroma","population":0},{"countryId":"2017370","adminCode1":"56","countryName":"Russia","fclName":"city, village,...","countryCode":"RU","lng":"35.5325","fcodeName":"populated place","toponymName":"Krasnoye Solntse","fcl":"P","name":"Krasnoye Solntse","fcode":"PPL","geonameId":818080,"lat":"52.89167","adminName1":"Orjol","population":0},{"countryId":"2017370","adminCode1":"56","countryName":"Russia","fclName":"city, village,...","countryCode":"RU","lng":"35.2834","fcodeName":"populated place","toponymName":"Krasnoye Znamya","fcl":"P","name":"Krasnoye Znamya","fcode":"PPL","geonameId":818557,"lat":"52.6236","adminName1":"Orjol","population":0},{"countryId":"2017370","adminCode1":"76","countryName":"Russia","fclName":"city, village,...","countryCode":"RU","lng":"37.29234","fcodeName":"populated place","toponymName":"Krasnoye Ozero","fcl":"P","name":"Krasnoye Ozero","fcode":"PPL","geonameId":821831,"lat":"53.32668","adminName1":"Tula","population":0},{"countryId":"2017370","adminCode1":"76","countryName":"Russia","fclName":"city, village,...","countryCode":"RU","lng":"37.4175","fcodeName":"populated place","toponymName":"Krasnoye Utro","fcl":"P","name":"Krasnoye Utro","fcode":"PPL","geonameId":821903,"lat":"53.34278","adminName1":"Tula","population":0},{"countryId":"2017370","adminCode1":"56","countryName":"Russia","fclName":"city, village,...","countryCode":"RU","lng":"35.34417","fcodeName":"populated place","toponymName":"Krasnoye Ozero","fcl":"P","name":"Krasnoye Ozero","fcode":"PPL","geonameId":815130,"lat":"53.12972","adminName1":"Orjol","population":0},{"countryId":"2017370","adminCode1":"56","countryName":"Russia","fclName":"city, village,...","countryCode":"RU","lng":"35.77966","fcodeName":"populated place","toponymName":"Krasnoye Znamya","fcl":"P","name":"Krasnoye Znamya","fcode":"PPL","geonameId":816522,"lat":"53.25781","adminName1":"Orjol","population":0},{"countryId":"2017370","adminCode1":"45","countryName":"Russia","fclName":"city, village,...","countryCode":"RU","lng":"46.1275","fcodeName":"populated place","toponymName":"Krasnoye Selishche","fcl":"P","name":"Krasnoye Selishche","fcode":"PPL","geonameId":7604843,"lat":"56.0706","adminName1":"Mariy-El","population":0},{"countryId":"2017370","adminCode1":"77","countryName":"Russia","fclName":"city, village,...","countryCode":"RU","lng":"36.7177","fcodeName":"populated place","toponymName":"Krasnoye Urochishche","fcl":"P","name":"Krasnoye Urochishche","fcode":"PPL","geonameId":7606517,"lat":"57.8367","adminName1":"Tverskaya","population":0}]}