{"totalResultsCount":47,"geonames":[{"countryId":"2017370","adminCode1":"85","countryName":"Russia","fclName":"city, village,...","countryCode":"RU","lng":"36.9714","fcodeName":"populated place","toponymName":"Krasnoye","fcl":"P","name":"Krasnoye","fcode":"PPL","geonameId":542048,"lat":"59.5661","adminName1":"Vologda","population":0},{"countryId":"2017370","adminCode1":"88","countryName":"Russia","fclName":"city, village,...","countryCode":"RU","lng":"39.21324","fcodeName":"populated place","toponymName":"Krasnoye","fcl":"P","name":"Krasnoye","fcode":"PPL","geonameId":542052,"lat":"58.61926","adminName1":"Jaroslavl","population":0},{"countryId":"2017370","adminCode1":"88","countryName":"Russia","fclName":"city, village,...","countryCode":"RU","lng":"37.86545","fcodeName":"populated place","toponymName":"Krasnoye","fcl":"P","name":"Krasnoye","fcode":"PPL","geonameId":542056,"lat":"58.06667","adminName1":"Jaroslavl","population":0},{"countryId":"2017370","adminCode1":"88","countryName":"Russia","fclName":"city, village,...","countryCode":"RU","lng":"40.36183","fcodeName":"populated place","toponymName":"Krasnoye","fcl":"P","name":"Krasnoye","fcode":"PPL","geonameId":542059,"lat":"57.59095","adminName1":"Jaroslavl","population":0},{"countryId":"2017370","adminCode1":"21","countryName":"Russia","fclName":"city, village,...","countryCode":"RU","lng":"41.81623","fcodeName":"populated place","toponymName":"Krasnoye","fcl":"P","name":"Krasnoye","fcode":"PPL","geonameId":542066,"lat":"56.82651","adminName1":"Ivanovo","population":0},{"countryId":"2017370","adminCode1":"88","countryName":"Russia","fclName":"city, village,...","countryCode":"RU","lng":"38.89637","fcodeName":"populated place","toponymName":"Krasnoye","fcl":"P","name":"Krasnoye","fcode":"PPL","geonameId":542069,"lat":"56.703","adminName1":"Jaroslavl","population":0},{"countryId":"2017370","adminCode1":"51","countryName":"Russia","fclName":"city, village,...","countryCode":"RU","lng":"43.74428","fcodeName":"populated place","toponymName":"Krasnoye","fcl":"P","name":"Krasnoye","fcode":"PPL","geonameId":542081,"lat":"55.3959","adminName1":"Nizjnij Novgorod","population":0},{"countryId":"2017370","adminCode1":"47","countryName":"Russia","fclName":"city, village,...","countryCode":"RU","lng":"38.63613","fcodeName":"populated place","toponymName":"Krasnoye","fcl":"P","name":"Krasnoye","fcode":"PPL","geonameId":542090,"lat":"54.43223","adminName1":"Moskovskaya","population":653},{"countryId":"2017370","adminCode1":"62","countryName":"Russia","fclName":"city, village,...","countryCode":"RU","lng":"39.567","fcodeName":"populated place","toponymName":"Krasnoye","fcl":"P","name":"Krasnoye","fcode":"PPL","geonameId":542091,"lat":"54.2102","adminName1":"Rjazan","population":0},{"countryId":"2017370","adminCode1":"62","countryName":"Russia","fclName":"city, village,...","countryCode":"RU","lng":"40.87722","fcodeName":"populated place","toponymName":"Krasnoye","fcl":"P","name":"Krasnoye","fcode":"PPL","geonameId":542094,"lat":"53.98556","adminName1":"Rjazan","population":0},{"countryId":"2017370","adminCode1":"85","countryName":"Russia","fclName":"city, village,...","countryCode":"RU","lng":"37.21667","fcodeName":"populated place","toponymName":"Krasnoye","fcl":"P","name":"Krasnoye","fcode":"PPL","geonameId":542049,"lat":"59.51667","adminName1":"Vologda","population":0},{"countryId":"2017370","adminCode1":"88","countryName":"Russia","fclName":"city, village,...","countryCode":"RU","lng":"39.1","fcodeName":"populated place","toponymName":"Krasnoye","fcl":"P","name":"Krasnoye","fcode":"PPL","geonameId":542058,"lat":"58.03333","adminName1":"Jaroslavl","population":0},{"countryId":"2017370","adminCode1":"21","countryName":"Russia","fclName":"city, village,...","countryCode":"RU","lng":"41.66428","fcodeName":"populated place","toponymName":"Krasnoye","fcl":"P","name":"Krasnoye","fcode":"PPL","geonameId":542064,"lat":"57.19766","adminName1":"Ivanovo","population":0},{"countryId":"2017370","adminCode1":"21","countryName":"Russia","fclName":"city, village,...","countryCode":"RU","lng":"41.15882","fcodeName":"populated place","toponymName":"Krasnoye","fcl":"P","name":"Krasnoye","fcode":"PPL","geonameId":542065,"lat":"57.06474","adminName1":"Ivanovo","population":0},{"countryId":"2017370","adminCode1":"83","countryName":"Russia","fclName":"city, village,...","countryCode":"RU","lng":"40.50124","fcodeName":"populated place","toponymName":"Krasnoye","fcl":"P","name":"Krasnoye","fcode":"PPL","geonameId":542073,"lat":"56.43467","adminName1":"Vladimir","population":0},{"countryId":"2017370","adminCode1":"83","countryName":"Russia","fclName":"city, village,...","countryCode":"RU","lng":"42.7","fcodeName":"populated place","toponymName":"Krasnoye","fcl":"P","name":"Krasnoye","fcode":"PPL","geonameId":542075,"lat":"56.2","adminName1":"Vladimir","population":0},{"countryId":"2017370","adminCode1":"47","countryName":"Russia","fclName":"city, village,...","countryCode":"RU","lng":"39.4","fcodeName":"populated place","toponymName":"Krasnoye","fcl":"P","name":"Krasnoye","fcode":"PPL","geonameId":542078,"lat":"55.6","adminName1":"Moskovskaya","population":0},{"countryId":"2017370","adminCode1":"47","countryName":"Russia","fclName":"city, village,...","countryCode":"RU","lng":"37.28395","fcodeName":"populated place","toponymName":"Krasnoye","fcl":"P","name":"Krasnoye","fcode":"PPL","geonameId":542080,"lat":"55.42646","adminName1":"Moskovskaya","population":0},{"countryId":"2017370","adminCode1":"62","countryName":"Russia","fclName":"city, village,...","countryCode":"RU","lng":"39.1984","fcodeName":"populated place","toponymName":"Krasnoye","fcl":"P","name":"Krasnoye","fcode":"PPL","geonameId":542092,"lat":"54.1714","adminName1":"Rjazan","population":0},{"countryId":"2017370","adminCode1":"76","countryName":"Russia","fclName":"city, village,...","countryCode":"RU","lng":"37.27156","fcodeName":"populated place","toponymName":"Krasnoye","fcl":"P","name":"Krasnoye","fcode":"PPL","geonameId":542096,"lat":"53.79453","adminName1":"Tula","population":0},{"countryId":"2017370","adminCode1":"85","countryName":"Russia","fclName":"city, village,...","countryCode":"RU","lng":"40.80556","fcodeName":"populated place","toponymName":"Krasnoye","fcl":"P","name":"Krasnoye","fcode":"PPL","geonameId":6313574,"lat":"58.90499","adminName1":"Vologda","population":0},{"countryId":"2017370","adminCode1":"85","countryName":"Russia","fclName":"city, village,...","countryCode":"RU","lng":"38.38246","fcodeName":"populated place","toponymName":"Krasnoye","fcl":"P","name":"Krasnoye","fcode":"PPL","geonameId":7494286,"lat":"59.16936","adminName1":"Vologda","population":0},{"countryId":"2017370","adminCode1":"88","countryName":"Russia","fclName":"city, village,...","countryCode":"RU","lng":"38.2808","fcodeName":"populated place","toponymName":"Krasnoye","fcl":"P","name":"Krasnoye","fcode":"PPL","geonameId":7587810,"lat":"57.5492","adminName1":"Jaroslavl","population":0},{"countryId":"2017370","adminCode1":"37","countryName":"Russia","fclName":"city, village,...","countryCode":"RU","lng":"41.239","fcodeName":"populated place","toponymName":"Krasnoye-na-Volge","fcl":"P","name":"Krasnoye-na-Volge","fcode":"PPL","geonameId":542024,"lat":"57.51483","adminName1":"Kostroma","population":7953},{"countryId":"2017370","adminCode1":"85","countryName":"Russia","fclName":"city, village,...","countryCode":"RU","lng":"42.23756","fcodeName":"populated place","toponymName":"Krasnoye","fcl":"P","name":"Krasnoye","fcode":"PPL","geonameId":497626,"lat":"59.64329","adminName1":"Vologda","population":0},{"countryId":"2017370","adminCode1":"88","countryName":"Russia","fclName":"city, village,...","countryCode":"RU","lng":"38.13333","fcodeName":"populated place","toponymName":"Krasnoye","fcl":"P","name":"Krasnoye","fcode":"PPL","geonameId":542061,"lat":"57.38333","adminName1":"Jaroslavl","population":0},{"countryId":"2017370","adminCode1":"62","countryName":"Russia","fclName":"city, village,...","countryCode":"RU","lng":"38.82577","fcodeName":"populated place","toponymName":"Krasnoye","fcl":"P","name":"Krasnoye","fcode":"PPL","geonameId":542095,"lat":"53.93967","adminName1":"Rjazan","population":0},{"countryId":"2017370","adminCode1":"51","countryName":"Russia","fclName":"city, village,...","countryCode":"RU","lng":"43.38586","fcodeName":"populated place","toponymName":"Krasnoye","fcl":"P","name":"Krasnoye","fcode":"PPL","geonameId":542827,"lat":"55.80645","adminName1":"Nizjnij Novgorod","population":0},{"countryId":"2017370","adminCode1":"85","countryName":"Russia","fclName":"city, village,...","countryCode":"RU","lng":"43.22215","fcodeName":"populated place","toponymName":"Krasnoye","fcl":"P","name":"Krasnoye","fcode":"PPL","geonameId":542047,"lat":"60.51228","adminName1":"Vologda","population":0},{"countryId":"2017370","adminCode1":"85","countryName":"Russia","fclName":"city, village,...","countryCode":"RU","lng":"39.5624","fcodeName":"abandoned populated place","toponymName":"Krasnoye","fcl":"P","name":"Krasnoye","fcode":"PPLQ","geonameId":7495309,"lat":"59.1066","adminName1":"Vologda","population":0},{"countryId":"2017370","adminCode1":"83","countryName":"Russia","fclName":"city, village,...","countryCode":"RU","lng":"39.67567","fcodeName":"populated place","toponymName":"Krasnoye","fcl":"P","name":"Krasnoye","fcode":"PPL","geonameId":542002,"lat":"56.52771","adminName1":"Vladimir","population":0},{"countryId":"2017370","adminCode1":"88","countryName":"Russia","fclName":"city, village,...","countryCode":"RU","lng":"39.792","fcodeName":"populated place","toponymName":"Krasnoye","fcl":"P","name":"Krasnoye","fcode":"PPL","geonameId":7079464,"lat":"57.78803","adminName1":"Jaroslavl","population":0},{"countryId":"2017370","adminCode1":"83","countryName":"Russia","fclName":"city, village,...","countryCode":"RU","lng":"40.70522","fcodeName":"populated place","toponymName":"Krasnoye Ekho","fcl":"P","name":"Krasnoye Ekho","fcode":"PPL","geonameId":542037,"lat":"55.79389","adminName1":"Vladimir","population":0},{"countryId":"2017370","adminCode1":"51","countryName":"Russia","fclName":"city, village,...","countryCode":"RU","lng":"42.7415","fcodeName":"populated place","toponymName":"Krasnoye Solntse","fcl":"P","name":"Krasnoye Solntse","fcode":"PPL","geonameId":541996,"lat":"55.0891","adminName1":"Nizjnij Novgorod","population":0},{"countryId":"2017370","adminCode1":"62","countryName":"Russia","fclName":"city, village,...","countryCode":"RU","lng":"41.05357","fcodeName":"populated place","toponymName":"Krasnoye Shirino","fcl":"P","name":"Krasnoye Shirino","fcode":"PPL","geonameId":541997,"lat":"54.0692","adminName1":"Rjazan","population":0},{"countryId":"2017370","adminCode1":"62","countryName":"Russia","fclName":"city, village,...","countryCode":"RU","lng":"41.65209","fcodeName":"populated place","toponymName":"Krasnoye Ozero","fcl":"P","name":"Krasnoye Ozero","fcode":"PPL","geonameId":542022,"lat":"54.33247","adminName1":"Rjazan","population":0},{"countryId":"2017370","adminCode1":"62","countryName":"Russia","fclName":"city, village,...","countryCode":"RU","lng":"38.73356","fcodeName":"populated place","toponymName":"Krasnoye Gorodishche","fcl":"P","name":"Krasnoye Gorodishche","fcode":"PPL","geonameId":542035,"lat":"54.06966","adminName1":"Rjazan","population":0},{"countryId":"2017370","adminCode1":"37","countryName":"Russia","fclName":"city, village,...","countryCode":"RU","lng":"41.05","fcodeName":"populated place","toponymName":"Krasnoye Sumarokovo","fcl":"P","name":"Krasnoye Sumarokovo","fcode":"PPL","geonameId":6283279,"lat":"57.46201","adminName1":"Kostroma","population":0},{"countryId":"2017370","adminCode1":"83","countryName":"Russia","fclName":"city, village,...","countryCode":"RU","lng":"39.87087","fcodeName":"populated place","toponymName":"Krasnoye Zarech’ye","fcl":"P","name":"Krasnoye Zarech’ye","fcode":"PPL","geonameId":541985,"lat":"56.32731","adminName1":"Vladimir","population":0},{"countryId":"2017370","adminCode1":"47","countryName":"Russia","fclName":"city, village,...","countryCode":"RU","lng":"37.6","fcodeName":"section of populated place","toponymName":"Turbaza Krasnyy Mayak","fcl":"P","name":"Turbaza Krasnyy Mayak","fcode":"PPLX","geonameId":542044,"lat":"55.61667","adminName1":"Moskovskaya","population":0},{"countryId":"2017370","adminCode1":"46","countryName":"Russia","fclName":"city, village,...","countryCode":"RU","lng":"44.87761","fcodeName":"populated place","toponymName":"Krasnoye Sel’tso","fcl":"P","name":"Krasnoye Sel’tso","fcode":"PPL","geonameId":6846006,"lat":"54.03226","adminName1":"Mordoviya","population":0},{"countryId":"2017370","adminCode1":"83","countryName":"Russia","fclName":"city, village,...","countryCode":"RU","lng":"40.44834","fcodeName":"section of populated place","toponymName":"Krasnoye Selo","fcl":"P","name":"Krasnoye Selo","fcode":"PPLX","geonameId":542076,"lat":"56.16976","adminName1":"Vladimir","population":0},{"countryId":"2017370","adminCode1":"76","countryName":"Russia","fclName":"city, village,...","countryCode":"RU","lng":"38.2254","fcodeName":"populated place","toponymName":"Krasnoye Gremyachevo","fcl":"P","name":"Krasnoye Gremyachevo","fcode":"PPL","geonameId":7690500,"lat":"54.0338","adminName1":"Tula","population":0},{"countryId":"2017370","adminCode1":"83","countryName":"Russia","fclName":"city, village,...","countryCode":"RU","lng":"40.40311","fcodeName":"populated place","toponymName":"Krasnoye Sushchevo","fcl":"P","name":"Krasnoye Sushchevo","fcode":"PPL","geonameId":7042477,"lat":"56.18447","adminName1":"Vladimir","population":0},{"countryId":"2017370","adminCode1":"83","countryName":"Russia","fclName":"city, village,...","countryCode":"RU","lng":"40.44084","fcodeName":"populated place","toponymName":"Semënovskoye-Krasnoye","fcl":"P","name":"Semënovskoye-Krasnoye","fcode":"PPL","geonameId":7042550,"lat":"56.33626","adminName1":"Vladimir","population":0},{"countryId":"2017370","adminCode1":"62","countryName":"Russia","fclName":"city, village,...","countryCode":"RU","lng":"39.2398","fcodeName":"populated place","toponymName":"Posëlok Sanatoriya Krasnoye","fcl":"P","name":"Posëlok Sanatoriya Krasnoye","fcode":"PPL","geonameId":8535569,"lat":"54.1562","adminName1":"Rjazan","population":0},{"countryId":"2017370","adminCode1":"51","countryName":"Russia","fclName":"city, village,...","countryCode":"RU","lng":"42.2444","fcodeName":"abandoned populated place","toponymName":"Krasnoye Pyatovo","fcl":"P","name":"Krasnoye Pyatovo","fcode":"PPLQ","geonameId":7751114,"lat":"55.0898","adminName1":"Nizjnij Novgorod","population":0}]}