{"geonames": [{"fcl": "P", "countryName": "Russia", "adminCode1": "52", "fcodeName": "populated place", "adminName1": "Novgorod", "lng": "32.51648", "name": "Kresttsy", "toponymName": "Kresttsy", "lat": "58.2452", "fclName": "city, village,...", "geonameId": 541116, "fcode": "PPL", "population": 9737, "countryCode": "RU", "countryId": "2017370"}, {"fcl": "P", "countryName": "Russia", "adminCode1": "42", "fcodeName": "populated place", "adminName1": "Leningrad", "lng": "32.53669", "name": "Kresttsy", "toponymName": "Kresttsy", "lat": "59.17925", "fclName": "city, village,...", "geonameId": 541112, "fcode": "PPL", "population": 0, "countryCode": "RU", "countryId": "2017370"}, {"fcl": "P", "countryName": "Russia", "adminCode1": "88", "fcodeName": "populated place", "adminName1": "Jaroslavl", "lng": "38.97379", "name": "Kresttsy", "toponymName": "Kresttsy", "lat": "58.39236", "fclName": "city, village,...", "geonameId": 541115, "fcode": "PPL", "population": 0, "countryCode": "RU", "countryId": "2017370"}, {"fcl": "P", "countryName": "Russia", "adminCode1": "52", "fcodeName": "populated place", "adminName1": "Novgorod", "lng": "35.083", "name": "Kresttsy", "toponymName": "Kresttsy", "lat": "58.83575", "fclName": "city, village,...", "geonameId": 541113, "fcode": "PPL", "population": 0, "countryCode": "RU", "countryId": "2017370"}, {"fcl": "P", "countryName": "Russia", "adminCode1": "85", "fcodeName": "populated place", "adminName1": "Vologda", "lng": "36.24852", "name": "Kresttsy", "toponymName": "Kresttsy", "lat": "58.55174", "fclName": "city, village,...", "geonameId": 541114, "fcode": "PPL", "population": 0, "countryCode": "RU", "countryId": "2017370"}], "totalResultsCount": 5, "url": "http://api.geonames.org/search?north=61.31&west=28.65&south=57.1&name=%D0%9A%D1%80%D0%B5%D1%81%D1%82%D1%86%D1%8B&username=jaguillette&east=39.89&featureClass=P&type=json"}