{"totalResultsCount":47,"geonames":[{"adminCode1":"85","lng":"36.9714","geonameId":542048,"toponymName":"Krasnoye","countryId":"2017370","fcl":"P","population":0,"countryCode":"RU","name":"Krasnoye","fclName":"city, village,...","countryName":"Russia","fcodeName":"populated place","adminName1":"Vologda","lat":"59.5661","fcode":"PPL"},{"adminCode1":"88","lng":"39.21324","geonameId":542052,"toponymName":"Krasnoye","countryId":"2017370","fcl":"P","population":0,"countryCode":"RU","name":"Krasnoye","fclName":"city, village,...","countryName":"Russia","fcodeName":"populated place","adminName1":"Jaroslavl","lat":"58.61926","fcode":"PPL"},{"adminCode1":"88","lng":"37.86545","geonameId":542056,"toponymName":"Krasnoye","countryId":"2017370","fcl":"P","population":0,"countryCode":"RU","name":"Krasnoye","fclName":"city, village,...","countryName":"Russia","fcodeName":"populated place","adminName1":"Jaroslavl","lat":"58.06667","fcode":"PPL"},{"adminCode1":"88","lng":"40.36183","geonameId":542059,"toponymName":"Krasnoye","countryId":"2017370","fcl":"P","population":0,"countryCode":"RU","name":"Krasnoye","fclName":"city, village,...","countryName":"Russia","fcodeName":"populated place","adminName1":"Jaroslavl","lat":"57.59095","fcode":"PPL"},{"adminCode1":"21","lng":"41.81623","geonameId":542066,"toponymName":"Krasnoye","countryId":"2017370","fcl":"P","population":0,"countryCode":"RU","name":"Krasnoye","fclName":"city, village,...","countryName":"Russia","fcodeName":"populated place","adminName1":"Ivanovo","lat":"56.82651","fcode":"PPL"},{"adminCode1":"88","lng":"38.89637","geonameId":542069,"toponymName":"Krasnoye","countryId":"2017370","fcl":"P","population":77,"countryCode":"RU","name":"Krasnoye","fclName":"city, village,...","countryName":"Russia","fcodeName":"populated place","adminName1":"Jaroslavl","lat":"56.703","fcode":"PPL"},{"adminCode1":"51","lng":"43.74428","geonameId":542081,"toponymName":"Krasnoye","countryId":"2017370","fcl":"P","population":0,"countryCode":"RU","name":"Krasnoye","fclName":"city, village,...","countryName":"Russia","fcodeName":"populated place","adminName1":"Nizjnij Novgorod","lat":"55.3959","fcode":"PPL"},{"adminCode1":"47","lng":"38.63613","geonameId":542090,"toponymName":"Krasnoye","countryId":"2017370","fcl":"P","population":653,"countryCode":"RU","name":"Krasnoye","fclName":"city, village,...","countryName":"Russia","fcodeName":"populated place","adminName1":"Moskovskaya","lat":"54.43223","fcode":"PPL"},{"adminCode1":"62","lng":"39.567","geonameId":542091,"toponymName":"Krasnoye","countryId":"2017370","fcl":"P","population":0,"countryCode":"RU","name":"Krasnoye","fclName":"city, village,...","countryName":"Russia","fcodeName":"populated place","adminName1":"Rjazan","lat":"54.2102","fcode":"PPL"},{"adminCode1":"62","lng":"40.87722","geonameId":542094,"toponymName":"Krasnoye","countryId":"2017370","fcl":"P","population":0,"countryCode":"RU","name":"Krasnoye","fclName":"city, village,...","countryName":"Russia","fcodeName":"populated place","adminName1":"Rjazan","lat":"53.98556","fcode":"PPL"},{"adminCode1":"85","lng":"37.21667","geonameId":542049,"toponymName":"Krasnoye","countryId":"2017370","fcl":"P","population":0,"countryCode":"RU","name":"Krasnoye","fclName":"city, village,...","countryName":"Russia","fcodeName":"populated place","adminName1":"Vologda","lat":"59.51667","fcode":"PPL"},{"adminCode1":"88","lng":"39.1","geonameId":542058,"toponymName":"Krasnoye","countryId":"2017370","fcl":"P","population":0,"countryCode":"RU","name":"Krasnoye","fclName":"city, village,...","countryName":"Russia","fcodeName":"populated place","adminName1":"Jaroslavl","lat":"58.03333","fcode":"PPL"},{"adminCode1":"21","lng":"41.66428","geonameId":542064,"toponymName":"Krasnoye","countryId":"2017370","fcl":"P","population":0,"countryCode":"RU","name":"Krasnoye","fclName":"city, village,...","countryName":"Russia","fcodeName":"populated place","adminName1":"Ivanovo","lat":"57.19766","fcode":"PPL"},{"adminCode1":"21","lng":"41.15882","geonameId":542065,"toponymName":"Krasnoye","countryId":"2017370","fcl":"P","population":0,"countryCode":"RU","name":"Krasnoye","fclName":"city, village,...","countryName":"Russia","fcodeName":"populated place","adminName1":"Ivanovo","lat":"57.06473","fcode":"PPL"},{"adminCode1":"83","lng":"40.50124","geonameId":542073,"toponymName":"Krasnoye","countryId":"2017370","fcl":"P","population":0,"countryCode":"RU","name":"Krasnoye","fclName":"city, village,...","countryName":"Russia","fcodeName":"populated place","adminName1":"Vladimir","lat":"56.43467","fcode":"PPL"},{"adminCode1":"83","lng":"42.7","geonameId":542075,"toponymName":"Krasnoye","countryId":"2017370","fcl":"P","population":0,"countryCode":"RU","name":"Krasnoye","fclName":"city, village,...","countryName":"Russia","fcodeName":"populated place","adminName1":"Vladimir","lat":"56.2","fcode":"PPL"},{"adminCode1":"47","lng":"39.4","geonameId":542078,"toponymName":"Krasnoye","countryId":"2017370","fcl":"P","population":0,"countryCode":"RU","name":"Krasnoye","fclName":"city, village,...","countryName":"Russia","fcodeName":"populated place","adminName1":"Moskovskaya","lat":"55.6","fcode":"PPL"},{"adminCode1":"47","lng":"37.28395","geonameId":542080,"toponymName":"Krasnoye","countryId":"2017370","fcl":"P","population":0,"countryCode":"RU","name":"Krasnoye","fclName":"city, village,...","countryName":"Russia","fcodeName":"populated place","adminName1":"Moskovskaya","lat":"55.42646","fcode":"PPL"},{"adminCode1":"62","lng":"39.1984","geonameId":542092,"toponymName":"Krasnoye","countryId":"2017370","fcl":"P","population":0,"countryCode":"RU","name":"Krasnoye","fclName":"city, village,...","countryName":"Russia","fcodeName":"populated place","adminName1":"Rjazan","lat":"54.1714","fcode":"PPL"},{"adminCode1":"76","lng":"37.27156","geonameId":542096,"toponymName":"Krasnoye","countryId":"2017370","fcl":"P","population":0,"countryCode":"RU","name":"Krasnoye","fclName":"city, village,...","countryName":"Russia","fcodeName":"populated place","adminName1":"Tula","lat":"53.79453","fcode":"PPL"},{"adminCode1":"85","lng":"38.38246","geonameId":7494286,"toponymName":"Krasnoye","countryId":"2017370","fcl":"P","population":0,"countryCode":"RU","name":"Krasnoye","fclName":"city, village,...","countryName":"Russia","fcodeName":"populated place","adminName1":"Vologda","lat":"59.16936","fcode":"PPL"},{"adminCode1":"88","lng":"38.2808","geonameId":7587810,"toponymName":"Krasnoye","countryId":"2017370","fcl":"P","population":0,"countryCode":"RU","name":"Krasnoye","fclName":"city, village,...","countryName":"Russia","fcodeName":"populated place","adminName1":"Jaroslavl","lat":"57.5492","fcode":"PPL"},{"adminCode1":"85","lng":"40.80556","geonameId":6313574,"toponymName":"Krasnoye","countryId":"2017370","fcl":"P","population":0,"countryCode":"RU","name":"Krasnoye","fclName":"city, village,...","countryName":"Russia","fcodeName":"populated place","adminName1":"Vologda","lat":"58.90499","fcode":"PPL"},{"adminCode1":"37","lng":"41.239","geonameId":542024,"toponymName":"Krasnoye-na-Volge","countryId":"2017370","fcl":"P","population":7953,"countryCode":"RU","name":"Krasnoye-na-Volge","fclName":"city, village,...","countryName":"Russia","fcodeName":"populated place","adminName1":"Kostroma","lat":"57.51483","fcode":"PPL"},{"adminCode1":"85","lng":"42.23756","geonameId":497626,"toponymName":"Krasnoye","countryId":"2017370","fcl":"P","population":0,"countryCode":"RU","name":"Krasnoye","fclName":"city, village,...","countryName":"Russia","fcodeName":"populated place","adminName1":"Vologda","lat":"59.64329","fcode":"PPL"},{"adminCode1":"88","lng":"38.13333","geonameId":542061,"toponymName":"Krasnoye","countryId":"2017370","fcl":"P","population":0,"countryCode":"RU","name":"Krasnoye","fclName":"city, village,...","countryName":"Russia","fcodeName":"populated place","adminName1":"Jaroslavl","lat":"57.38333","fcode":"PPL"},{"adminCode1":"62","lng":"38.82577","geonameId":542095,"toponymName":"Krasnoye","countryId":"2017370","fcl":"P","population":0,"countryCode":"RU","name":"Krasnoye","fclName":"city, village,...","countryName":"Russia","fcodeName":"populated place","adminName1":"Rjazan","lat":"53.93967","fcode":"PPL"},{"adminCode1":"51","lng":"43.38586","geonameId":542827,"toponymName":"Krasnoye","countryId":"2017370","fcl":"P","population":0,"countryCode":"RU","name":"Krasnoye","fclName":"city, village,...","countryName":"Russia","fcodeName":"populated place","adminName1":"Nizjnij Novgorod","lat":"55.80645","fcode":"PPL"},{"adminCode1":"85","lng":"43.22215","geonameId":542047,"toponymName":"Krasnoye","countryId":"2017370","fcl":"P","population":0,"countryCode":"RU","name":"Krasnoye","fclName":"city, village,...","countryName":"Russia","fcodeName":"populated place","adminName1":"Vologda","lat":"60.51228","fcode":"PPL"},{"adminCode1":"85","lng":"39.5624","geonameId":7495309,"toponymName":"Krasnoye","countryId":"2017370","fcl":"P","population":0,"countryCode":"RU","name":"Krasnoye","fclName":"city, village,...","countryName":"Russia","fcodeName":"abandoned populated place","adminName1":"Vologda","lat":"59.1066","fcode":"PPLQ"},{"adminCode1":"83","lng":"39.67567","geonameId":542002,"toponymName":"Krasnoye","countryId":"2017370","fcl":"P","population":0,"countryCode":"RU","name":"Krasnoye","fclName":"city, village,...","countryName":"Russia","fcodeName":"populated place","adminName1":"Vladimir","lat":"56.52771","fcode":"PPL"},{"adminCode1":"88","lng":"39.792","geonameId":7079464,"toponymName":"Krasnoye","countryId":"2017370","fcl":"P","population":0,"countryCode":"RU","name":"Krasnoye","fclName":"city, village,...","countryName":"Russia","fcodeName":"populated place","adminName1":"Jaroslavl","lat":"57.78803","fcode":"PPL"},{"adminCode1":"83","lng":"40.70522","geonameId":542037,"toponymName":"Krasnoye Ekho","countryId":"2017370","fcl":"P","population":0,"countryCode":"RU","name":"Krasnoye Ekho","fclName":"city, village,...","countryName":"Russia","fcodeName":"populated place","adminName1":"Vladimir","lat":"55.79389","fcode":"PPL"},{"adminCode1":"51","lng":"42.7415","geonameId":541996,"toponymName":"Krasnoye Solntse","countryId":"2017370","fcl":"P","population":0,"countryCode":"RU","name":"Krasnoye Solntse","fclName":"city, village,...","countryName":"Russia","fcodeName":"populated place","adminName1":"Nizjnij Novgorod","lat":"55.0891","fcode":"PPL"},{"adminCode1":"62","lng":"41.05357","geonameId":541997,"toponymName":"Krasnoye Shirino","countryId":"2017370","fcl":"P","population":0,"countryCode":"RU","name":"Krasnoye Shirino","fclName":"city, village,...","countryName":"Russia","fcodeName":"populated place","adminName1":"Rjazan","lat":"54.0692","fcode":"PPL"},{"adminCode1":"62","lng":"41.65209","geonameId":542022,"toponymName":"Krasnoye Ozero","countryId":"2017370","fcl":"P","population":0,"countryCode":"RU","name":"Krasnoye Ozero","fclName":"city, village,...","countryName":"Russia","fcodeName":"populated place","adminName1":"Rjazan","lat":"54.33247","fcode":"PPL"},{"adminCode1":"62","lng":"38.73356","geonameId":542035,"toponymName":"Krasnoye Gorodishche","countryId":"2017370","fcl":"P","population":0,"countryCode":"RU","name":"Krasnoye Gorodishche","fclName":"city, village,...","countryName":"Russia","fcodeName":"populated place","adminName1":"Rjazan","lat":"54.06966","fcode":"PPL"},{"adminCode1":"37","lng":"41.05","geonameId":6283279,"toponymName":"Krasnoye Sumarokovo","countryId":"2017370","fcl":"P","population":0,"countryCode":"RU","name":"Krasnoye Sumarokovo","fclName":"city, village,...","countryName":"Russia","fcodeName":"populated place","adminName1":"Kostroma","lat":"57.46201","fcode":"PPL"},{"adminCode1":"83","lng":"39.87087","geonameId":541985,"toponymName":"Krasnoye Zarech’ye","countryId":"2017370","fcl":"P","population":0,"countryCode":"RU","name":"Krasnoye Zarech’ye","fclName":"city, village,...","countryName":"Russia","fcodeName":"populated place","adminName1":"Vladimir","lat":"56.32731","fcode":"PPL"},{"adminCode1":"47","lng":"37.6","geonameId":542044,"toponymName":"Turbaza Krasnyy Mayak","countryId":"2017370","fcl":"P","population":0,"countryCode":"RU","name":"Turbaza Krasnyy Mayak","fclName":"city, village,...","countryName":"Russia","fcodeName":"section of populated place","adminName1":"Moskovskaya","lat":"55.61667","fcode":"PPLX"},{"adminCode1":"46","lng":"44.87761","geonameId":6846006,"toponymName":"Krasnoye Sel’tso","countryId":"2017370","fcl":"P","population":0,"countryCode":"RU","name":"Krasnoye Sel’tso","fclName":"city, village,...","countryName":"Russia","fcodeName":"populated place","adminName1":"Mordoviya","lat":"54.03226","fcode":"PPL"},{"adminCode1":"83","lng":"40.44834","geonameId":542076,"toponymName":"Krasnoye Selo","countryId":"2017370","fcl":"P","population":0,"countryCode":"RU","name":"Krasnoye Selo","fclName":"city, village,...","countryName":"Russia","fcodeName":"section of populated place","adminName1":"Vladimir","lat":"56.16976","fcode":"PPLX"},{"adminCode1":"76","lng":"38.2254","geonameId":7690500,"toponymName":"Krasnoye Gremyachevo","countryId":"2017370","fcl":"P","population":0,"countryCode":"RU","name":"Krasnoye Gremyachevo","fclName":"city, village,...","countryName":"Russia","fcodeName":"populated place","adminName1":"Tula","lat":"54.0338","fcode":"PPL"},{"adminCode1":"83","lng":"40.40311","geonameId":7042477,"toponymName":"Krasnoye Sushchevo","countryId":"2017370","fcl":"P","population":0,"countryCode":"RU","name":"Krasnoye Sushchevo","fclName":"city, village,...","countryName":"Russia","fcodeName":"populated place","adminName1":"Vladimir","lat":"56.18447","fcode":"PPL"},{"adminCode1":"83","lng":"40.44084","geonameId":7042550,"toponymName":"Semënovskoye-Krasnoye","countryId":"2017370","fcl":"P","population":0,"countryCode":"RU","name":"Semënovskoye-Krasnoye","fclName":"city, village,...","countryName":"Russia","fcodeName":"populated place","adminName1":"Vladimir","lat":"56.33626","fcode":"PPL"},{"adminCode1":"62","lng":"39.2398","geonameId":8535569,"toponymName":"Posëlok Sanatoriya Krasnoye","countryId":"2017370","fcl":"P","population":0,"countryCode":"RU","name":"Posëlok Sanatoriya Krasnoye","fclName":"city, village,...","countryName":"Russia","fcodeName":"populated place","adminName1":"Rjazan","lat":"54.1562","fcode":"PPL"},{"adminCode1":"51","lng":"42.2444","geonameId":7751114,"toponymName":"Krasnoye Pyatovo","countryId":"2017370","fcl":"P","population":0,"countryCode":"RU","name":"Krasnoye Pyatovo","fclName":"city, village,...","countryName":"Russia","fcodeName":"abandoned populated place","adminName1":"Nizjnij Novgorod","lat":"55.0898","fcode":"PPLQ"}]}