{"totalResultsCount":12,"geonames":[{"adminCode1":"07","lng":"141.8","geonameId":2161499,"toponymName":"Kiata","countryId":"2077456","fcl":"P","population":0,"countryCode":"AU","name":"Kiata","fclName":"city, village,...","countryName":"Australia","fcodeName":"populated place","adminName1":"Victoria","lat":"-36.36667","fcode":"PPL"},{"adminCode1":"15","lng":"152.15","geonameId":2094056,"toponymName":"Kiata","countryId":"2088628","fcl":"P","population":0,"countryCode":"PG","name":"Kiata","fclName":"city, village,...","countryName":"Papua New Guinea","fcodeName":"populated place","adminName1":"New Ireland","lat":"-3.4","fcode":"PPL"},{"adminCode1":"00","lng":"29.36667","geonameId":213360,"toponymName":"Kiata","countryId":"203312","fcl":"P","population":0,"countryCode":"CD","name":"Kiata","fclName":"city, village,...","countryName":"Democratic Republic of the Congo","fcodeName":"populated place","adminName1":"","lat":"-5.56667","fcode":"PPL"},{"adminCode1":"04","lng":"7.72154","geonameId":2443751,"toponymName":"Guidan Kiata","countryId":"2440476","fcl":"P","population":0,"countryCode":"NE","name":"Guidan Kiata","fclName":"city, village,...","countryName":"Niger","fcodeName":"populated place","adminName1":"Maradi","lat":"13.36755","fcode":"PPL"},{"adminCode1":"01","lng":"17.73761","geonameId":2314914,"toponymName":"Kiala","countryId":"203312","fcl":"P","population":0,"countryCode":"CD","name":"Kiala","fclName":"city, village,...","countryName":"Democratic Republic of the Congo","fcodeName":"populated place","adminName1":"Bandundu","lat":"-4.96921","fcode":"PPL"},{"adminCode1":"07","lng":"141.8","geonameId":2161498,"toponymName":"Kiata East","countryId":"2077456","fcl":"P","population":0,"countryCode":"AU","name":"Kiata East","fclName":"city, village,...","countryName":"Australia","fcodeName":"populated place","adminName1":"Victoria","lat":"-36.33333","fcode":"PPL"},{"adminCode1":"04","lng":"7.70895","geonameId":6723013,"toponymName":"Rigagué Kiata","countryId":"2440476","fcl":"P","population":0,"countryCode":"NE","name":"Rigagué Kiata","fclName":"city, village,...","countryName":"Niger","fcodeName":"populated place","adminName1":"Maradi","lat":"13.34846","fcode":"PPL"},{"adminCode1":"07","lng":"141.76431","geonameId":8156372,"toponymName":"Kiata Lowan Santuary","countryId":"2077456","fcl":"L","population":0,"countryCode":"AU","name":"Kiata Lowan Santuary","fclName":"parks,area, ...","countryName":"Australia","fcodeName":"reserve","adminName1":"Victoria","lat":"-36.43458","fcode":"RES"},{"adminCode1":"00","lng":"1.63333","geonameId":2366033,"toponymName":"Kiata","countryId":"2363686","fcl":"H","population":0,"countryCode":"TG","name":"Kiata","fclName":"stream, lake, ...","countryName":"Togo","fcodeName":"intermittent stream","adminName1":"","lat":"7.98333","fcode":"STMI"},{"adminCode1":"07","lng":"141.79597","geonameId":8828510,"toponymName":"Kiata","countryId":"2077456","fcl":"S","population":0,"countryCode":"AU","name":"Kiata","fclName":"spot, building, farm","countryName":"Australia","fcodeName":"railroad station","adminName1":"Victoria","lat":"-36.36319","fcode":"RSTN"},{"adminCode1":"OH","lng":"-84.77412","geonameId":4515871,"toponymName":"Kiata Creek","countryId":"6252001","fcl":"H","population":0,"countryCode":"US","name":"Kiata Creek","fclName":"stream, lake, ...","countryName":"United States","fcodeName":"stream","adminName1":"Ohio","lat":"39.36367","fcode":"STM"},{"adminCode1":"33","lng":"7.49475","geonameId":2491647,"toponymName":"Chabet el Kiata","countryId":"2589581","fcl":"H","population":0,"countryCode":"DZ","name":"Chabet el Kiata","fclName":"stream, lake, ...","countryName":"Algeria","fcodeName":"wadi","adminName1":"Tébessa","lat":"34.79487","fcode":"WAD"}]}