{"totalResultsCount":12,"geonames":[{"countryId":"2077456","adminCode1":"07","countryName":"Australia","fclName":"city, village,...","countryCode":"AU","lng":"141.8","fcodeName":"populated place","toponymName":"Kiata","fcl":"P","name":"Kiata","fcode":"PPL","geonameId":2161499,"lat":"-36.36667","adminName1":"Victoria","population":0},{"countryId":"2088628","adminCode1":"15","countryName":"Papua New Guinea","fclName":"city, village,...","countryCode":"PG","lng":"152.15","fcodeName":"populated place","toponymName":"Kiata","fcl":"P","name":"Kiata","fcode":"PPL","geonameId":2094056,"lat":"-3.4","adminName1":"New Ireland","population":0},{"countryId":"203312","adminCode1":"00","countryName":"Democratic Republic of the Congo","fclName":"city, village,...","countryCode":"CD","lng":"29.36667","fcodeName":"populated place","toponymName":"Kiata","fcl":"P","name":"Kiata","fcode":"PPL","geonameId":213360,"lat":"-5.56667","adminName1":"","population":0},{"countryId":"2440476","adminCode1":"04","countryName":"Niger","fclName":"city, village,...","countryCode":"NE","lng":"7.72154","fcodeName":"populated place","toponymName":"Guidan Kiata","fcl":"P","name":"Guidan Kiata","fcode":"PPL","geonameId":2443751,"lat":"13.36755","adminName1":"Maradi","population":0},{"countryId":"203312","adminCode1":"01","countryName":"Democratic Republic of the Congo","fclName":"city, village,...","countryCode":"CD","lng":"17.73761","fcodeName":"populated place","toponymName":"Kiala","fcl":"P","name":"Kiala","fcode":"PPL","geonameId":2314914,"lat":"-4.96921","adminName1":"Bandundu","population":0},{"countryId":"2077456","adminCode1":"07","countryName":"Australia","fclName":"city, village,...","countryCode":"AU","lng":"141.8","fcodeName":"populated place","toponymName":"Kiata East","fcl":"P","name":"Kiata East","fcode":"PPL","geonameId":2161498,"lat":"-36.33333","adminName1":"Victoria","population":0},{"countryId":"2440476","adminCode1":"04","countryName":"Niger","fclName":"city, village,...","countryCode":"NE","lng":"7.70895","fcodeName":"populated place","toponymName":"Rigagué Kiata","fcl":"P","name":"Rigagué Kiata","fcode":"PPL","geonameId":6723013,"lat":"13.34846","adminName1":"Maradi","population":0},{"countryId":"2077456","adminCode1":"07","countryName":"Australia","fclName":"parks,area, ...","countryCode":"AU","lng":"141.76431","fcodeName":"reserve","toponymName":"Kiata Lowan Santuary","fcl":"L","name":"Kiata Lowan Santuary","fcode":"RES","geonameId":8156372,"lat":"-36.43458","adminName1":"Victoria","population":0},{"countryId":"2363686","adminCode1":"00","countryName":"Togo","fclName":"stream, lake, ...","countryCode":"TG","lng":"1.63333","fcodeName":"intermittent stream","toponymName":"Kiata","fcl":"H","name":"Kiata","fcode":"STMI","geonameId":2366033,"lat":"7.98333","adminName1":"","population":0},{"countryId":"2077456","adminCode1":"07","countryName":"Australia","fclName":"spot, building, farm","countryCode":"AU","lng":"141.79597","fcodeName":"railroad station","toponymName":"Kiata","fcl":"S","name":"Kiata","fcode":"RSTN","geonameId":8828510,"lat":"-36.36319","adminName1":"Victoria","population":0},{"countryId":"6252001","adminCode1":"OH","countryName":"United States","fclName":"stream, lake, ...","countryCode":"US","lng":"-84.77412","fcodeName":"stream","toponymName":"Kiata Creek","fcl":"H","name":"Kiata Creek","fcode":"STM","geonameId":4515871,"lat":"39.36367","adminName1":"Ohio","population":0},{"countryId":"2589581","adminCode1":"33","countryName":"Algeria","fclName":"stream, lake, ...","countryCode":"DZ","lng":"7.49475","fcodeName":"wadi","toponymName":"Chabet el Kiata","fcl":"H","name":"Chabet el Kiata","fcode":"WAD","geonameId":2491647,"lat":"34.79487","adminName1":"Tébessa","population":0}]}