{"totalResultsCount":10,"geonames":[{"countryId":"2017370","adminCode1":"21","countryName":"Russia","fclName":"city, village,...","countryCode":"RU","lng":"40.89174","fcodeName":"populated place","toponymName":"Lezhnevo","fcl":"P","name":"Lezhnevo","fcode":"PPL","geonameId":535366,"lat":"56.77508","adminName1":"Ivanovo","population":7977},{"countryId":"2017370","adminCode1":"77","countryName":"Russia","fclName":"city, village,...","countryCode":"RU","lng":"33.88333","fcodeName":"populated place","toponymName":"Lezhnëvo","fcl":"P","name":"Lezhnëvo","fcode":"PPL","geonameId":535362,"lat":"57.8","adminName1":"Tverskaya","population":0},{"countryId":"2017370","adminCode1":"77","countryName":"Russia","fclName":"city, village,...","countryCode":"RU","lng":"37.46667","fcodeName":"populated place","toponymName":"Lezhnëvo","fcl":"P","name":"Lezhnëvo","fcode":"PPL","geonameId":535363,"lat":"57.3","adminName1":"Tverskaya","population":0},{"countryId":"2017370","adminCode1":"77","countryName":"Russia","fclName":"city, village,...","countryCode":"RU","lng":"33.23354","fcodeName":"populated place","toponymName":"Lezhnëvo","fcl":"P","name":"Lezhnëvo","fcode":"PPL","geonameId":535364,"lat":"57.2866","adminName1":"Tverskaya","population":0},{"countryId":"2017370","adminCode1":"77","countryName":"Russia","fclName":"city, village,...","countryCode":"RU","lng":"35.81571","fcodeName":"populated place","toponymName":"Lezhnëvo","fcl":"P","name":"Lezhnëvo","fcode":"PPL","geonameId":535365,"lat":"57.1627","adminName1":"Tverskaya","population":0},{"countryId":"2017370","adminCode1":"69","countryName":"Russia","fclName":"city, village,...","countryCode":"RU","lng":"34.51444","fcodeName":"populated place","toponymName":"Lezhnëvo","fcl":"P","name":"Lezhnëvo","fcode":"PPL","geonameId":535367,"lat":"55.34583","adminName1":"Smolensk","population":0},{"countryId":"2017370","adminCode1":"37","countryName":"Russia","fclName":"city, village,...","countryCode":"RU","lng":"42.8268","fcodeName":"populated place","toponymName":"Lezhnëvo","fcl":"P","name":"Lezhnëvo","fcode":"PPL","geonameId":7460941,"lat":"58.0288","adminName1":"Kostroma","population":0},{"countryId":"2017370","adminCode1":"77","countryName":"Russia","fclName":"city, village,...","countryCode":"RU","lng":"35.25409","fcodeName":"populated place","toponymName":"Lezhnëvo","fcl":"P","name":"Lezhnëvo","fcode":"PPL","geonameId":6656390,"lat":"56.35876","adminName1":"Tverskaya","population":0},{"countryId":"2017370","adminCode1":"37","countryName":"Russia","fclName":"city, village,...","countryCode":"RU","lng":"40.95238","fcodeName":"populated place","toponymName":"Lezhnëvo","fcl":"P","name":"Lezhnëvo","fcode":"PPL","geonameId":6642245,"lat":"57.70489","adminName1":"Kostroma","population":0},{"countryId":"2017370","adminCode1":"53","countryName":"Russia","fclName":"city, village,...","countryCode":"RU","lng":"80.64278","fcodeName":"populated place","toponymName":"Lezhnevskiy","fcl":"P","name":"Lezhnevskiy","fcode":"PPL","geonameId":1500550,"lat":"55.06722","adminName1":"Novosibirsk","population":0}]}