{"totalResultsCount":10,"geonames":[{"adminCode1":"21","lng":"40.89174","geonameId":535366,"toponymName":"Lezhnevo","countryId":"2017370","fcl":"P","population":7977,"countryCode":"RU","name":"Lezhnevo","fclName":"city, village,...","countryName":"Russia","fcodeName":"populated place","adminName1":"Ivanovo","lat":"56.77508","fcode":"PPL"},{"adminCode1":"77","lng":"33.88333","geonameId":535362,"toponymName":"Lezhnëvo","countryId":"2017370","fcl":"P","population":0,"countryCode":"RU","name":"Lezhnëvo","fclName":"city, village,...","countryName":"Russia","fcodeName":"populated place","adminName1":"Tverskaya","lat":"57.8","fcode":"PPL"},{"adminCode1":"77","lng":"37.46667","geonameId":535363,"toponymName":"Lezhnëvo","countryId":"2017370","fcl":"P","population":0,"countryCode":"RU","name":"Lezhnëvo","fclName":"city, village,...","countryName":"Russia","fcodeName":"populated place","adminName1":"Tverskaya","lat":"57.3","fcode":"PPL"},{"adminCode1":"77","lng":"33.23354","geonameId":535364,"toponymName":"Lezhnëvo","countryId":"2017370","fcl":"P","population":0,"countryCode":"RU","name":"Lezhnëvo","fclName":"city, village,...","countryName":"Russia","fcodeName":"populated place","adminName1":"Tverskaya","lat":"57.2866","fcode":"PPL"},{"adminCode1":"77","lng":"35.81571","geonameId":535365,"toponymName":"Lezhnëvo","countryId":"2017370","fcl":"P","population":0,"countryCode":"RU","name":"Lezhnëvo","fclName":"city, village,...","countryName":"Russia","fcodeName":"populated place","adminName1":"Tverskaya","lat":"57.1627","fcode":"PPL"},{"adminCode1":"69","lng":"34.51444","geonameId":535367,"toponymName":"Lezhnëvo","countryId":"2017370","fcl":"P","population":0,"countryCode":"RU","name":"Lezhnëvo","fclName":"city, village,...","countryName":"Russia","fcodeName":"populated place","adminName1":"Smolensk","lat":"55.34583","fcode":"PPL"},{"adminCode1":"37","lng":"42.8268","geonameId":7460941,"toponymName":"Lezhnëvo","countryId":"2017370","fcl":"P","population":0,"countryCode":"RU","name":"Lezhnëvo","fclName":"city, village,...","countryName":"Russia","fcodeName":"populated place","adminName1":"Kostroma","lat":"58.0288","fcode":"PPL"},{"adminCode1":"77","lng":"35.25409","geonameId":6656390,"toponymName":"Lezhnëvo","countryId":"2017370","fcl":"P","population":0,"countryCode":"RU","name":"Lezhnëvo","fclName":"city, village,...","countryName":"Russia","fcodeName":"populated place","adminName1":"Tverskaya","lat":"56.35876","fcode":"PPL"},{"adminCode1":"37","lng":"40.95238","geonameId":6642245,"toponymName":"Lezhnëvo","countryId":"2017370","fcl":"P","population":0,"countryCode":"RU","name":"Lezhnëvo","fclName":"city, village,...","countryName":"Russia","fcodeName":"populated place","adminName1":"Kostroma","lat":"57.70489","fcode":"PPL"},{"adminCode1":"53","lng":"80.64278","geonameId":1500550,"toponymName":"Lezhnevskiy","countryId":"2017370","fcl":"P","population":0,"countryCode":"RU","name":"Lezhnevskiy","fclName":"city, village,...","countryName":"Russia","fcodeName":"populated place","adminName1":"Novosibirsk","lat":"55.06722","fcode":"PPL"}]}