{"totalResultsCount":55,"geonames":[{"countryId":"2017370","adminCode1":"70","countryName":"Russia","fclName":"city, village,...","countryCode":"RU","lng":"43.02167","fcodeName":"populated place","toponymName":"Liman","fcl":"P","name":"Liman","fcode":"PPL","geonameId":535230,"lat":"45.74","adminName1":"Stavropol'skiy","population":0},{"countryId":"2017370","adminCode1":"07","countryName":"Russia","fclName":"city, village,...","countryCode":"RU","lng":"47.22405","fcodeName":"populated place","toponymName":"Liman","fcl":"P","name":"Liman","fcode":"PPL","geonameId":535229,"lat":"45.78457","adminName1":"Astrakhan","population":8858},{"countryId":"2017370","adminCode1":"55","countryName":"Russia","fclName":"city, village,...","countryCode":"RU","lng":"58.88333","fcodeName":"populated place","toponymName":"Liman","fcl":"P","name":"Liman","fcode":"PPL","geonameId":535226,"lat":"51.61667","adminName1":"Orenburg","population":0},{"countryId":"2017370","adminCode1":"56","countryName":"Russia","fclName":"city, village,...","countryCode":"RU","lng":"37.73899","fcodeName":"populated place","toponymName":"Liman’","fcl":"P","name":"Liman’","fcode":"PPL","geonameId":535225,"lat":"52.18974","adminName1":"Orjol","population":0},{"countryId":"2017370","adminCode1":"86","countryName":"Russia","fclName":"city, village,...","countryCode":"RU","lng":"40.94778","fcodeName":"populated place","toponymName":"Liman","fcl":"P","name":"Liman","fcode":"PPL","geonameId":535227,"lat":"51.36667","adminName1":"Voronezj","population":0},{"countryId":"2017370","adminCode1":"86","countryName":"Russia","fclName":"city, village,...","countryCode":"RU","lng":"39.75716","fcodeName":"populated place","toponymName":"Liman","fcl":"P","name":"Liman","fcode":"PPL","geonameId":535228,"lat":"49.89865","adminName1":"Voronezj","population":0},{"countryId":"2017370","adminCode1":"30","countryName":"Russia","fclName":"city, village,...","countryCode":"RU","lng":"141.25","fcodeName":"populated place","toponymName":"Liman","fcl":"P","name":"Liman","fcode":"PPL","geonameId":2123743,"lat":"52.73333","adminName1":"Khabarovsk Krai","population":0},{"countryId":"2017370","adminCode1":"86","countryName":"Russia","fclName":"city, village,...","countryCode":"RU","lng":"40.61914","fcodeName":"populated place","toponymName":"Liman","fcl":"P","name":"Liman","fcode":"PPL","geonameId":809256,"lat":"49.64642","adminName1":"Voronezj","population":0},{"countryId":"2017370","adminCode1":"41","countryName":"Russia","fclName":"city, village,...","countryCode":"RU","lng":"36.3526","fcodeName":"populated place","toponymName":"Liman","fcl":"P","name":"Liman","fcode":"PPL","geonameId":7451735,"lat":"52.0948","adminName1":"Kursk","population":0},{"countryId":"690791","adminCode1":"07","countryName":"Ukraine","fclName":"city, village,...","countryCode":"UA","lng":"36.4703","fcodeName":"populated place","toponymName":"Lyman","fcl":"P","name":"Lyman","fcode":"PPL","geonameId":703071,"lat":"49.59769","adminName1":"Kharkiv","population":4008},{"countryId":"2017370","adminCode1":"61","countryName":"Russia","fclName":"city, village,...","countryCode":"RU","lng":"40.83346","fcodeName":"populated place","toponymName":"Liman","fcl":"P","name":"Liman","fcode":"PPL","geonameId":810021,"lat":"49.14958","adminName1":"Rostov","population":0},{"countryId":"2017370","adminCode1":"86","countryName":"Russia","fclName":"city, village,...","countryCode":"RU","lng":"40.91443","fcodeName":"populated place","toponymName":"Novyy Liman","fcl":"P","name":"Novyy Liman","fcode":"PPL","geonameId":516968,"lat":"49.95011","adminName1":"Voronezj","population":0},{"countryId":"2017370","adminCode1":"38","countryName":"Russia","fclName":"city, village,...","countryCode":"RU","lng":"38.79837","fcodeName":"populated place","toponymName":"Sladkiy Liman","fcl":"P","name":"Sladkiy Liman","fcode":"PPL","geonameId":492180,"lat":"46.18338","adminName1":"Krasnodarskiy","population":0},{"countryId":"2017370","adminCode1":"86","countryName":"Russia","fclName":"city, village,...","countryCode":"RU","lng":"39.84912","fcodeName":"populated place","toponymName":"Krasnyy Liman","fcl":"P","name":"Krasnyy Liman","fcode":"PPL","geonameId":541641,"lat":"51.53828","adminName1":"Voronezj","population":0},{"countryId":"690791","adminCode1":"14","countryName":"Ukraine","fclName":"city, village,...","countryCode":"UA","lng":"38.94361","fcodeName":"populated place","toponymName":"Lyman","fcl":"P","name":"Liman","fcode":"PPL","geonameId":703072,"lat":"49.34521","adminName1":"Luhansk","population":0},{"countryId":"690791","adminCode1":"17","countryName":"Ukraine","fclName":"city, village,...","countryCode":"UA","lng":"29.96748","fcodeName":"populated place","toponymName":"Liman","fcl":"P","name":"Liman","fcode":"PPL","geonameId":703075,"lat":"45.90186","adminName1":"Odessa","population":0},{"countryId":"690791","adminCode1":"05","countryName":"Ukraine","fclName":"city, village,...","countryCode":"UA","lng":"37.20602","fcodeName":"populated place","toponymName":"Rodyns’ke","fcl":"P","name":"Rodinskoye","fcode":"PPL","geonameId":695581,"lat":"48.35199","adminName1":"Donetsk","population":11550},{"countryId":"2017370","adminCode1":"61","countryName":"Russia","fclName":"city, village,...","countryCode":"RU","lng":"41.74404","fcodeName":"populated place","toponymName":"Krivoy Liman","fcl":"P","name":"Krivoy Liman","fcode":"PPL","geonameId":540872,"lat":"47.24624","adminName1":"Rostov","population":0},{"countryId":"2017370","adminCode1":"67","countryName":"Russia","fclName":"city, village,...","countryCode":"RU","lng":"42.80778","fcodeName":"populated place","toponymName":"Krasnyy Liman","fcl":"P","name":"Krasnyy Liman","fcode":"PPL","geonameId":541640,"lat":"51.75917","adminName1":"Saratov","population":0},{"countryId":"2017370","adminCode1":"86","countryName":"Russia","fclName":"city, village,...","countryCode":"RU","lng":"38.63361","fcodeName":"populated place","toponymName":"Krasnyy Liman","fcl":"P","name":"Krasnyy Liman","fcode":"PPL","geonameId":806310,"lat":"51.17972","adminName1":"Voronezj","population":0},{"countryId":"690791","adminCode1":"17","countryName":"Ukraine","fclName":"city, village,...","countryCode":"UA","lng":"29.74472","fcodeName":"populated place","toponymName":"Liman","fcl":"P","name":"Liman","fcode":"PPL","geonameId":703076,"lat":"45.67483","adminName1":"Odessa","population":0},{"countryId":"690791","adminCode1":"14","countryName":"Ukraine","fclName":"city, village,...","countryCode":"UA","lng":"39.25318","fcodeName":"populated place","toponymName":"Lyman","fcl":"P","name":"Lyman","fcode":"PPL","geonameId":703073,"lat":"48.66408","adminName1":"Luhansk","population":0},{"countryId":"2017370","adminCode1":"70","countryName":"Russia","fclName":"city, village,...","countryCode":"RU","lng":"42.51556","fcodeName":"populated place","toponymName":"Liman","fcl":"P","name":"Liman","fcode":"PPL","geonameId":535232,"lat":"44.38806","adminName1":"Stavropol'skiy","population":0},{"countryId":"690791","adminCode1":"14","countryName":"Ukraine","fclName":"city, village,...","countryCode":"UA","lng":"38.72","fcodeName":"populated place","toponymName":"Liman","fcl":"P","name":"Liman","fcode":"PPL","geonameId":810283,"lat":"48.30694","adminName1":"Luhansk","population":0},{"countryId":"2017370","adminCode1":"70","countryName":"Russia","fclName":"city, village,...","countryCode":"RU","lng":"42.81806","fcodeName":"populated place","toponymName":"Liman","fcl":"P","name":"Liman","fcode":"PPL","geonameId":805670,"lat":"44.49806","adminName1":"Stavropol'skiy","population":0},{"countryId":"1522867","adminCode1":"07","countryName":"Kazakhstan","fclName":"city, village,...","countryCode":"KZ","lng":"48.76986","fcodeName":"populated place","toponymName":"Bogatyrëvo","fcl":"P","name":"Bogatyrëvo","fcode":"PPL","geonameId":610261,"lat":"50.36732","adminName1":"Batys Qazaqstan","population":0},{"countryId":"298795","adminCode1":"08","countryName":"Turkey","fclName":"city, village,...","countryCode":"TR","lng":"41.49244","fcodeName":"populated place","toponymName":"Liman","fcl":"P","name":"Liman","fcode":"PPL","geonameId":741866,"lat":"41.46696","adminName1":"Artvin","population":0},{"countryId":"2017370","adminCode1":"70","countryName":"Russia","fclName":"city, village,...","countryCode":"RU","lng":"41.63417","fcodeName":"populated place","toponymName":"Liman","fcl":"P","name":"Liman","fcode":"PPL","geonameId":535231,"lat":"45.65917","adminName1":"Stavropol'skiy","population":0},{"countryId":"690791","adminCode1":"04","countryName":"Ukraine","fclName":"city, village,...","countryCode":"UA","lng":"36.28339","fcodeName":"populated place","toponymName":"Chervonyy Lyman","fcl":"P","name":"Chervonyy Lyman","fcode":"PPL","geonameId":704205,"lat":"47.97412","adminName1":"Dnipropetrovsk","population":0},{"countryId":"2017370","adminCode1":"86","countryName":"Russia","fclName":"city, village,...","countryCode":"RU","lng":"39.8632","fcodeName":"populated place","toponymName":"Krasnyy Liman Vtoroy","fcl":"P","name":"Krasnyy Liman Vtoroy","fcode":"PPL","geonameId":541642,"lat":"51.46356","adminName1":"Voronezj","population":0},{"countryId":"2017370","adminCode1":"86","countryName":"Russia","fclName":"city, village,...","countryCode":"RU","lng":"40.8718","fcodeName":"populated place","toponymName":"Rakitnyy Liman","fcl":"P","name":"Rakitnyy Liman","fcode":"PPL","geonameId":807763,"lat":"50.1415","adminName1":"Voronezj","population":0},{"countryId":"2017370","adminCode1":"61","countryName":"Russia","fclName":"city, village,...","countryCode":"RU","lng":"43.4089","fcodeName":"populated place","toponymName":"Tikhiy Liman","fcl":"P","name":"Tikhiy Liman","fcode":"PPL","geonameId":7754043,"lat":"46.308","adminName1":"Rostov","population":0},{"countryId":"2017370","adminCode1":"86","countryName":"Russia","fclName":"city, village,...","countryCode":"RU","lng":"40.07353","fcodeName":"populated place","toponymName":"Ozero Novyy Liman","fcl":"P","name":"Ozero Novyy Liman","fcode":"PPL","geonameId":9113189,"lat":"49.76428","adminName1":"Voronezj","population":0},{"countryId":"690791","adminCode1":"07","countryName":"Ukraine","fclName":"city, village,...","countryCode":"UA","lng":"37.01013","fcodeName":"populated place","toponymName":"Novyy Lyman","fcl":"P","name":"Novyy Lyman","fcode":"PPL","geonameId":811168,"lat":"49.68883","adminName1":"Kharkiv","population":0},{"countryId":"690791","adminCode1":"14","countryName":"Ukraine","fclName":"city, village,...","countryCode":"UA","lng":"38.96886","fcodeName":"populated place","toponymName":"Krasnyy Lyman","fcl":"P","name":"Krasnyy Lyman","fcode":"PPL","geonameId":811392,"lat":"48.72577","adminName1":"Luhansk","population":0},{"countryId":"690791","adminCode1":"07","countryName":"Ukraine","fclName":"city, village,...","countryCode":"UA","lng":"37.87361","fcodeName":"populated place","toponymName":"Lyman Druhyy","fcl":"P","name":"Lyman Druhyy","fcode":"PPL","geonameId":703057,"lat":"49.95444","adminName1":"Kharkiv","population":0},{"countryId":"690791","adminCode1":"18","countryName":"Ukraine","fclName":"city, village,...","countryCode":"UA","lng":"33.98303","fcodeName":"populated place","toponymName":"Lyman Druhyy","fcl":"P","name":"Lyman Druhyy","fcode":"PPL","geonameId":703058,"lat":"49.68809","adminName1":"Poltava","population":0},{"countryId":"690791","adminCode1":"07","countryName":"Ukraine","fclName":"city, village,...","countryCode":"UA","lng":"37.70472","fcodeName":"populated place","toponymName":"Lyman Pershyy","fcl":"P","name":"Lyman Pershyy","fcode":"PPL","geonameId":703063,"lat":"49.79056","adminName1":"Kharkiv","population":0},{"countryId":"690791","adminCode1":"07","countryName":"Ukraine","fclName":"city, village,...","countryCode":"UA","lng":"36.80778","fcodeName":"populated place","toponymName":"Chervonyy Lyman","fcl":"P","name":"Chervonyy Lyman","fcode":"PPL","geonameId":704203,"lat":"49.11222","adminName1":"Kharkiv","population":0},{"countryId":"690791","adminCode1":"18","countryName":"Ukraine","fclName":"city, village,...","countryCode":"UA","lng":"34.12335","fcodeName":"populated place","toponymName":"Liman Pervyy","fcl":"P","name":"Liman Pervyy","fcode":"PPL","geonameId":703064,"lat":"49.46012","adminName1":"Poltava","population":0},{"countryId":"587116","adminCode1":"29","countryName":"Azerbaijan","fclName":"city, village,...","countryCode":"AZ","lng":"48.80834","fcodeName":"populated place","toponymName":"Liman","fcl":"P","name":"Liman","fcode":"PPL","geonameId":147316,"lat":"38.87417","adminName1":"Lənkəran","population":0},{"countryId":"2017370","adminCode1":"61","countryName":"Russia","fclName":"city, village,...","countryCode":"RU","lng":"43.86667","fcodeName":"populated place","toponymName":"Tokarëv-Liman","fcl":"P","name":"Tokarëv-Liman","fcode":"PPL","geonameId":482521,"lat":"46.83333","adminName1":"Rostov","population":0},{"countryId":"1522867","adminCode1":"12","countryName":"Kazakhstan","fclName":"city, village,...","countryCode":"KZ","lng":"72.8","fcodeName":"populated place","toponymName":"Bas-Liman","fcl":"P","name":"Bas-Liman","fcode":"PPL","geonameId":1525702,"lat":"50.13333","adminName1":"Qaraghandy","population":0},{"countryId":"690791","adminCode1":"07","countryName":"Ukraine","fclName":"city, village,...","countryCode":"UA","lng":"36.60026","fcodeName":"populated place","toponymName":"Lyman","fcl":"P","name":"Lyman","fcode":"PPL","geonameId":808842,"lat":"49.00386","adminName1":"Kharkiv","population":0},{"countryId":"690791","adminCode1":"05","countryName":"Ukraine","fclName":"city, village,...","countryCode":"UA","lng":"36.8628","fcodeName":"populated place","toponymName":"Lyman","fcl":"P","name":"Lyman","fcode":"PPL","geonameId":703074,"lat":"48.40876","adminName1":"Donetsk","population":0},{"countryId":"1522867","adminCode1":"00","countryName":"Kazakhstan","fclName":"city, village,...","countryCode":"KZ","lng":"48.66667","fcodeName":"populated place","toponymName":"Krivoy Liman","fcl":"P","name":"Krivoy Liman","fcode":"PPL","geonameId":609169,"lat":"50.46667","adminName1":"","population":0},{"countryId":"2017370","adminCode1":"38","countryName":"Russia","fclName":"city, village,...","countryCode":"RU","lng":"40.31667","fcodeName":"populated place","toponymName":"Shirokiy Liman","fcl":"P","name":"Shirokiy Liman","fcode":"PPL","geonameId":802863,"lat":"45.265","adminName1":"Krasnodarskiy","population":0},{"countryId":"690791","adminCode1":"07","countryName":"Ukraine","fclName":"city, village,...","countryCode":"UA","lng":"36.90385","fcodeName":"populated place","toponymName":"Zhovtneve","fcl":"P","name":"Zhovtneve","fcode":"PPL","geonameId":687068,"lat":"50.24281","adminName1":"Kharkiv","population":0},{"countryId":"298795","adminCode1":"10","countryName":"Turkey","fclName":"city, village,...","countryCode":"TR","lng":"27.60774","fcodeName":"populated place","toponymName":"Paşalimanı","fcl":"P","name":"Paşalimanı","fcode":"PPL","geonameId":740691,"lat":"40.48922","adminName1":"Balıkesir","population":0},{"countryId":"298795","adminCode1":"39","countryName":"Turkey","fclName":"city, village,...","countryCode":"TR","lng":"28.04904","fcodeName":"populated place","toponymName":"Limanköy","fcl":"P","name":"Limanköy","fcode":"PPL","geonameId":741865,"lat":"41.8849","adminName1":"Kırklareli","population":0},{"countryId":"2017370","adminCode1":"70","countryName":"Russia","fclName":"city, village,...","countryCode":"RU","lng":"41.7625","fcodeName":"populated place","toponymName":"Limanovskiy","fcl":"P","name":"Limanovskiy","fcode":"PPL","geonameId":535214,"lat":"45.14778","adminName1":"Stavropol'skiy","population":0},{"countryId":"690791","adminCode1":"05","countryName":"Ukraine","fclName":"city, village,...","countryCode":"UA","lng":"37.24026","fcodeName":"populated place","toponymName":"Krasnyy Lyman","fcl":"P","name":"Krasnyy Lyman","fcode":"PPL","geonameId":9112128,"lat":"48.34252","adminName1":"Donetsk","population":0},{"countryId":"690791","adminCode1":"14","countryName":"Ukraine","fclName":"city, village,...","countryCode":"UA","lng":"38.74439","fcodeName":"populated place","toponymName":"Chervonyy Lyman","fcl":"P","name":"Chervonyy Lyman","fcode":"PPL","geonameId":9114627,"lat":"48.62158","adminName1":"Luhansk","population":0},{"countryId":"690791","adminCode1":"07","countryName":"Ukraine","fclName":"city, village,...","countryCode":"UA","lng":"36.05861","fcodeName":"populated place","toponymName":"Krasna Hipka","fcl":"P","name":"Krasna Hipka","fcode":"PPL","geonameId":808495,"lat":"49.02222","adminName1":"Kharkiv","population":0},{"countryId":"690791","adminCode1":"17","countryName":"Ukraine","fclName":"city, village,...","countryCode":"UA","lng":"30.6458","fcodeName":"populated place","toponymName":"Sukhyy Lyman","fcl":"P","name":"Sukhyy Lyman","fcode":"PPL","geonameId":692210,"lat":"46.39213","adminName1":"Odessa","population":0}]}