{"totalResultsCount":11,"geonames":[{"adminCode1":"05","lng":"37.80225","geonameId":704204,"toponymName":"Krasnyy Lyman","countryId":"690791","fcl":"P","population":28200,"countryCode":"UA","name":"Krasniy Liman","fclName":"city, village,...","countryName":"Ukraine","fcodeName":"seat of a second-order administrative division","adminName1":"Donetsk","lat":"48.98837","fcode":"PPLA2"},{"adminCode1":"07","lng":"36.4703","geonameId":703071,"toponymName":"Lyman","countryId":"690791","fcl":"P","population":4008,"countryCode":"UA","name":"Lyman","fclName":"city, village,...","countryName":"Ukraine","fcodeName":"populated place","adminName1":"Kharkiv","lat":"49.59769","fcode":"PPL"},{"adminCode1":"07","lng":"37.87361","geonameId":703057,"toponymName":"Lyman Druhyy","countryId":"690791","fcl":"P","population":0,"countryCode":"UA","name":"Lyman Druhyy","fclName":"city, village,...","countryName":"Ukraine","fcodeName":"populated place","adminName1":"Kharkiv","lat":"49.95444","fcode":"PPL"},{"adminCode1":"18","lng":"33.98303","geonameId":703058,"toponymName":"Lyman Druhyy","countryId":"690791","fcl":"P","population":0,"countryCode":"UA","name":"Lyman Druhyy","fclName":"city, village,...","countryName":"Ukraine","fcodeName":"populated place","adminName1":"Poltava","lat":"49.68809","fcode":"PPL"},{"adminCode1":"07","lng":"37.70472","geonameId":703063,"toponymName":"Lyman Pershyy","countryId":"690791","fcl":"P","population":0,"countryCode":"UA","name":"Lyman Pershyy","fclName":"city, village,...","countryName":"Ukraine","fcodeName":"populated place","adminName1":"Kharkiv","lat":"49.79056","fcode":"PPL"},{"adminCode1":"07","lng":"36.80778","geonameId":704203,"toponymName":"Chervonyy Lyman","countryId":"690791","fcl":"P","population":0,"countryCode":"UA","name":"Chervonyy Lyman","fclName":"city, village,...","countryName":"Ukraine","fcodeName":"populated place","adminName1":"Kharkiv","lat":"49.11222","fcode":"PPL"},{"adminCode1":"07","lng":"37.01013","geonameId":811168,"toponymName":"Novyy Lyman","countryId":"690791","fcl":"P","population":0,"countryCode":"UA","name":"Novyy Lyman","fclName":"city, village,...","countryName":"Ukraine","fcodeName":"populated place","adminName1":"Kharkiv","lat":"49.68883","fcode":"PPL"},{"adminCode1":"18","lng":"34.12335","geonameId":703064,"toponymName":"Liman Pervyy","countryId":"690791","fcl":"P","population":0,"countryCode":"UA","name":"Liman Pervyy","fclName":"city, village,...","countryName":"Ukraine","fcodeName":"populated place","adminName1":"Poltava","lat":"49.46012","fcode":"PPL"},{"adminCode1":"07","lng":"36.60026","geonameId":808842,"toponymName":"Lyman","countryId":"690791","fcl":"P","population":0,"countryCode":"UA","name":"Lyman","fclName":"city, village,...","countryName":"Ukraine","fcodeName":"populated place","adminName1":"Kharkiv","lat":"49.00386","fcode":"PPL"},{"adminCode1":"07","lng":"36.90385","geonameId":687068,"toponymName":"Zhovtneve","countryId":"690791","fcl":"P","population":0,"countryCode":"UA","name":"Zhovtneve","fclName":"city, village,...","countryName":"Ukraine","fcodeName":"populated place","adminName1":"Kharkiv","lat":"50.24281","fcode":"PPL"},{"adminCode1":"07","lng":"36.05861","geonameId":808495,"toponymName":"Krasna Hipka","countryId":"690791","fcl":"P","population":0,"countryCode":"UA","name":"Krasna Hipka","fclName":"city, village,...","countryName":"Ukraine","fcodeName":"populated place","adminName1":"Kharkiv","lat":"49.02222","fcode":"PPL"}]}