{"totalResultsCount":514,"geonames":[{"adminCode1":"70","lng":"43.02167","geonameId":535230,"toponymName":"Liman","countryId":"2017370","fcl":"P","population":0,"countryCode":"RU","name":"Liman","fclName":"city, village,...","countryName":"Russia","fcodeName":"populated place","adminName1":"Stavropol'skiy","lat":"45.74","fcode":"PPL"},{"adminCode1":"07","lng":"47.22405","geonameId":535229,"toponymName":"Liman","countryId":"2017370","fcl":"P","population":8858,"countryCode":"RU","name":"Liman","fclName":"city, village,...","countryName":"Russia","fcodeName":"populated place","adminName1":"Astrakhan","lat":"45.78457","fcode":"PPL"},{"adminCode1":"55","lng":"58.88333","geonameId":535226,"toponymName":"Liman","countryId":"2017370","fcl":"P","population":0,"countryCode":"RU","name":"Liman","fclName":"city, village,...","countryName":"Russia","fcodeName":"populated place","adminName1":"Orenburg","lat":"51.61667","fcode":"PPL"},{"adminCode1":"24","lng":"44.91667","geonameId":504310,"toponymName":"Liman Ptichiy","countryId":"2017370","fcl":"H","population":0,"countryCode":"RU","name":"Liman Ptichiy","fclName":"stream, lake, ...","countryName":"Russia","fcodeName":"lake","adminName1":"Kalmykiya","lat":"46.88333","fcode":"LK"},{"adminCode1":"61","lng":"40.71657","geonameId":801837,"toponymName":"Liman Shakhayevskiy","countryId":"2017370","fcl":"H","population":0,"countryCode":"RU","name":"Liman Shakhayevskiy","fclName":"stream, lake, ...","countryName":"Russia","fcodeName":"lake","adminName1":"Rostov","lat":"47.18166","fcode":"LK"},{"adminCode1":"56","lng":"37.73899","geonameId":535225,"toponymName":"Liman’","countryId":"2017370","fcl":"P","population":0,"countryCode":"RU","name":"Liman’","fclName":"city, village,...","countryName":"Russia","fcodeName":"populated place","adminName1":"Orjol","lat":"52.18975","fcode":"PPL"},{"adminCode1":"86","lng":"40.94778","geonameId":535227,"toponymName":"Liman","countryId":"2017370","fcl":"P","population":0,"countryCode":"RU","name":"Liman","fclName":"city, village,...","countryName":"Russia","fcodeName":"populated place","adminName1":"Voronezj","lat":"51.36667","fcode":"PPL"},{"adminCode1":"86","lng":"39.75716","geonameId":535228,"toponymName":"Liman","countryId":"2017370","fcl":"P","population":0,"countryCode":"RU","name":"Liman","fclName":"city, village,...","countryName":"Russia","fcodeName":"populated place","adminName1":"Voronezj","lat":"49.89865","fcode":"PPL"},{"adminCode1":"30","lng":"141.25","geonameId":2123743,"toponymName":"Liman","countryId":"2017370","fcl":"P","population":0,"countryCode":"RU","name":"Liman","fclName":"city, village,...","countryName":"Russia","fcodeName":"populated place","adminName1":"Khabarovsk Krai","lat":"52.73333","fcode":"PPL"},{"adminCode1":"86","lng":"40.61914","geonameId":809256,"toponymName":"Liman","countryId":"2017370","fcl":"P","population":0,"countryCode":"RU","name":"Liman","fclName":"city, village,...","countryName":"Russia","fcodeName":"populated place","adminName1":"Voronezj","lat":"49.64642","fcode":"PPL"},{"adminCode1":"41","lng":"36.3526","geonameId":7451735,"toponymName":"Liman","countryId":"2017370","fcl":"P","population":0,"countryCode":"RU","name":"Liman","fclName":"city, village,...","countryName":"Russia","fcodeName":"populated place","adminName1":"Kursk","lat":"52.0948","fcode":"PPL"},{"adminCode1":"07","lng":"36.4703","geonameId":703071,"toponymName":"Lyman","countryId":"690791","fcl":"P","population":4008,"countryCode":"UA","name":"Lyman","fclName":"city, village,...","countryName":"Ukraine","fcodeName":"populated place","adminName1":"Kharkiv","lat":"49.59769","fcode":"PPL"},{"adminCode1":"89","lng":"134.3059","geonameId":6417807,"toponymName":"Ozero Liman","countryId":"2017370","fcl":"H","population":0,"countryCode":"RU","name":"Ozero Liman","fclName":"stream, lake, ...","countryName":"Russia","fcodeName":"lake","adminName1":"Jewish Autonomous","lat":"48.4238","fcode":"LK"},{"adminCode1":"92","lng":"158.50556","geonameId":2118571,"toponymName":"Ozero Liman","countryId":"2017370","fcl":"H","population":0,"countryCode":"RU","name":"Ozero Liman","fclName":"stream, lake, ...","countryName":"Russia","fcodeName":"lake","adminName1":"Kamtsjatka","lat":"52.81944","fcode":"LK"},{"adminCode1":"61","lng":"39.72758","geonameId":857658,"toponymName":"Ozero Liman","countryId":"2017370","fcl":"H","population":0,"countryCode":"RU","name":"Ozero Liman","fclName":"stream, lake, ...","countryName":"Russia","fcodeName":"lake","adminName1":"Rostov","lat":"47.1735","fcode":"LK"},{"adminCode1":"61","lng":"40.83346","geonameId":810021,"toponymName":"Liman","countryId":"2017370","fcl":"P","population":0,"countryCode":"RU","name":"Liman","fclName":"city, village,...","countryName":"Russia","fcodeName":"populated place","adminName1":"Rostov","lat":"49.14958","fcode":"PPL"},{"adminCode1":"05","lng":"37.80225","geonameId":704204,"toponymName":"Krasnyy Lyman","countryId":"690791","fcl":"P","population":28200,"countryCode":"UA","name":"Krasniy Liman","fclName":"city, village,...","countryName":"Ukraine","fcodeName":"seat of a second-order administrative division","adminName1":"Donetsk","lat":"48.98837","fcode":"PPLA2"},{"adminCode1":"00","lng":"48.08333","geonameId":610149,"toponymName":"Buzayskiy Liman","countryId":"1522867","fcl":"H","population":0,"countryCode":"KZ","name":"Buzayskiy Liman","fclName":"stream, lake, ...","countryName":"Kazakhstan","fcodeName":"lake","adminName1":"","lat":"50.03333","fcode":"LK"},{"adminCode1":"00","lng":"29.58956","geonameId":687228,"toponymName":"Liman Zhebriyanskiy","countryId":"690791","fcl":"H","population":0,"countryCode":"UA","name":"Liman Zhebriyanskiy","fclName":"stream, lake, ...","countryName":"Ukraine","fcodeName":"lake","adminName1":"","lat":"45.50261","fcode":"LK"},{"adminCode1":"67","lng":"29.58917","geonameId":829971,"toponymName":"Lacul Liman","countryId":"617790","fcl":"H","population":0,"countryCode":"MD","name":"Lacul Liman","fclName":"stream, lake, ...","countryName":"Moldova","fcodeName":"lake","adminName1":"Căuşeni","lat":"46.79111","fcode":"LK"},{"adminCode1":"38","lng":"37.45594","geonameId":798509,"toponymName":"Liman Kruglyy","countryId":"2017370","fcl":"H","population":0,"countryCode":"RU","name":"Liman Kruglyy","fclName":"stream, lake, ...","countryName":"Russia","fcodeName":"lake","adminName1":"Krasnodarskiy","lat":"45.21427","fcode":"LK"},{"adminCode1":"67","lng":"48.4309","geonameId":7760758,"toponymName":"Liman Guzev","countryId":"2017370","fcl":"H","population":0,"countryCode":"RU","name":"Liman Guzev","fclName":"stream, lake, ...","countryName":"Russia","fcodeName":"lake","adminName1":"Saratov","lat":"51.0517","fcode":"LK"},{"adminCode1":"24","lng":"42.1689","geonameId":7752267,"toponymName":"Liman Sladkiy","countryId":"2017370","fcl":"H","population":0,"countryCode":"RU","name":"Liman Sladkiy","fclName":"stream, lake, ...","countryName":"Russia","fcodeName":"lake","adminName1":"Kalmykiya","lat":"46.0669","fcode":"LK"},{"adminCode1":"24","lng":"42.4114","geonameId":7752273,"toponymName":"Liman Golyy","countryId":"2017370","fcl":"H","population":0,"countryCode":"RU","name":"Liman Golyy","fclName":"stream, lake, ...","countryName":"Russia","fcodeName":"lake","adminName1":"Kalmykiya","lat":"46.0773","fcode":"LK"},{"adminCode1":"24","lng":"42.4285","geonameId":7752274,"toponymName":"Liman Khurulyun","countryId":"2017370","fcl":"H","population":0,"countryCode":"RU","name":"Liman Khurulyun","fclName":"stream, lake, ...","countryName":"Russia","fcodeName":"lake","adminName1":"Kalmykiya","lat":"46.0957","fcode":"LK"},{"adminCode1":"86","lng":"40.91443","geonameId":516968,"toponymName":"Novyy Liman","countryId":"2017370","fcl":"P","population":0,"countryCode":"RU","name":"Novyy Liman","fclName":"city, village,...","countryName":"Russia","fcodeName":"populated place","adminName1":"Voronezj","lat":"49.95011","fcode":"PPL"},{"adminCode1":"70","lng":"42.46639","geonameId":492179,"toponymName":"Ozero Sladkiy Liman","countryId":"2017370","fcl":"H","population":0,"countryCode":"RU","name":"Ozero Sladkiy Liman","fclName":"stream, lake, ...","countryName":"Russia","fcodeName":"lake","adminName1":"Stavropol'skiy","lat":"45.98083","fcode":"LK"},{"adminCode1":"38","lng":"37.525","geonameId":867275,"toponymName":"Ozero Sladkiy Liman","countryId":"2017370","fcl":"H","population":0,"countryCode":"RU","name":"Ozero Sladkiy Liman","fclName":"stream, lake, ...","countryName":"Russia","fcodeName":"lake","adminName1":"Krasnodarskiy","lat":"44.68528","fcode":"LK"},{"adminCode1":"61","lng":"40.48583","geonameId":535223,"toponymName":"Ozero Liman-Bol’shoy","countryId":"2017370","fcl":"H","population":0,"countryCode":"RU","name":"Ozero Liman-Bol’shoy","fclName":"stream, lake, ...","countryName":"Russia","fcodeName":"lake","adminName1":"Rostov","lat":"47.21861","fcode":"LK"},{"adminCode1":"38","lng":"38.79837","geonameId":492180,"toponymName":"Sladkiy Liman","countryId":"2017370","fcl":"P","population":0,"countryCode":"RU","name":"Sladkiy Liman","fclName":"city, village,...","countryName":"Russia","fcodeName":"populated place","adminName1":"Krasnodarskiy","lat":"46.18338","fcode":"PPL"},{"adminCode1":"86","lng":"39.84912","geonameId":541641,"toponymName":"Krasnyy Liman","countryId":"2017370","fcl":"P","population":0,"countryCode":"RU","name":"Krasnyy Liman","fclName":"city, village,...","countryName":"Russia","fcodeName":"populated place","adminName1":"Voronezj","lat":"51.53828","fcode":"PPL"},{"adminCode1":"26","lng":"36.85417","geonameId":802012,"toponymName":"Liman Krasnoper","countryId":"690791","fcl":"H","population":0,"countryCode":"UA","name":"Liman Krasnoper","fclName":"stream, lake, ...","countryName":"Ukraine","fcodeName":"lake","adminName1":"Zaporizhia","lat":"46.75694","fcode":"LK"},{"adminCode1":"14","lng":"38.94361","geonameId":703072,"toponymName":"Lyman","countryId":"690791","fcl":"P","population":0,"countryCode":"UA","name":"Liman","fclName":"city, village,...","countryName":"Ukraine","fcodeName":"populated place","adminName1":"Luhansk","lat":"49.34521","fcode":"PPL"},{"adminCode1":"17","lng":"29.96748","geonameId":703075,"toponymName":"Liman","countryId":"690791","fcl":"P","population":0,"countryCode":"UA","name":"Liman","fclName":"city, village,...","countryName":"Ukraine","fcodeName":"populated place","adminName1":"Odessa","lat":"45.90185","fcode":"PPL"},{"adminCode1":"64","lng":"144.51163","geonameId":2123742,"toponymName":"Gora Liman","countryId":"2017370","fcl":"T","population":0,"countryCode":"RU","name":"Gora Liman","fclName":"mountain,hill,rock,... ","countryName":"Russia","fcodeName":"hill","adminName1":"Sakhalin","lat":"48.95212","fcode":"HLL"},{"adminCode1":"92","lng":"155.61182","geonameId":2117976,"toponymName":"Gora Liman","countryId":"2017370","fcl":"T","population":0,"countryCode":"RU","name":"Gora Liman","fclName":"mountain,hill,rock,... ","countryName":"Russia","fcodeName":"hill","adminName1":"Kamtsjatka","lat":"55.55978","fcode":"HLL"},{"adminCode1":"00","lng":"38.94856","geonameId":7780823,"toponymName":"Ozero Babinyy Liman","countryId":"2017370","fcl":"H","population":0,"countryCode":"RU","name":"Ozero Babinyy Liman","fclName":"stream, lake, ...","countryName":"Russia","fcodeName":"lake","adminName1":"","lat":"46.63259","fcode":"LK"},{"adminCode1":"00","lng":"38.91108","geonameId":7780831,"toponymName":"Ozero Moshin Liman","countryId":"2017370","fcl":"H","population":0,"countryCode":"RU","name":"Ozero Moshin Liman","fclName":"stream, lake, ...","countryName":"Russia","fcodeName":"lake","adminName1":"","lat":"46.63196","fcode":"LK"},{"adminCode1":"38","lng":"38.8078","geonameId":6818723,"toponymName":"Ozero Kiyashkin Liman","countryId":"2017370","fcl":"H","population":0,"countryCode":"RU","name":"Ozero Kiyashkin Liman","fclName":"stream, lake, ...","countryName":"Russia","fcodeName":"lake","adminName1":"Krasnodarskiy","lat":"46.6438","fcode":"LK"},{"adminCode1":"24","lng":"45.17217","geonameId":7044595,"toponymName":"Liman Khutsin-Tolga","countryId":"2017370","fcl":"H","population":0,"countryCode":"RU","name":"Liman Khutsin-Tolga","fclName":"stream, lake, ...","countryName":"Russia","fcodeName":"lake","adminName1":"Kalmykiya","lat":"48.06079","fcode":"LK"},{"adminCode1":"84","lng":"45.0128","geonameId":798260,"toponymName":"Isparitel’ Bol’shoy Liman","countryId":"2017370","fcl":"H","population":0,"countryCode":"RU","name":"Isparitel’ Bol’shoy Liman","fclName":"stream, lake, ...","countryName":"Russia","fcodeName":"lake","adminName1":"Volgograd","lat":"48.7995","fcode":"LK"},{"adminCode1":"38","lng":"37.09109","geonameId":547851,"toponymName":"Kiziltashskiy Liman","countryId":"2017370","fcl":"H","population":0,"countryCode":"RU","name":"Kiziltashskiy Liman","fclName":"stream, lake, ...","countryName":"Russia","fcodeName":"lagoon","adminName1":"Krasnodarskiy","lat":"45.12401","fcode":"LGN"},{"adminCode1":"70","lng":"41.77","geonameId":802566,"toponymName":"Ozero Novomar’yevskiy Liman","countryId":"2017370","fcl":"H","population":0,"countryCode":"RU","name":"Ozero Novomar’yevskiy Liman","fclName":"stream, lake, ...","countryName":"Russia","fcodeName":"lake","adminName1":"Stavropol'skiy","lat":"45.14417","fcode":"LK"},{"adminCode1":"61","lng":"41.74404","geonameId":540872,"toponymName":"Krivoy Liman","countryId":"2017370","fcl":"P","population":0,"countryCode":"RU","name":"Krivoy Liman","fclName":"city, village,...","countryName":"Russia","fcodeName":"populated place","adminName1":"Rostov","lat":"47.24624","fcode":"PPL"},{"adminCode1":"67","lng":"42.80778","geonameId":541640,"toponymName":"Krasnyy Liman","countryId":"2017370","fcl":"P","population":0,"countryCode":"RU","name":"Krasnyy Liman","fclName":"city, village,...","countryName":"Russia","fcodeName":"populated place","adminName1":"Saratov","lat":"51.75917","fcode":"PPL"},{"adminCode1":"00","lng":"29.56244","geonameId":711773,"toponymName":"Liman Bol’she-Solënyy","countryId":"690791","fcl":"H","population":0,"countryCode":"UA","name":"Liman Bol’she-Solënyy","fclName":"stream, lake, ...","countryName":"Ukraine","fcodeName":"lake","adminName1":"","lat":"45.53623","fcode":"LK"},{"adminCode1":"86","lng":"38.63361","geonameId":806310,"toponymName":"Krasnyy Liman","countryId":"2017370","fcl":"P","population":0,"countryCode":"RU","name":"Krasnyy Liman","fclName":"city, village,...","countryName":"Russia","fcodeName":"populated place","adminName1":"Voronezj","lat":"51.17972","fcode":"PPL"},{"adminCode1":"07","lng":"36.5227","geonameId":703067,"toponymName":"Ozero Lyman","countryId":"690791","fcl":"H","population":0,"countryCode":"UA","name":"Ozero Lyman","fclName":"stream, lake, ...","countryName":"Ukraine","fcodeName":"lake","adminName1":"Kharkiv","lat":"49.56423","fcode":"LK"},{"adminCode1":"17","lng":"29.74472","geonameId":703076,"toponymName":"Liman","countryId":"690791","fcl":"P","population":0,"countryCode":"UA","name":"Liman","fclName":"city, village,...","countryName":"Ukraine","fcodeName":"populated place","adminName1":"Odessa","lat":"45.67483","fcode":"PPL"},{"adminCode1":"05","lng":"37.20602","geonameId":695581,"toponymName":"Rodyns’ke","countryId":"690791","fcl":"P","population":11550,"countryCode":"UA","name":"Rodinskoye","fclName":"city, village,...","countryName":"Ukraine","fcodeName":"populated place","adminName1":"Donetsk","lat":"48.35199","fcode":"PPL"},{"adminCode1":"00","lng":"29.66289","geonameId":694772,"toponymName":"Ozero Sasyk","countryId":"690791","fcl":"H","population":0,"countryCode":"UA","name":"Ozero Sasyk","fclName":"stream, lake, ...","countryName":"Ukraine","fcodeName":"lake","adminName1":"","lat":"45.66036","fcode":"LK"},{"adminCode1":"38","lng":"37.17632","geonameId":583809,"toponymName":"Akhtanizovskiy Liman","countryId":"2017370","fcl":"H","population":0,"countryCode":"RU","name":"Akhtanizovskiy Liman","fclName":"stream, lake, ...","countryName":"Russia","fcodeName":"lagoon","adminName1":"Krasnodarskiy","lat":"45.29664","fcode":"LGN"},{"adminCode1":"70","lng":"42.51556","geonameId":535232,"toponymName":"Liman","countryId":"2017370","fcl":"P","population":0,"countryCode":"RU","name":"Liman","fclName":"city, village,...","countryName":"Russia","fcodeName":"populated place","adminName1":"Stavropol'skiy","lat":"44.38806","fcode":"PPL"},{"adminCode1":"24","lng":"45","geonameId":548663,"toponymName":"Liman Kimchin","countryId":"2017370","fcl":"H","population":0,"countryCode":"RU","name":"Liman Kimchin","fclName":"stream, lake, ...","countryName":"Russia","fcodeName":"lake","adminName1":"Kalmykiya","lat":"46.81667","fcode":"LK"},{"adminCode1":"24","lng":"7.08097","geonameId":2332008,"toponymName":"Liman","countryId":"2328926","fcl":"P","population":0,"countryCode":"NG","name":"Liman","fclName":"city, village,...","countryName":"Nigeria","fcodeName":"populated place","adminName1":"Katsina","lat":"11.53079","fcode":"PPL"},{"adminCode1":"05","lng":"68.39153","geonameId":1418804,"toponymName":"Limān","countryId":"1168579","fcl":"P","population":0,"countryCode":"PK","name":"Limān","fclName":"city, village,...","countryName":"Pakistan","fcodeName":"populated place","adminName1":"Sindh","lat":"28.15569","fcode":"PPL"},{"adminCode1":"12","lng":"21.71667","geonameId":242925,"toponymName":"Liman","countryId":"2434508","fcl":"P","population":0,"countryCode":"TD","name":"Liman","fclName":"city, village,...","countryName":"Chad","fcodeName":"populated place","adminName1":"Ouaddaï","lat":"13.26667","fcode":"PPL"},{"adminCode1":"55","lng":"36.03333","geonameId":741867,"toponymName":"Liman Göl","countryId":"298795","fcl":"H","population":0,"countryCode":"TR","name":"Liman Göl","fclName":"stream, lake, ...","countryName":"Turkey","fcodeName":"lake","adminName1":"Samsun","lat":"41.71667","fcode":"LK"},{"adminCode1":"55","lng":"36.01667","geonameId":741868,"toponymName":"Liman Göl","countryId":"298795","fcl":"H","population":0,"countryCode":"TR","name":"Liman Göl","fclName":"stream, lake, ...","countryName":"Turkey","fcodeName":"lake","adminName1":"Samsun","lat":"41.7","fcode":"LK"},{"adminCode1":"61","lng":"40.54528","geonameId":828650,"toponymName":"Liman Zapadenskiy","countryId":"2017370","fcl":"H","population":0,"countryCode":"RU","name":"Liman Zapadenskiy","fclName":"stream, lake, ...","countryName":"Russia","fcodeName":"lake","adminName1":"Rostov","lat":"47.19417","fcode":"LK"},{"adminCode1":"14","lng":"40.01619","geonameId":808708,"toponymName":"Ozero Liman","countryId":"690791","fcl":"H","population":0,"countryCode":"UA","name":"Ozero Liman","fclName":"stream, lake, ...","countryName":"Ukraine","fcodeName":"lake","adminName1":"Luhansk","lat":"49.46574","fcode":"LK"},{"adminCode1":"86","lng":"40.1625","geonameId":808909,"toponymName":"Ozero Liman","countryId":"2017370","fcl":"H","population":0,"countryCode":"RU","name":"Ozero Liman","fclName":"stream, lake, ...","countryName":"Russia","fcodeName":"lake","adminName1":"Voronezj","lat":"49.76222","fcode":"LK"},{"adminCode1":"14","lng":"38.72","geonameId":810283,"toponymName":"Liman","countryId":"690791","fcl":"P","population":0,"countryCode":"UA","name":"Liman","fclName":"city, village,...","countryName":"Ukraine","fcodeName":"populated place","adminName1":"Luhansk","lat":"48.30694","fcode":"PPL"},{"adminCode1":"24","lng":"42.25729","geonameId":804217,"toponymName":"Liman Ulyun","countryId":"2017370","fcl":"H","population":0,"countryCode":"RU","name":"Liman Ulyun","fclName":"stream, lake, ...","countryName":"Russia","fcodeName":"lake","adminName1":"Kalmykiya","lat":"46.42551","fcode":"LK"},{"adminCode1":"24","lng":"42.29361","geonameId":804220,"toponymName":"Liman Khulsan","countryId":"2017370","fcl":"H","population":0,"countryCode":"RU","name":"Liman Khulsan","fclName":"stream, lake, ...","countryName":"Russia","fcodeName":"lake","adminName1":"Kalmykiya","lat":"46.45667","fcode":"LK"},{"adminCode1":"70","lng":"42.45306","geonameId":805019,"toponymName":"Liman Gor’kiy","countryId":"2017370","fcl":"H","population":0,"countryCode":"RU","name":"Liman Gor’kiy","fclName":"stream, lake, ...","countryName":"Russia","fcodeName":"lake","adminName1":"Stavropol'skiy","lat":"45.96667","fcode":"LK"},{"adminCode1":"70","lng":"42.81806","geonameId":805670,"toponymName":"Liman","countryId":"2017370","fcl":"P","population":0,"countryCode":"RU","name":"Liman","fclName":"city, village,...","countryName":"Russia","fcodeName":"populated place","adminName1":"Stavropol'skiy","lat":"44.49806","fcode":"PPL"},{"adminCode1":"38","lng":"37.82417","geonameId":798474,"toponymName":"Liman Lozovatnyy","countryId":"2017370","fcl":"H","population":0,"countryCode":"RU","name":"Liman Lozovatnyy","fclName":"stream, lake, ...","countryName":"Russia","fcodeName":"lake","adminName1":"Krasnodarskiy","lat":"45.58917","fcode":"LK"},{"adminCode1":"38","lng":"37.84972","geonameId":798477,"toponymName":"Liman Komarinyy","countryId":"2017370","fcl":"H","population":0,"countryCode":"RU","name":"Liman Komarinyy","fclName":"stream, lake, ...","countryName":"Russia","fcodeName":"lake","adminName1":"Krasnodarskiy","lat":"45.62028","fcode":"LK"},{"adminCode1":"38","lng":"37.39556","geonameId":798510,"toponymName":"Liman Rachinskogo","countryId":"2017370","fcl":"H","population":0,"countryCode":"RU","name":"Liman Rachinskogo","fclName":"stream, lake, ...","countryName":"Russia","fcodeName":"lake","adminName1":"Krasnodarskiy","lat":"45.18528","fcode":"LK"},{"adminCode1":"38","lng":"37.48694","geonameId":798511,"toponymName":"Liman Smolyanyy","countryId":"2017370","fcl":"H","population":0,"countryCode":"RU","name":"Liman Smolyanyy","fclName":"stream, lake, ...","countryName":"Russia","fcodeName":"lake","adminName1":"Krasnodarskiy","lat":"45.19889","fcode":"LK"},{"adminCode1":"38","lng":"37.4225","geonameId":798512,"toponymName":"Liman Zapadnyy","countryId":"2017370","fcl":"H","population":0,"countryCode":"RU","name":"Liman Zapadnyy","fclName":"stream, lake, ...","countryName":"Russia","fcodeName":"lake","adminName1":"Krasnodarskiy","lat":"45.20639","fcode":"LK"},{"adminCode1":"00","lng":"32.85","geonameId":703068,"toponymName":"Ozero Liman","countryId":"690791","fcl":"H","population":0,"countryCode":"UA","name":"Ozero Liman","fclName":"stream, lake, ...","countryName":"Ukraine","fcodeName":"lake","adminName1":"","lat":"49.45","fcode":"LK"},{"adminCode1":"00","lng":"37.78631","geonameId":703069,"toponymName":"Ozero Liman","countryId":"690791","fcl":"H","population":0,"countryCode":"UA","name":"Ozero Liman","fclName":"stream, lake, ...","countryName":"Ukraine","fcodeName":"lake","adminName1":"","lat":"48.99553","fcode":"LK"},{"adminCode1":"14","lng":"39.25318","geonameId":703073,"toponymName":"Lyman","countryId":"690791","fcl":"P","population":0,"countryCode":"UA","name":"Lyman","fclName":"city, village,...","countryName":"Ukraine","fcodeName":"populated place","adminName1":"Luhansk","lat":"48.66408","fcode":"PPL"},{"adminCode1":"24","lng":"43.1562","geonameId":7754047,"toponymName":"Liman Bol’shoy Utkin","countryId":"2017370","fcl":"H","population":0,"countryCode":"RU","name":"Liman Bol’shoy Utkin","fclName":"stream, lake, ...","countryName":"Russia","fcodeName":"lake","adminName1":"Kalmykiya","lat":"46.265","fcode":"LK"},{"adminCode1":"24","lng":"7.29313","geonameId":7019016,"toponymName":"Liman","countryId":"2328926","fcl":"P","population":0,"countryCode":"NG","name":"Liman","fclName":"city, village,...","countryName":"Nigeria","fcodeName":"populated place","adminName1":"Katsina","lat":"11.86465","fcode":"PPL"},{"adminCode1":"24","lng":"7.01574","geonameId":7019215,"toponymName":"Liman","countryId":"2328926","fcl":"P","population":0,"countryCode":"NG","name":"Liman","fclName":"city, village,...","countryName":"Nigeria","fcodeName":"populated place","adminName1":"Katsina","lat":"11.6604","fcode":"PPL"},{"adminCode1":"46","lng":"9.7496","geonameId":9412587,"toponymName":"Liman Katagum","countryId":"2328926","fcl":"A","population":0,"countryCode":"NG","name":"Liman Katagum","fclName":"country, state, region,...","countryName":"Nigeria","fcodeName":"third-order administrative division","adminName1":"Bauchi","lat":"10.09153","fcode":"ADM3"},{"adminCode1":"17","lng":"31.01667","geonameId":702023,"toponymName":"Hryhorivs’kyy Lyman","countryId":"690791","fcl":"H","population":0,"countryCode":"UA","name":"Hryhorivs’kyy Lyman","fclName":"stream, lake, ...","countryName":"Ukraine","fcodeName":"lake","adminName1":"Odessa","lat":"46.63209","fcode":"LK"},{"adminCode1":"17","lng":"49.07427","geonameId":587333,"toponymName":"Liman Akzybir","countryId":"587116","fcl":"H","population":0,"countryCode":"AZ","name":"Liman Akzybir","fclName":"stream, lake, ...","countryName":"Azerbaijan","fcodeName":"lake","adminName1":"Shabran","lat":"41.28887","fcode":"LK"},{"adminCode1":"08","lng":"50.37497","geonameId":125677,"toponymName":"Līman Jūb","countryId":"130758","fcl":"P","population":0,"countryCode":"IR","name":"Līman Jūb","fclName":"city, village,...","countryName":"Iran","fcodeName":"populated place","adminName1":"Gīlān","lat":"37.07656","fcode":"PPL"},{"adminCode1":"38","lng":"37.99159","geonameId":541862,"toponymName":"Krasnyy Liman","countryId":"2017370","fcl":"H","population":0,"countryCode":"RU","name":"Krasnyy Liman","fclName":"stream, lake, ...","countryName":"Russia","fcodeName":"lagoon","adminName1":"Krasnodarskiy","lat":"45.97781","fcode":"LGN"},{"adminCode1":"70","lng":"41.63417","geonameId":535231,"toponymName":"Liman","countryId":"2017370","fcl":"P","population":0,"countryCode":"RU","name":"Liman","fclName":"city, village,...","countryName":"Russia","fcodeName":"populated place","adminName1":"Stavropol'skiy","lat":"45.65917","fcode":"PPL"},{"adminCode1":"03","lng":"35.11268","geonameId":294423,"toponymName":"Liman","countryId":"294640","fcl":"P","population":0,"countryCode":"IL","name":"Liman","fclName":"city, village,...","countryName":"Israel","fcodeName":"populated place","adminName1":"Northern District","lat":"33.06018","fcode":"PPL"},{"adminCode1":"B8","lng":"5.73017","geonameId":2998314,"toponymName":"Limans","countryId":"3017382","fcl":"P","population":307,"countryCode":"FR","name":"Limans","fclName":"city, village,...","countryName":"France","fcodeName":"populated place","adminName1":"Provence-Alpes-Côte d'Azur","lat":"43.9847","fcode":"PPL"},{"adminCode1":"07","lng":"48.76987","geonameId":610261,"toponymName":"Bogatyrëvo","countryId":"1522867","fcl":"P","population":0,"countryCode":"KZ","name":"Bogatyrëvo","fclName":"city, village,...","countryName":"Kazakhstan","fcodeName":"populated place","adminName1":"Batys Qazaqstan","lat":"50.36732","fcode":"PPL"},{"adminCode1":"08","lng":"41.49244","geonameId":741866,"toponymName":"Liman","countryId":"298795","fcl":"P","population":0,"countryCode":"TR","name":"Liman","fclName":"city, village,...","countryName":"Turkey","fcodeName":"populated place","adminName1":"Artvin","lat":"41.46697","fcode":"PPL"},{"adminCode1":"18","lng":"124.3117","geonameId":8402574,"toponymName":"Liman","countryId":"1643084","fcl":"P","population":0,"countryCode":"ID","name":"Liman","fclName":"city, village,...","countryName":"Indonesia","fcodeName":"populated place","adminName1":"East Nusa Tenggara","lat":"-9.8931","fcode":"PPL"},{"adminCode1":"18","lng":"124.4564","geonameId":8541397,"toponymName":"Liman","countryId":"1643084","fcl":"P","population":0,"countryCode":"ID","name":"Liman","fclName":"city, village,...","countryName":"Indonesia","fcodeName":"populated place","adminName1":"East Nusa Tenggara","lat":"-9.5255","fcode":"PPL"},{"adminCode1":"24","lng":"7.1064","geonameId":2340918,"toponymName":"Gidan Liman","countryId":"2328926","fcl":"P","population":0,"countryCode":"NG","name":"Gidan Liman","fclName":"city, village,...","countryName":"Nigeria","fcodeName":"populated place","adminName1":"Katsina","lat":"11.25309","fcode":"PPL"},{"adminCode1":"00","lng":"6.36667","geonameId":2329960,"toponymName":"Momodiko Liman","countryId":"2328926","fcl":"P","population":0,"countryCode":"NG","name":"Momodiko Liman","fclName":"city, village,...","countryName":"Nigeria","fcodeName":"populated place","adminName1":"","lat":"9.15","fcode":"PPL"},{"adminCode1":"00","lng":"7.33333","geonameId":2319917,"toponymName":"Ungwan Liman","countryId":"2328926","fcl":"P","population":0,"countryCode":"NG","name":"Ungwan Liman","fclName":"city, village,...","countryName":"Nigeria","fcodeName":"populated place","adminName1":"","lat":"11.26667","fcode":"PPL"},{"adminCode1":"23","lng":"7.45454","geonameId":2319918,"toponymName":"Ungwan Liman","countryId":"2328926","fcl":"P","population":0,"countryCode":"NG","name":"Ungwan Liman","fclName":"city, village,...","countryName":"Nigeria","fcodeName":"populated place","adminName1":"Kaduna","lat":"10.57057","fcode":"PPL"},{"adminCode1":"04","lng":"36.28339","geonameId":704205,"toponymName":"Chervonyy Lyman","countryId":"690791","fcl":"P","population":0,"countryCode":"UA","name":"Chervonyy Lyman","fclName":"city, village,...","countryName":"Ukraine","fcodeName":"populated place","adminName1":"Dnipropetrovsk","lat":"47.97412","fcode":"PPL"},{"adminCode1":"38","lng":"38.90133","geonameId":536493,"toponymName":"Liman Lebyazhiy","countryId":"2017370","fcl":"H","population":0,"countryCode":"RU","name":"Liman Lebyazhiy","fclName":"stream, lake, ...","countryName":"Russia","fcodeName":"estuary","adminName1":"Krasnodarskiy","lat":"45.8658","fcode":"ESTY"},{"adminCode1":"38","lng":"37.96234","geonameId":571807,"toponymName":"Boykiyevskiy Liman","countryId":"2017370","fcl":"H","population":0,"countryCode":"RU","name":"Boykiyevskiy Liman","fclName":"stream, lake, ...","countryName":"Russia","fcodeName":"lagoon","adminName1":"Krasnodarskiy","lat":"45.90175","fcode":"LGN"},{"adminCode1":"13","lng":"60.40495","geonameId":1509149,"toponymName":"Ozero Bol’shoy Liman","countryId":"2017370","fcl":"H","population":0,"countryCode":"RU","name":"Ozero Bol’shoy Liman","fclName":"stream, lake, ...","countryName":"Russia","fcodeName":"lake","adminName1":"Chelyabinsk","lat":"52.4878","fcode":"LK"},{"adminCode1":"00","lng":"49.31667","geonameId":608477,"toponymName":"Liman Saray-Gyr","countryId":"1522867","fcl":"H","population":0,"countryCode":"KZ","name":"Liman Saray-Gyr","fclName":"stream, lake, ...","countryName":"Kazakhstan","fcodeName":"lake","adminName1":"","lat":"50.68333","fcode":"LK"},{"adminCode1":"86","lng":"41.69056","geonameId":806819,"toponymName":"Ozero Bol’shoy Liman","countryId":"2017370","fcl":"H","population":0,"countryCode":"RU","name":"Ozero Bol’shoy Liman","fclName":"stream, lake, ...","countryName":"Russia","fcodeName":"lake","adminName1":"Voronezj","lat":"51.21444","fcode":"LK"}]}