{"totalResultsCount":5,"geonames":[{"countryId":"2017370","adminCode1":"21","countryName":"Russia","fclName":"city, village,...","countryCode":"RU","lng":"42.25838","fcodeName":"populated place","toponymName":"Lukh","fcl":"P","name":"Lukh","fcode":"PPL","geonameId":533555,"lat":"57.01242","adminName1":"Ivanovo","population":3157},{"countryId":"2017370","adminCode1":"32","countryName":"Russia","fclName":"city, village,...","countryCode":"RU","lng":"80.81667","fcodeName":"populated place","toponymName":"Lukh-Pugol","fcl":"P","name":"Lukh-Pugol","fcode":"PPL","geonameId":1500242,"lat":"61.93333","adminName1":"Khanty-Mansiyskiy Avtonomnyy Okrug","population":0},{"countryId":"2017370","adminCode1":"90","countryName":"Russia","fclName":"city, village,...","countryCode":"RU","lng":"56.61667","fcodeName":"populated place","toponymName":"Sredniy Lukh","fcl":"P","name":"Sredniy Lukh","fcode":"PPL","geonameId":489485,"lat":"58.68333","adminName1":"Perm","population":0},{"countryId":"2017370","adminCode1":"90","countryName":"Russia","fclName":"city, village,...","countryCode":"RU","lng":"56.3372","fcodeName":"populated place","toponymName":"Nizhniy Lukh","fcl":"P","name":"Nizhniy Lukh","fcode":"PPL","geonameId":520572,"lat":"58.758","adminName1":"Perm","population":0},{"countryId":"2017370","adminCode1":"32","countryName":"Russia","fclName":"city, village,...","countryCode":"RU","lng":"80.94361","fcodeName":"populated place","toponymName":"Sosnovyy Bor","fcl":"P","name":"Sosnovyy Bor","fcode":"PPL","geonameId":1491272,"lat":"61.60222","adminName1":"Khanty-Mansiyskiy Avtonomnyy Okrug","population":0}]}