{"totalResultsCount":36,"geonames":[{"adminCode1":"21","lng":"42.25838","geonameId":533555,"toponymName":"Lukh","countryId":"2017370","fcl":"P","population":3157,"countryCode":"RU","name":"Lukh","fclName":"city, village,...","countryName":"Russia","fcodeName":"populated place","adminName1":"Ivanovo","lat":"57.01242","fcode":"PPL"},{"adminCode1":"24","lng":"68.86327","geonameId":1134479,"toponymName":"Lukh","countryId":"1149361","fcl":"P","population":0,"countryCode":"AF","name":"Lukh","fclName":"city, village,...","countryName":"Afghanistan","fcodeName":"populated place","adminName1":"Kunduz","lat":"36.75877","fcode":"PPL"},{"adminCode1":"27","lng":"67.44961","geonameId":1134480,"toponymName":"Lukh","countryId":"1149361","fcl":"P","population":0,"countryCode":"AF","name":"Lukh","fclName":"city, village,...","countryName":"Afghanistan","fcodeName":"populated place","adminName1":"Vardak","lat":"34.56035","fcode":"PPL"},{"adminCode1":"41","lng":"66.31566","geonameId":1134481,"toponymName":"Lūkh","countryId":"1149361","fcl":"P","population":0,"countryCode":"AF","name":"Lūkh","fclName":"city, village,...","countryName":"Afghanistan","fcodeName":"populated place","adminName1":"Daykundi","lat":"34.27971","fcode":"PPL"},{"adminCode1":"08","lng":"50.12392","geonameId":28778,"toponymName":"Lūkh","countryId":"130758","fcl":"P","population":0,"countryCode":"IR","name":"Lūkh","fclName":"city, village,...","countryName":"Iran","fcodeName":"populated place","adminName1":"Gīlān","lat":"37.37791","fcode":"PPL"},{"adminCode1":"32","lng":"80.81667","geonameId":1500242,"toponymName":"Lukh-Pugol","countryId":"2017370","fcl":"P","population":0,"countryCode":"RU","name":"Lukh-Pugol","fclName":"city, village,...","countryName":"Russia","fcodeName":"populated place","adminName1":"Khanty-Mansiyskiy Avtonomnyy Okrug","lat":"61.93333","fcode":"PPL"},{"adminCode1":"90","lng":"56.61667","geonameId":489485,"toponymName":"Sredniy Lukh","countryId":"2017370","fcl":"P","population":0,"countryCode":"RU","name":"Sredniy Lukh","fclName":"city, village,...","countryName":"Russia","fcodeName":"populated place","adminName1":"Perm","lat":"58.68333","fcode":"PPL"},{"adminCode1":"90","lng":"56.3372","geonameId":520572,"toponymName":"Nizhniy Lukh","countryId":"2017370","fcl":"P","population":0,"countryCode":"RU","name":"Nizhniy Lukh","fclName":"city, village,...","countryName":"Russia","fcodeName":"populated place","adminName1":"Perm","lat":"58.758","fcode":"PPL"},{"adminCode1":"02","lng":"66.158","geonameId":7369807,"toponymName":"Lukh","countryId":"1168579","fcl":"P","population":0,"countryCode":"PK","name":"Lukh","fclName":"city, village,...","countryName":"Pakistan","fcodeName":"populated place","adminName1":"Balochistān","lat":"27.8474","fcode":"PPL"},{"adminCode1":"90","lng":"56.66667","geonameId":533552,"toponymName":"Lukh","countryId":"2017370","fcl":"H","population":0,"countryCode":"RU","name":"Lukh","fclName":"stream, lake, ...","countryName":"Russia","fcodeName":"stream","adminName1":"Perm","lat":"58.63333","fcode":"STM"},{"adminCode1":"00","lng":"42.42515","geonameId":533553,"toponymName":"Lukh","countryId":"2017370","fcl":"H","population":0,"countryCode":"RU","name":"Lukh","fclName":"stream, lake, ...","countryName":"Russia","fcodeName":"stream","adminName1":"","lat":"56.22882","fcode":"STM"},{"adminCode1":"43","lng":"38.55108","geonameId":533554,"toponymName":"Lukh","countryId":"2017370","fcl":"H","population":0,"countryCode":"RU","name":"Lukh","fclName":"stream, lake, ...","countryName":"Russia","fcodeName":"stream","adminName1":"Lipetsk","lat":"52.28463","fcode":"STM"},{"adminCode1":"37","lng":"45.0365","geonameId":7493651,"toponymName":"Lukh","countryId":"2017370","fcl":"H","population":0,"countryCode":"RU","name":"Lukh","fclName":"stream, lake, ...","countryName":"Russia","fcodeName":"stream","adminName1":"Kostroma","lat":"58.6378","fcode":"STM"},{"adminCode1":"00","lng":"67.20152","geonameId":1134478,"toponymName":"Kōh-e Lukh","countryId":"1149361","fcl":"T","population":0,"countryCode":"AF","name":"Kōh-e Lukh","fclName":"mountain,hill,rock,... ","countryName":"Afghanistan","fcodeName":"mountain","adminName1":"","lat":"33.99211","fcode":"MT"},{"adminCode1":"27","lng":"68.35546","geonameId":1126906,"toponymName":"Sar Lūkh","countryId":"1149361","fcl":"H","population":0,"countryCode":"AF","name":"Sar Lūkh","fclName":"stream, lake, ...","countryName":"Afghanistan","fcodeName":"intermittent stream","adminName1":"Vardak","lat":"33.76828","fcode":"STMI"},{"adminCode1":"04","lng":"70.06882","geonameId":1354437,"toponymName":"Nūlāni Lukh","countryId":"1168579","fcl":"P","population":0,"countryCode":"PK","name":"Nūlāni Lukh","fclName":"city, village,...","countryName":"Pakistan","fcodeName":"populated place","adminName1":"Punjab","lat":"30.06208","fcode":"PPL"},{"adminCode1":"04","lng":"70.08252","geonameId":1354461,"toponymName":"Bāgh Lukh","countryId":"1168579","fcl":"P","population":0,"countryCode":"PK","name":"Bāgh Lukh","fclName":"city, village,...","countryName":"Pakistan","fcodeName":"populated place","adminName1":"Punjab","lat":"30.06995","fcode":"PPL"},{"adminCode1":"06","lng":"24.58333","geonameId":702694,"toponymName":"Lug","countryId":"690791","fcl":"P","population":0,"countryCode":"UA","name":"Lug","fclName":"city, village,...","countryName":"Ukraine","fcodeName":"populated place","adminName1":"Ivano-Frankivsk","lat":"48.51667","fcode":"PPL"},{"adminCode1":"00","lng":"43.59914","geonameId":568479,"toponymName":"Chërnyy Lukh","countryId":"2017370","fcl":"H","population":0,"countryCode":"RU","name":"Chërnyy Lukh","fclName":"stream, lake, ...","countryName":"Russia","fcodeName":"stream","adminName1":"","lat":"57.59717","fcode":"STM"},{"adminCode1":"90","lng":"56.5982","geonameId":474923,"toponymName":"Verkhniy Lukh","countryId":"2017370","fcl":"P","population":0,"countryCode":"RU","name":"Verkhniy Lukh","fclName":"city, village,...","countryName":"Russia","fcodeName":"abandoned populated place","adminName1":"Perm","lat":"58.6794","fcode":"PPLQ"},{"adminCode1":"90","lng":"56.413","geonameId":520571,"toponymName":"Nizhniy Lukh","countryId":"2017370","fcl":"H","population":0,"countryCode":"RU","name":"Nizhniy Lukh","fclName":"stream, lake, ...","countryName":"Russia","fcodeName":"stream","adminName1":"Perm","lat":"58.7435","fcode":"STM"},{"adminCode1":"00","lng":"43.72132","geonameId":577514,"toponymName":"Belyy Lukh","countryId":"2017370","fcl":"H","population":0,"countryCode":"RU","name":"Belyy Lukh","fclName":"stream, lake, ...","countryName":"Russia","fcodeName":"stream","adminName1":"","lat":"57.71355","fcode":"STM"},{"adminCode1":"34","lng":"49.3904","geonameId":6756316,"toponymName":"Darreh-ye Shūr Lūkh","countryId":"130758","fcl":"T","population":0,"countryCode":"IR","name":"Darreh-ye Shūr Lūkh","fclName":"mountain,hill,rock,... ","countryName":"Iran","fcodeName":"valley","adminName1":"Markazi","lat":"35.0353","fcode":"VAL"},{"adminCode1":"04","lng":"70.27692","geonameId":1405577,"toponymName":"Fateh Ali Lukh","countryId":"1168579","fcl":"P","population":0,"countryCode":"PK","name":"Fateh Ali Lukh","fclName":"city, village,...","countryName":"Pakistan","fcodeName":"populated place","adminName1":"Punjab","lat":"30.19393","fcode":"PPL"},{"adminCode1":"41","lng":"31.7541","geonameId":7029096,"toponymName":"Al Lukh Kha","countryId":"366755","fcl":"P","population":0,"countryCode":"SD","name":"Al Lukh Kha","fclName":"city, village,...","countryName":"Sudan","fcodeName":"populated place","adminName1":"White Nile","lat":"12.8862","fcode":"PPL"},{"adminCode1":"90","lng":"56.3303","geonameId":6667734,"toponymName":"Pristan’ Nizhniy Lukh","countryId":"2017370","fcl":"S","population":0,"countryCode":"RU","name":"Pristan’ Nizhniy Lukh","fclName":"spot, building, farm","countryName":"Russia","fcodeName":"landing","adminName1":"Perm","lat":"58.7631","fcode":"LDNG"},{"adminCode1":"16","lng":"46.6508","geonameId":120275,"toponymName":"Qal‘eh Jūq","countryId":"130758","fcl":"P","population":0,"countryCode":"IR","name":"Qal‘eh Jūq","fclName":"city, village,...","countryName":"Iran","fcodeName":"populated place","adminName1":"Kordestān","lat":"35.4512","fcode":"PPL"},{"adminCode1":"03","lng":"71.93615","geonameId":1172361,"toponymName":"Lakh Talao","countryId":"1168579","fcl":"P","population":0,"countryCode":"PK","name":"Lakh Talao","fclName":"city, village,...","countryName":"Pakistan","fcodeName":"populated place","adminName1":"Khyber Pakhtunkhwa","lat":"33.67072","fcode":"PPL"},{"adminCode1":"02","lng":"66.0745","geonameId":1171828,"toponymName":"Lukh Jhal","countryId":"1168579","fcl":"H","population":0,"countryCode":"PK","name":"Lukh Jhal","fclName":"stream, lake, ...","countryName":"Pakistan","fcodeName":"stream","adminName1":"Balochistān","lat":"27.7608","fcode":"STM"},{"adminCode1":"32","lng":"80.94361","geonameId":1491272,"toponymName":"Sosnovyy Bor","countryId":"2017370","fcl":"P","population":0,"countryCode":"RU","name":"Sosnovyy Bor","fclName":"city, village,...","countryName":"Russia","fcodeName":"populated place","adminName1":"Khanty-Mansiyskiy Avtonomnyy Okrug","lat":"61.60222","fcode":"PPL"},{"adminCode1":"41","lng":"66.30902","geonameId":1456184,"toponymName":"Sar-e Lōkh wa Kūn-e Gāw","countryId":"1149361","fcl":"T","population":0,"countryCode":"AF","name":"Sar-e Lōkh wa Kūn-e Gāw","fclName":"mountain,hill,rock,... ","countryName":"Afghanistan","fcodeName":"mountain","adminName1":"Daykundi","lat":"34.29906","fcode":"MT"},{"adminCode1":"27","lng":"67.44443","geonameId":1471726,"toponymName":"Nāw-e Lukh","countryId":"1149361","fcl":"H","population":0,"countryCode":"AF","name":"Nāw-e Lukh","fclName":"stream, lake, ...","countryName":"Afghanistan","fcodeName":"intermittent stream","adminName1":"Vardak","lat":"34.55475","fcode":"STMI"},{"adminCode1":"90","lng":"56.4502","geonameId":474922,"toponymName":"Verkhniy Lukh","countryId":"2017370","fcl":"H","population":0,"countryCode":"RU","name":"Verkhniy Lukh","fclName":"stream, lake, ...","countryName":"Russia","fcodeName":"stream","adminName1":"Perm","lat":"58.9424","fcode":"STM"},{"adminCode1":"30","lng":"60.83333","geonameId":1159509,"toponymName":"Rūd-e Shūrlūkh","countryId":"130758","fcl":"H","population":0,"countryCode":"IR","name":"Rūd-e Shūrlūkh","fclName":"stream, lake, ...","countryName":"Iran","fcodeName":"stream","adminName1":"Khorasan","lat":"36.6","fcode":"STM"},{"adminCode1":"01","lng":"71.4307","geonameId":7101720,"toponymName":"Daryā-ye Deh Lukh Darah","countryId":"1149361","fcl":"H","population":0,"countryCode":"AF","name":"Daryā-ye Deh Lukh Darah","fclName":"stream, lake, ...","countryName":"Afghanistan","fcodeName":"stream","adminName1":"Badakhshan","lat":"37.05936","fcode":"STM"},{"adminCode1":"02","lng":"67.44119","geonameId":1394066,"toponymName":"Lukh","countryId":"1168579","fcl":"H","population":0,"countryCode":"PK","name":"Lukh","fclName":"stream, lake, ...","countryName":"Pakistan","fcodeName":"spring(s)","adminName1":"Balochistān","lat":"30.43587","fcode":"SPNG"}]}