{"totalResultsCount":9,"geonames":[{"countryId":"630336","adminCode1":"07","countryName":"Belarus","fclName":"city, village,...","countryCode":"BY","lng":"31.171","fcodeName":"populated place","toponymName":"Lyady","fcl":"P","name":"Lyady","fcode":"PPL","geonameId":625777,"lat":"54.6","adminName1":"Vitsyebskaya Voblastsʼ","population":0},{"countryId":"2017370","adminCode1":"10","countryName":"Russia","fclName":"city, village,...","countryCode":"RU","lng":"32.70305","fcodeName":"populated place","toponymName":"Lyady","fcl":"P","name":"Lyady","fcode":"PPL","geonameId":532965,"lat":"52.28342","adminName1":"Brjansk","population":0},{"countryId":"2017370","adminCode1":"10","countryName":"Russia","fclName":"city, village,...","countryCode":"RU","lng":"32.28974","fcodeName":"populated place","toponymName":"Lyady","fcl":"P","name":"Lyady","fcode":"PPL","geonameId":817541,"lat":"52.64955","adminName1":"Brjansk","population":0},{"countryId":"630336","adminCode1":"02","countryName":"Belarus","fclName":"city, village,...","countryCode":"BY","lng":"29.9448","fcodeName":"populated place","toponymName":"Lyady","fcl":"P","name":"Lyady","fcode":"PPL","geonameId":625781,"lat":"52.6471","adminName1":"Gomel","population":0},{"countryId":"2017370","adminCode1":"69","countryName":"Russia","fclName":"city, village,...","countryCode":"RU","lng":"32.56833","fcodeName":"populated place","toponymName":"Lyady","fcl":"P","name":"Lyady","fcode":"PPL","geonameId":814304,"lat":"54.39663","adminName1":"Smolensk","population":0},{"countryId":"630336","adminCode1":"02","countryName":"Belarus","fclName":"city, village,...","countryCode":"BY","lng":"31.048","fcodeName":"populated place","toponymName":"Lyady","fcl":"P","name":"Lyady","fcode":"PPL","geonameId":8178372,"lat":"52.6087","adminName1":"Gomel","population":0},{"countryId":"630336","adminCode1":"06","countryName":"Belarus","fclName":"city, village,...","countryCode":"BY","lng":"31.5024","fcodeName":"populated place","toponymName":"Lyady","fcl":"P","name":"Lyady","fcode":"PPL","geonameId":8331752,"lat":"53.7438","adminName1":"Mahilyowskaya Voblastsʼ","population":0},{"countryId":"2017370","adminCode1":"10","countryName":"Russia","fclName":"city, village,...","countryCode":"RU","lng":"32.3022","fcodeName":"populated place","toponymName":"Krasnyye Lyady","fcl":"P","name":"Krasnyye Lyady","fcode":"PPL","geonameId":7450026,"lat":"52.1756","adminName1":"Brjansk","population":0},{"countryId":"2017370","adminCode1":"10","countryName":"Russia","fclName":"city, village,...","countryCode":"RU","lng":"32.1598","fcodeName":"populated place","toponymName":"Arininy Lyady","fcl":"P","name":"Arininy Lyady","fcode":"PPL","geonameId":7450074,"lat":"52.4781","adminName1":"Brjansk","population":0}]}