{"totalResultsCount":46,"geonames":[{"adminCode1":"42","lng":"29.78822","geonameId":532955,"toponymName":"Lyady","countryId":"2017370","fcl":"P","population":0,"countryCode":"RU","name":"Lyady","fclName":"city, village,...","countryName":"Russia","fcodeName":"populated place","adminName1":"Leningrad","lat":"59.31266","fcode":"PPL"},{"adminCode1":"60","lng":"28.78143","geonameId":532956,"toponymName":"Lyady","countryId":"2017370","fcl":"P","population":0,"countryCode":"RU","name":"Lyady","fclName":"city, village,...","countryName":"Russia","fcodeName":"populated place","adminName1":"Pskov","lat":"58.62846","fcode":"PPL"},{"adminCode1":"90","lng":"56.6405","geonameId":532957,"toponymName":"Lyady","countryId":"2017370","fcl":"P","population":0,"countryCode":"RU","name":"Lyady","fclName":"city, village,...","countryName":"Russia","fcodeName":"populated place","adminName1":"Perm","lat":"58.0898","fcode":"PPL"},{"adminCode1":"51","lng":"44.99007","geonameId":532960,"toponymName":"Lyady","countryId":"2017370","fcl":"P","population":0,"countryCode":"RU","name":"Lyady","fclName":"city, village,...","countryName":"Russia","fcodeName":"populated place","adminName1":"Nizjnij Novgorod","lat":"57.32294","fcode":"PPL"},{"adminCode1":"42","lng":"31.4","geonameId":532954,"toponymName":"Lyady","countryId":"2017370","fcl":"P","population":0,"countryCode":"RU","name":"Lyady","fclName":"city, village,...","countryName":"Russia","fcodeName":"populated place","adminName1":"Leningrad","lat":"59.4","fcode":"PPL"},{"adminCode1":"77","lng":"36.68248","geonameId":532958,"toponymName":"Lyady","countryId":"2017370","fcl":"P","population":0,"countryCode":"RU","name":"Lyady","fclName":"city, village,...","countryName":"Russia","fcodeName":"populated place","adminName1":"Tverskaya","lat":"57.87221","fcode":"PPL"},{"adminCode1":"52","lng":"31.95","geonameId":532959,"toponymName":"Lyady","countryId":"2017370","fcl":"P","population":0,"countryCode":"RU","name":"Lyady","fclName":"city, village,...","countryName":"Russia","fcodeName":"populated place","adminName1":"Novgorod","lat":"57.35","fcode":"PPL"},{"adminCode1":"10","lng":"33.0008","geonameId":532964,"toponymName":"Lyady","countryId":"2017370","fcl":"P","population":0,"countryCode":"RU","name":"Lyady","fclName":"city, village,...","countryName":"Russia","fcodeName":"populated place","adminName1":"Brjansk","lat":"52.763","fcode":"PPL"},{"adminCode1":"10","lng":"32.70305","geonameId":532965,"toponymName":"Lyady","countryId":"2017370","fcl":"P","population":0,"countryCode":"RU","name":"Lyady","fclName":"city, village,...","countryName":"Russia","fcodeName":"populated place","adminName1":"Brjansk","lat":"52.28342","fcode":"PPL"},{"adminCode1":"10","lng":"32.28974","geonameId":817541,"toponymName":"Lyady","countryId":"2017370","fcl":"P","population":0,"countryCode":"RU","name":"Lyady","fclName":"city, village,...","countryName":"Russia","fcodeName":"populated place","adminName1":"Brjansk","lat":"52.64955","fcode":"PPL"},{"adminCode1":"25","lng":"34.95722","geonameId":817647,"toponymName":"Lyady","countryId":"2017370","fcl":"P","population":0,"countryCode":"RU","name":"Lyady","fclName":"city, village,...","countryName":"Russia","fcodeName":"populated place","adminName1":"Kaluga","lat":"54.47722","fcode":"PPL"},{"adminCode1":"07","lng":"31.171","geonameId":625777,"toponymName":"Lyady","countryId":"630336","fcl":"P","population":0,"countryCode":"BY","name":"Lyady","fclName":"city, village,...","countryName":"Belarus","fcodeName":"populated place","adminName1":"Vitsyebskaya Voblastsʼ","lat":"54.6","fcode":"PPL"},{"adminCode1":"51","lng":"45.1463","geonameId":7608332,"toponymName":"Lyady","countryId":"2017370","fcl":"P","population":0,"countryCode":"RU","name":"Lyady","fclName":"city, village,...","countryName":"Russia","fcodeName":"populated place","adminName1":"Nizjnij Novgorod","lat":"57.0836","fcode":"PPL"},{"adminCode1":"10","lng":"35.07386","geonameId":532963,"toponymName":"Lyady","countryId":"2017370","fcl":"P","population":0,"countryCode":"RU","name":"Lyady","fclName":"city, village,...","countryName":"Russia","fcodeName":"populated place","adminName1":"Brjansk","lat":"53.28633","fcode":"PPL"},{"adminCode1":"05","lng":"28.7025","geonameId":621380,"toponymName":"Lyady","countryId":"630336","fcl":"P","population":0,"countryCode":"BY","name":"Staryye Lyady","fclName":"city, village,...","countryName":"Belarus","fcodeName":"populated place","adminName1":"Minskaja Voblasts’","lat":"53.614","fcode":"PPL"},{"adminCode1":"90","lng":"56.6104","geonameId":517111,"toponymName":"Novyye Lyady","countryId":"2017370","fcl":"P","population":9050,"countryCode":"RU","name":"Novyye Lyady","fclName":"city, village,...","countryName":"Russia","fcodeName":"populated place","adminName1":"Perm","lat":"58.0552","fcode":"PPL"},{"adminCode1":"02","lng":"29.9448","geonameId":625781,"toponymName":"Lyady","countryId":"630336","fcl":"P","population":0,"countryCode":"BY","name":"Lyady","fclName":"city, village,...","countryName":"Belarus","fcodeName":"populated place","adminName1":"Gomel","lat":"52.6471","fcode":"PPL"},{"adminCode1":"05","lng":"28.232","geonameId":625792,"toponymName":"Lyady","countryId":"630336","fcl":"P","population":0,"countryCode":"BY","name":"Lyady","fclName":"city, village,...","countryName":"Belarus","fcodeName":"populated place","adminName1":"Minskaja Voblasts’","lat":"53.1413","fcode":"PPL"},{"adminCode1":"83","lng":"40.1","geonameId":532962,"toponymName":"Lyady","countryId":"2017370","fcl":"P","population":0,"countryCode":"RU","name":"Lyady","fclName":"city, village,...","countryName":"Russia","fcodeName":"populated place","adminName1":"Vladimir","lat":"55.63333","fcode":"PPL"},{"adminCode1":"77","lng":"32.5226","geonameId":823333,"toponymName":"Lyady","countryId":"2017370","fcl":"P","population":0,"countryCode":"RU","name":"Lyady","fclName":"city, village,...","countryName":"Russia","fcodeName":"populated place","adminName1":"Tverskaya","lat":"56.99193","fcode":"PPL"},{"adminCode1":"69","lng":"32.56833","geonameId":814304,"toponymName":"Lyady","countryId":"2017370","fcl":"P","population":0,"countryCode":"RU","name":"Lyady","fclName":"city, village,...","countryName":"Russia","fcodeName":"populated place","adminName1":"Smolensk","lat":"54.39663","fcode":"PPL"},{"adminCode1":"05","lng":"29.1223","geonameId":625778,"toponymName":"Lyady","countryId":"630336","fcl":"P","population":0,"countryCode":"BY","name":"Lyady","fclName":"city, village,...","countryName":"Belarus","fcodeName":"populated place","adminName1":"Minskaja Voblasts’","lat":"54.4438","fcode":"PPL"},{"adminCode1":"05","lng":"28.0894","geonameId":625780,"toponymName":"Lyady","countryId":"630336","fcl":"P","population":0,"countryCode":"BY","name":"Lyady","fclName":"city, village,...","countryName":"Belarus","fcodeName":"populated place","adminName1":"Minskaja Voblasts’","lat":"53.7761","fcode":"PPL"},{"adminCode1":"05","lng":"27.5269","geonameId":8020167,"toponymName":"Lyady","countryId":"630336","fcl":"P","population":0,"countryCode":"BY","name":"Lyady","fclName":"city, village,...","countryName":"Belarus","fcodeName":"populated place","adminName1":"Minskaja Voblasts’","lat":"53.4177","fcode":"PPL"},{"adminCode1":"06","lng":"28.8616","geonameId":8146969,"toponymName":"Lyady","countryId":"630336","fcl":"P","population":0,"countryCode":"BY","name":"Lyady","fclName":"city, village,...","countryName":"Belarus","fcodeName":"populated place","adminName1":"Mahilyowskaya Voblastsʼ","lat":"53.0655","fcode":"PPL"},{"adminCode1":"05","lng":"27.8167","geonameId":8247195,"toponymName":"Lyady","countryId":"630336","fcl":"P","population":87,"countryCode":"BY","name":"Lyady","fclName":"city, village,...","countryName":"Belarus","fcodeName":"populated place","adminName1":"Minskaja Voblasts’","lat":"54.0632","fcode":"PPL"},{"adminCode1":"05","lng":"28.6407","geonameId":8248148,"toponymName":"Lyady","countryId":"630336","fcl":"P","population":0,"countryCode":"BY","name":"Lyady","fclName":"city, village,...","countryName":"Belarus","fcodeName":"populated place","adminName1":"Minskaja Voblasts’","lat":"54.254","fcode":"PPL"},{"adminCode1":"02","lng":"31.048","geonameId":8178372,"toponymName":"Lyady","countryId":"630336","fcl":"P","population":0,"countryCode":"BY","name":"Lyady","fclName":"city, village,...","countryName":"Belarus","fcodeName":"populated place","adminName1":"Gomel","lat":"52.6087","fcode":"PPL"},{"adminCode1":"07","lng":"26.9876","geonameId":8198133,"toponymName":"Lyady","countryId":"630336","fcl":"P","population":0,"countryCode":"BY","name":"Lyady","fclName":"city, village,...","countryName":"Belarus","fcodeName":"populated place","adminName1":"Vitsyebskaya Voblastsʼ","lat":"55.7011","fcode":"PPL"},{"adminCode1":"69","lng":"32.98522","geonameId":7092453,"toponymName":"Lyady","countryId":"2017370","fcl":"P","population":0,"countryCode":"RU","name":"Lyady","fclName":"city, village,...","countryName":"Russia","fcodeName":"populated place","adminName1":"Smolensk","lat":"54.62782","fcode":"PPL"},{"adminCode1":"06","lng":"31.5024","geonameId":8331752,"toponymName":"Lyady","countryId":"630336","fcl":"P","population":0,"countryCode":"BY","name":"Lyady","fclName":"city, village,...","countryName":"Belarus","fcodeName":"populated place","adminName1":"Mahilyowskaya Voblastsʼ","lat":"53.7438","fcode":"PPL"},{"adminCode1":"60","lng":"29.91667","geonameId":532961,"toponymName":"Lyady","countryId":"2017370","fcl":"P","population":0,"countryCode":"RU","name":"Lyady","fclName":"city, village,...","countryName":"Russia","fcodeName":"populated place","adminName1":"Pskov","lat":"57.01667","fcode":"PPL"},{"adminCode1":"52","lng":"31.643","geonameId":574123,"toponymName":"Lyady","countryId":"2017370","fcl":"P","population":0,"countryCode":"RU","name":"Lyady","fclName":"city, village,...","countryName":"Russia","fcodeName":"populated place","adminName1":"Novgorod","lat":"57.1385","fcode":"PPL"},{"adminCode1":"10","lng":"32.3022","geonameId":7450026,"toponymName":"Krasnyye Lyady","countryId":"2017370","fcl":"P","population":17,"countryCode":"RU","name":"Krasnyye Lyady","fclName":"city, village,...","countryName":"Russia","fcodeName":"populated place","adminName1":"Brjansk","lat":"52.1756","fcode":"PPL"},{"adminCode1":"10","lng":"32.1598","geonameId":7450074,"toponymName":"Arininy Lyady","countryId":"2017370","fcl":"P","population":0,"countryCode":"RU","name":"Arininy Lyady","fclName":"city, village,...","countryName":"Russia","fcodeName":"populated place","adminName1":"Brjansk","lat":"52.4781","fcode":"PPL"},{"adminCode1":"69","lng":"32.9464","geonameId":813338,"toponymName":"Lyady","countryId":"2017370","fcl":"P","population":0,"countryCode":"RU","name":"Lyady","fclName":"city, village,...","countryName":"Russia","fcodeName":"abandoned populated place","adminName1":"Smolensk","lat":"55.5385","fcode":"PPLQ"},{"adminCode1":"05","lng":"28.831","geonameId":628273,"toponymName":"Golovnyye Lyady","countryId":"630336","fcl":"P","population":0,"countryCode":"BY","name":"Golovnyye Lyady","fclName":"city, village,...","countryName":"Belarus","fcodeName":"populated place","adminName1":"Minskaja Voblasts’","lat":"53.6844","fcode":"PPL"},{"adminCode1":"02","lng":"30.3983","geonameId":8358567,"toponymName":"Lyady","countryId":"630336","fcl":"P","population":0,"countryCode":"BY","name":"Lyady","fclName":"city, village,...","countryName":"Belarus","fcodeName":"abandoned populated place","adminName1":"Gomel","lat":"51.5719","fcode":"PPLQ"},{"adminCode1":"10","lng":"31.9527","geonameId":7665169,"toponymName":"Urochishche Lyady","countryId":"2017370","fcl":"L","population":0,"countryCode":"RU","name":"Urochishche Lyady","fclName":"parks,area, ...","countryName":"Russia","fcodeName":"area","adminName1":"Brjansk","lat":"52.4628","fcode":"AREA"},{"adminCode1":"05","lng":"28.0426","geonameId":8537686,"toponymName":"Posëlok Lyady","countryId":"630336","fcl":"P","population":0,"countryCode":"BY","name":"Posëlok Lyady","fclName":"city, village,...","countryName":"Belarus","fcodeName":"populated place","adminName1":"Minskaja Voblasts’","lat":"53.7886","fcode":"PPL"},{"adminCode1":"05","lng":"28.089","geonameId":8537688,"toponymName":"Malyye Lyady","countryId":"630336","fcl":"P","population":0,"countryCode":"BY","name":"Malyye Lyady","fclName":"city, village,...","countryName":"Belarus","fcodeName":"populated place","adminName1":"Minskaja Voblasts’","lat":"53.7917","fcode":"PPL"},{"adminCode1":"02","lng":"30.4759","geonameId":8181519,"toponymName":"Staryye Lyady","countryId":"630336","fcl":"P","population":0,"countryCode":"BY","name":"Staryye Lyady","fclName":"city, village,...","countryName":"Belarus","fcodeName":"abandoned populated place","adminName1":"Gomel","lat":"51.491","fcode":"PPLQ"},{"adminCode1":"02","lng":"30.4661","geonameId":8181550,"toponymName":"Novyye Lyady","countryId":"630336","fcl":"P","population":0,"countryCode":"BY","name":"Novyye Lyady","fclName":"city, village,...","countryName":"Belarus","fcodeName":"abandoned populated place","adminName1":"Gomel","lat":"51.5011","fcode":"PPLQ"},{"adminCode1":"90","lng":"56.6416","geonameId":6663253,"toponymName":"Pristan’ Lyady","countryId":"2017370","fcl":"S","population":0,"countryCode":"RU","name":"Pristan’ Lyady","fclName":"spot, building, farm","countryName":"Russia","fcodeName":"landing","adminName1":"Perm","lat":"58.0936","fcode":"LDNG"},{"adminCode1":"90","lng":"56.6068","geonameId":532953,"toponymName":"Stantsiya Lyady","countryId":"2017370","fcl":"S","population":0,"countryCode":"RU","name":"Stantsiya Lyady","fclName":"spot, building, farm","countryName":"Russia","fcodeName":"railroad station","adminName1":"Perm","lat":"58.0457","fcode":"RSTN"},{"adminCode1":"05","lng":"26.7957","geonameId":8072161,"toponymName":"Prypynachny Punkt Tsyomnyya Lyady","countryId":"630336","fcl":"S","population":0,"countryCode":"BY","name":"Prypynachny Punkt Tsyomnyya Lyady","fclName":"spot, building, farm","countryName":"Belarus","fcodeName":"railroad stop","adminName1":"Minskaja Voblasts’","lat":"53.4991","fcode":"RSTP"}]}