{"totalResultsCount":38,"geonames":[{"countryId":"2017370","adminCode1":"42","countryName":"Russia","fclName":"city, village,...","countryCode":"RU","lng":"29.78822","fcodeName":"populated place","toponymName":"Lyady","fcl":"P","name":"Lyady","fcode":"PPL","geonameId":532955,"lat":"59.31266","adminName1":"Leningrad","population":0},{"countryId":"2017370","adminCode1":"60","countryName":"Russia","fclName":"city, village,...","countryCode":"RU","lng":"28.78143","fcodeName":"populated place","toponymName":"Lyady","fcl":"P","name":"Lyady","fcode":"PPL","geonameId":532956,"lat":"58.62846","adminName1":"Pskov","population":0},{"countryId":"2017370","adminCode1":"90","countryName":"Russia","fclName":"city, village,...","countryCode":"RU","lng":"56.6405","fcodeName":"populated place","toponymName":"Lyady","fcl":"P","name":"Lyady","fcode":"PPL","geonameId":532957,"lat":"58.0898","adminName1":"Perm","population":0},{"countryId":"2017370","adminCode1":"51","countryName":"Russia","fclName":"city, village,...","countryCode":"RU","lng":"44.99007","fcodeName":"populated place","toponymName":"Lyady","fcl":"P","name":"Lyady","fcode":"PPL","geonameId":532960,"lat":"57.32294","adminName1":"Nizjnij Novgorod","population":0},{"countryId":"2017370","adminCode1":"77","countryName":"Russia","fclName":"city, village,...","countryCode":"RU","lng":"36.68248","fcodeName":"populated place","toponymName":"Lyady","fcl":"P","name":"Lyady","fcode":"PPL","geonameId":532958,"lat":"57.87221","adminName1":"Tverskaya","population":0},{"countryId":"630336","adminCode1":"07","countryName":"Belarus","fclName":"city, village,...","countryCode":"BY","lng":"31.171","fcodeName":"populated place","toponymName":"Lyady","fcl":"P","name":"Lyady","fcode":"PPL","geonameId":625777,"lat":"54.6","adminName1":"Vitsyebskaya Voblastsʼ","population":0},{"countryId":"2017370","adminCode1":"42","countryName":"Russia","fclName":"city, village,...","countryCode":"RU","lng":"31.4","fcodeName":"populated place","toponymName":"Lyady","fcl":"P","name":"Lyady","fcode":"PPL","geonameId":532954,"lat":"59.4","adminName1":"Leningrad","population":0},{"countryId":"2017370","adminCode1":"52","countryName":"Russia","fclName":"city, village,...","countryCode":"RU","lng":"31.95","fcodeName":"populated place","toponymName":"Lyady","fcl":"P","name":"Lyady","fcode":"PPL","geonameId":532959,"lat":"57.35","adminName1":"Novgorod","population":0},{"countryId":"2017370","adminCode1":"10","countryName":"Russia","fclName":"city, village,...","countryCode":"RU","lng":"33.0008","fcodeName":"populated place","toponymName":"Lyady","fcl":"P","name":"Lyady","fcode":"PPL","geonameId":532964,"lat":"52.763","adminName1":"Brjansk","population":0},{"countryId":"2017370","adminCode1":"10","countryName":"Russia","fclName":"city, village,...","countryCode":"RU","lng":"32.70305","fcodeName":"populated place","toponymName":"Lyady","fcl":"P","name":"Lyady","fcode":"PPL","geonameId":532965,"lat":"52.28342","adminName1":"Brjansk","population":0},{"countryId":"2017370","adminCode1":"10","countryName":"Russia","fclName":"city, village,...","countryCode":"RU","lng":"32.28974","fcodeName":"populated place","toponymName":"Lyady","fcl":"P","name":"Lyady","fcode":"PPL","geonameId":817541,"lat":"52.64955","adminName1":"Brjansk","population":0},{"countryId":"2017370","adminCode1":"25","countryName":"Russia","fclName":"city, village,...","countryCode":"RU","lng":"34.95722","fcodeName":"populated place","toponymName":"Lyady","fcl":"P","name":"Lyady","fcode":"PPL","geonameId":817647,"lat":"54.47722","adminName1":"Kaluga","population":0},{"countryId":"2017370","adminCode1":"51","countryName":"Russia","fclName":"city, village,...","countryCode":"RU","lng":"45.1463","fcodeName":"populated place","toponymName":"Lyady","fcl":"P","name":"Lyady","fcode":"PPL","geonameId":7608332,"lat":"57.0836","adminName1":"Nizjnij Novgorod","population":0},{"countryId":"630336","adminCode1":"05","countryName":"Belarus","fclName":"city, village,...","countryCode":"BY","lng":"28.7025","fcodeName":"populated place","toponymName":"Lyady","fcl":"P","name":"Staryye Lyady","fcode":"PPL","geonameId":621380,"lat":"53.614","adminName1":"Minskaja Voblasts’","population":0},{"countryId":"2017370","adminCode1":"10","countryName":"Russia","fclName":"city, village,...","countryCode":"RU","lng":"35.07386","fcodeName":"populated place","toponymName":"Lyady","fcl":"P","name":"Lyady","fcode":"PPL","geonameId":532963,"lat":"53.28633","adminName1":"Brjansk","population":0},{"countryId":"2017370","adminCode1":"90","countryName":"Russia","fclName":"city, village,...","countryCode":"RU","lng":"56.6104","fcodeName":"populated place","toponymName":"Novyye Lyady","fcl":"P","name":"Novyye Lyady","fcode":"PPL","geonameId":517111,"lat":"58.0552","adminName1":"Perm","population":9050},{"countryId":"630336","adminCode1":"02","countryName":"Belarus","fclName":"city, village,...","countryCode":"BY","lng":"29.9448","fcodeName":"populated place","toponymName":"Lyady","fcl":"P","name":"Lyady","fcode":"PPL","geonameId":625781,"lat":"52.6471","adminName1":"Gomel","population":0},{"countryId":"630336","adminCode1":"05","countryName":"Belarus","fclName":"city, village,...","countryCode":"BY","lng":"28.232","fcodeName":"populated place","toponymName":"Lyady","fcl":"P","name":"Lyady","fcode":"PPL","geonameId":625792,"lat":"53.1413","adminName1":"Minskaja Voblasts’","population":0},{"countryId":"2017370","adminCode1":"83","countryName":"Russia","fclName":"city, village,...","countryCode":"RU","lng":"40.1","fcodeName":"populated place","toponymName":"Lyady","fcl":"P","name":"Lyady","fcode":"PPL","geonameId":532962,"lat":"55.63333","adminName1":"Vladimir","population":0},{"countryId":"2017370","adminCode1":"77","countryName":"Russia","fclName":"city, village,...","countryCode":"RU","lng":"32.5226","fcodeName":"populated place","toponymName":"Lyady","fcl":"P","name":"Lyady","fcode":"PPL","geonameId":823333,"lat":"56.99193","adminName1":"Tverskaya","population":0},{"countryId":"2017370","adminCode1":"69","countryName":"Russia","fclName":"city, village,...","countryCode":"RU","lng":"32.56833","fcodeName":"populated place","toponymName":"Lyady","fcl":"P","name":"Lyady","fcode":"PPL","geonameId":814304,"lat":"54.39663","adminName1":"Smolensk","population":0},{"countryId":"630336","adminCode1":"05","countryName":"Belarus","fclName":"city, village,...","countryCode":"BY","lng":"29.1223","fcodeName":"populated place","toponymName":"Lyady","fcl":"P","name":"Lyady","fcode":"PPL","geonameId":625778,"lat":"54.4438","adminName1":"Minskaja Voblasts’","population":0},{"countryId":"630336","adminCode1":"05","countryName":"Belarus","fclName":"city, village,...","countryCode":"BY","lng":"28.0894","fcodeName":"populated place","toponymName":"Lyady","fcl":"P","name":"Lyady","fcode":"PPL","geonameId":625780,"lat":"53.7761","adminName1":"Minskaja Voblasts’","population":0},{"countryId":"630336","adminCode1":"05","countryName":"Belarus","fclName":"city, village,...","countryCode":"BY","lng":"27.5269","fcodeName":"populated place","toponymName":"Lyady","fcl":"P","name":"Lyady","fcode":"PPL","geonameId":8020167,"lat":"53.4177","adminName1":"Minskaja Voblasts’","population":0},{"countryId":"630336","adminCode1":"06","countryName":"Belarus","fclName":"city, village,...","countryCode":"BY","lng":"28.8616","fcodeName":"populated place","toponymName":"Lyady","fcl":"P","name":"Lyady","fcode":"PPL","geonameId":8146969,"lat":"53.0655","adminName1":"Mahilyowskaya Voblastsʼ","population":0},{"countryId":"630336","adminCode1":"05","countryName":"Belarus","fclName":"city, village,...","countryCode":"BY","lng":"27.8167","fcodeName":"populated place","toponymName":"Lyady","fcl":"P","name":"Lyady","fcode":"PPL","geonameId":8247195,"lat":"54.0632","adminName1":"Minskaja Voblasts’","population":87},{"countryId":"630336","adminCode1":"05","countryName":"Belarus","fclName":"city, village,...","countryCode":"BY","lng":"28.6407","fcodeName":"populated place","toponymName":"Lyady","fcl":"P","name":"Lyady","fcode":"PPL","geonameId":8248148,"lat":"54.254","adminName1":"Minskaja Voblasts’","population":0},{"countryId":"630336","adminCode1":"02","countryName":"Belarus","fclName":"city, village,...","countryCode":"BY","lng":"31.048","fcodeName":"populated place","toponymName":"Lyady","fcl":"P","name":"Lyady","fcode":"PPL","geonameId":8178372,"lat":"52.6087","adminName1":"Gomel","population":0},{"countryId":"630336","adminCode1":"07","countryName":"Belarus","fclName":"city, village,...","countryCode":"BY","lng":"26.9876","fcodeName":"populated place","toponymName":"Lyady","fcl":"P","name":"Lyady","fcode":"PPL","geonameId":8198133,"lat":"55.7011","adminName1":"Vitsyebskaya Voblastsʼ","population":0},{"countryId":"2017370","adminCode1":"69","countryName":"Russia","fclName":"city, village,...","countryCode":"RU","lng":"32.98522","fcodeName":"populated place","toponymName":"Lyady","fcl":"P","name":"Lyady","fcode":"PPL","geonameId":7092453,"lat":"54.62782","adminName1":"Smolensk","population":0},{"countryId":"630336","adminCode1":"06","countryName":"Belarus","fclName":"city, village,...","countryCode":"BY","lng":"31.5024","fcodeName":"populated place","toponymName":"Lyady","fcl":"P","name":"Lyady","fcode":"PPL","geonameId":8331752,"lat":"53.7438","adminName1":"Mahilyowskaya Voblastsʼ","population":0},{"countryId":"2017370","adminCode1":"60","countryName":"Russia","fclName":"city, village,...","countryCode":"RU","lng":"29.91667","fcodeName":"populated place","toponymName":"Lyady","fcl":"P","name":"Lyady","fcode":"PPL","geonameId":532961,"lat":"57.01667","adminName1":"Pskov","population":0},{"countryId":"2017370","adminCode1":"52","countryName":"Russia","fclName":"city, village,...","countryCode":"RU","lng":"31.643","fcodeName":"populated place","toponymName":"Lyady","fcl":"P","name":"Lyady","fcode":"PPL","geonameId":574123,"lat":"57.1385","adminName1":"Novgorod","population":0},{"countryId":"2017370","adminCode1":"10","countryName":"Russia","fclName":"city, village,...","countryCode":"RU","lng":"32.3022","fcodeName":"populated place","toponymName":"Krasnyye Lyady","fcl":"P","name":"Krasnyye Lyady","fcode":"PPL","geonameId":7450026,"lat":"52.1756","adminName1":"Brjansk","population":17},{"countryId":"2017370","adminCode1":"10","countryName":"Russia","fclName":"city, village,...","countryCode":"RU","lng":"32.1598","fcodeName":"populated place","toponymName":"Arininy Lyady","fcl":"P","name":"Arininy Lyady","fcode":"PPL","geonameId":7450074,"lat":"52.4781","adminName1":"Brjansk","population":0},{"countryId":"630336","adminCode1":"05","countryName":"Belarus","fclName":"city, village,...","countryCode":"BY","lng":"28.831","fcodeName":"populated place","toponymName":"Golovnyye Lyady","fcl":"P","name":"Golovnyye Lyady","fcode":"PPL","geonameId":628273,"lat":"53.6844","adminName1":"Minskaja Voblasts’","population":0},{"countryId":"630336","adminCode1":"05","countryName":"Belarus","fclName":"city, village,...","countryCode":"BY","lng":"28.0426","fcodeName":"populated place","toponymName":"Posëlok Lyady","fcl":"P","name":"Posëlok Lyady","fcode":"PPL","geonameId":8537686,"lat":"53.7886","adminName1":"Minskaja Voblasts’","population":0},{"countryId":"630336","adminCode1":"05","countryName":"Belarus","fclName":"city, village,...","countryCode":"BY","lng":"28.089","fcodeName":"populated place","toponymName":"Malyye Lyady","fcl":"P","name":"Malyye Lyady","fcode":"PPL","geonameId":8537688,"lat":"53.7917","adminName1":"Minskaja Voblasts’","population":0}]}