{"totalResultsCount":9,"geonames":[{"adminCode1":"07","lng":"31.171","geonameId":625777,"toponymName":"Lyady","countryId":"630336","fcl":"P","population":0,"countryCode":"BY","name":"Lyady","fclName":"city, village,...","countryName":"Belarus","fcodeName":"populated place","adminName1":"Vitebsk","lat":"54.6","fcode":"PPL"},{"adminCode1":"10","lng":"32.70305","geonameId":532965,"toponymName":"Lyady","countryId":"2017370","fcl":"P","population":0,"countryCode":"RU","name":"Lyady","fclName":"city, village,...","countryName":"Russia","fcodeName":"populated place","adminName1":"Brjansk","lat":"52.28342","fcode":"PPL"},{"adminCode1":"10","lng":"32.28974","geonameId":817541,"toponymName":"Lyady","countryId":"2017370","fcl":"P","population":0,"countryCode":"RU","name":"Lyady","fclName":"city, village,...","countryName":"Russia","fcodeName":"populated place","adminName1":"Brjansk","lat":"52.64955","fcode":"PPL"},{"adminCode1":"02","lng":"29.9448","geonameId":625781,"toponymName":"Lyady","countryId":"630336","fcl":"P","population":0,"countryCode":"BY","name":"Lyady","fclName":"city, village,...","countryName":"Belarus","fcodeName":"populated place","adminName1":"Gomel","lat":"52.6471","fcode":"PPL"},{"adminCode1":"69","lng":"32.56833","geonameId":814304,"toponymName":"Lyady","countryId":"2017370","fcl":"P","population":0,"countryCode":"RU","name":"Lyady","fclName":"city, village,...","countryName":"Russia","fcodeName":"populated place","adminName1":"Smolensk","lat":"54.39663","fcode":"PPL"},{"adminCode1":"06","lng":"31.5024","geonameId":8331752,"toponymName":"Lyady","countryId":"630336","fcl":"P","population":0,"countryCode":"BY","name":"Lyady","fclName":"city, village,...","countryName":"Belarus","fcodeName":"populated place","adminName1":"Mogilev","lat":"53.7438","fcode":"PPL"},{"adminCode1":"02","lng":"31.048","geonameId":8178372,"toponymName":"Lyady","countryId":"630336","fcl":"P","population":0,"countryCode":"BY","name":"Lyady","fclName":"city, village,...","countryName":"Belarus","fcodeName":"populated place","adminName1":"Gomel","lat":"52.6087","fcode":"PPL"},{"adminCode1":"10","lng":"32.3022","geonameId":7450026,"toponymName":"Krasnyye Lyady","countryId":"2017370","fcl":"P","population":17,"countryCode":"RU","name":"Krasnyye Lyady","fclName":"city, village,...","countryName":"Russia","fcodeName":"populated place","adminName1":"Brjansk","lat":"52.1756","fcode":"PPL"},{"adminCode1":"10","lng":"32.1598","geonameId":7450074,"toponymName":"Arininy Lyady","countryId":"2017370","fcl":"P","population":0,"countryCode":"RU","name":"Arininy Lyady","fclName":"city, village,...","countryName":"Russia","fcodeName":"populated place","adminName1":"Brjansk","lat":"52.4781","fcode":"PPL"}]}