{"totalResultsCount":88,"geonames":[{"adminCode1":"86","lng":"39.63681","geonameId":527013,"toponymName":"Mikhaylovka","countryId":"2017370","fcl":"P","population":0,"countryCode":"RU","name":"Mikhaylovka","fclName":"city, village,...","countryName":"Russia","fcodeName":"populated place","adminName1":"Voronezj","lat":"49.89032","fcode":"PPL"},{"adminCode1":"61","lng":"39.99946","geonameId":527017,"toponymName":"Mikhaylovka","countryId":"2017370","fcl":"P","population":0,"countryCode":"RU","name":"Mikhaylovka","fclName":"city, village,...","countryName":"Russia","fcodeName":"populated place","adminName1":"Rostov","lat":"48.37816","fcode":"PPL"},{"adminCode1":"41","lng":"35.3767","geonameId":526968,"toponymName":"Mikhaylovka","countryId":"2017370","fcl":"P","population":3012,"countryCode":"RU","name":"Mikhaylovka","fclName":"city, village,...","countryName":"Russia","fcodeName":"populated place","adminName1":"Kursk","lat":"52.2317","fcode":"PPL"},{"adminCode1":"43","lng":"38.5437","geonameId":527033,"toponymName":"Mikhaylovka","countryId":"2017370","fcl":"P","population":0,"countryCode":"RU","name":"Mikhaylovka","fclName":"city, village,...","countryName":"Russia","fcodeName":"populated place","adminName1":"Lipetsk","lat":"52.3612","fcode":"PPL"},{"adminCode1":"47","lng":"35.38222","geonameId":526862,"toponymName":"Mikhaylovka","countryId":"2017370","fcl":"P","population":0,"countryCode":"RU","name":"Mikhaylovka","fclName":"city, village,...","countryName":"Russia","fcodeName":"populated place","adminName1":"Moskovskaya","lat":"55.57389","fcode":"PPL"},{"adminCode1":"69","lng":"32.91667","geonameId":526877,"toponymName":"Mikhaylovka","countryId":"2017370","fcl":"P","population":0,"countryCode":"RU","name":"Mikhaylovka","fclName":"city, village,...","countryName":"Russia","fcodeName":"populated place","adminName1":"Smolensk","lat":"54.71667","fcode":"PPL"},{"adminCode1":"25","lng":"36.93303","geonameId":526887,"toponymName":"Mikhaylovka","countryId":"2017370","fcl":"P","population":0,"countryCode":"RU","name":"Mikhaylovka","fclName":"city, village,...","countryName":"Russia","fcodeName":"populated place","adminName1":"Kaluga","lat":"54.41083","fcode":"PPL"},{"adminCode1":"25","lng":"35.20778","geonameId":526889,"toponymName":"Mikhaylovka","countryId":"2017370","fcl":"P","population":0,"countryCode":"RU","name":"Mikhaylovka","fclName":"city, village,...","countryName":"Russia","fcodeName":"populated place","adminName1":"Kaluga","lat":"54.36361","fcode":"PPL"},{"adminCode1":"76","lng":"38.2443","geonameId":526893,"toponymName":"Mikhaylovka","countryId":"2017370","fcl":"P","population":0,"countryCode":"RU","name":"Mikhaylovka","fclName":"city, village,...","countryName":"Russia","fcodeName":"populated place","adminName1":"Tula","lat":"54.24662","fcode":"PPL"},{"adminCode1":"69","lng":"33.33502","geonameId":526897,"toponymName":"Mikhaylovka","countryId":"2017370","fcl":"P","population":0,"countryCode":"RU","name":"Mikhaylovka","fclName":"city, village,...","countryName":"Russia","fcodeName":"populated place","adminName1":"Smolensk","lat":"54.09118","fcode":"PPL"},{"adminCode1":"76","lng":"38.442","geonameId":526906,"toponymName":"Mikhaylovka","countryId":"2017370","fcl":"P","population":0,"countryCode":"RU","name":"Mikhaylovka","fclName":"city, village,...","countryName":"Russia","fcodeName":"populated place","adminName1":"Tula","lat":"53.94","fcode":"PPL"},{"adminCode1":"62","lng":"40.04972","geonameId":526917,"toponymName":"Mikhaylovka","countryId":"2017370","fcl":"P","population":0,"countryCode":"RU","name":"Mikhaylovka","fclName":"city, village,...","countryName":"Russia","fcodeName":"populated place","adminName1":"Rjazan","lat":"53.62194","fcode":"PPL"},{"adminCode1":"76","lng":"37.09472","geonameId":526918,"toponymName":"Mikhaylovka","countryId":"2017370","fcl":"P","population":0,"countryCode":"RU","name":"Mikhaylovka","fclName":"city, village,...","countryName":"Russia","fcodeName":"populated place","adminName1":"Tula","lat":"53.58832","fcode":"PPL"},{"adminCode1":"69","lng":"32.81333","geonameId":526924,"toponymName":"Mikhaylovka","countryId":"2017370","fcl":"P","population":0,"countryCode":"RU","name":"Mikhaylovka","fclName":"city, village,...","countryName":"Russia","fcodeName":"populated place","adminName1":"Smolensk","lat":"53.45389","fcode":"PPL"},{"adminCode1":"10","lng":"34.8398","geonameId":526925,"toponymName":"Mikhaylovka","countryId":"2017370","fcl":"P","population":0,"countryCode":"RU","name":"Mikhaylovka","fclName":"city, village,...","countryName":"Russia","fcodeName":"populated place","adminName1":"Brjansk","lat":"53.36973","fcode":"PPL"},{"adminCode1":"56","lng":"36.16287","geonameId":526940,"toponymName":"Mikhaylovka","countryId":"2017370","fcl":"P","population":0,"countryCode":"RU","name":"Mikhaylovka","fclName":"city, village,...","countryName":"Russia","fcodeName":"populated place","adminName1":"Orjol","lat":"52.87422","fcode":"PPL"},{"adminCode1":"43","lng":"38.69143","geonameId":526942,"toponymName":"Mikhaylovka","countryId":"2017370","fcl":"P","population":0,"countryCode":"RU","name":"Mikhaylovka","fclName":"city, village,...","countryName":"Russia","fcodeName":"populated place","adminName1":"Lipetsk","lat":"52.7816","fcode":"PPL"},{"adminCode1":"43","lng":"39.94897","geonameId":526946,"toponymName":"Mikhaylovka","countryId":"2017370","fcl":"P","population":0,"countryCode":"RU","name":"Mikhaylovka","fclName":"city, village,...","countryName":"Russia","fcodeName":"populated place","adminName1":"Lipetsk","lat":"52.72154","fcode":"PPL"},{"adminCode1":"72","lng":"39.9431","geonameId":526949,"toponymName":"Mikhaylovka","countryId":"2017370","fcl":"P","population":0,"countryCode":"RU","name":"Mikhaylovka","fclName":"city, village,...","countryName":"Russia","fcodeName":"populated place","adminName1":"Tambov","lat":"52.71985","fcode":"PPL"},{"adminCode1":"56","lng":"36.93333","geonameId":526967,"toponymName":"Mikhaylovka","countryId":"2017370","fcl":"P","population":0,"countryCode":"RU","name":"Mikhaylovka","fclName":"city, village,...","countryName":"Russia","fcodeName":"populated place","adminName1":"Orjol","lat":"52.3","fcode":"PPL"},{"adminCode1":"41","lng":"36.27335","geonameId":526972,"toponymName":"Mikhaylovka","countryId":"2017370","fcl":"P","population":0,"countryCode":"RU","name":"Mikhaylovka","fclName":"city, village,...","countryName":"Russia","fcodeName":"populated place","adminName1":"Kursk","lat":"52.1414","fcode":"PPL"},{"adminCode1":"41","lng":"36.04478","geonameId":526974,"toponymName":"Mikhaylovka","countryId":"2017370","fcl":"P","population":0,"countryCode":"RU","name":"Mikhaylovka","fclName":"city, village,...","countryName":"Russia","fcodeName":"populated place","adminName1":"Kursk","lat":"52.10946","fcode":"PPL"},{"adminCode1":"86","lng":"39.26667","geonameId":526978,"toponymName":"Mikhaylovka","countryId":"2017370","fcl":"P","population":0,"countryCode":"RU","name":"Mikhaylovka","fclName":"city, village,...","countryName":"Russia","fcodeName":"populated place","adminName1":"Voronezj","lat":"52.05","fcode":"PPL"},{"adminCode1":"41","lng":"36.73333","geonameId":526985,"toponymName":"Mikhaylovka","countryId":"2017370","fcl":"P","population":0,"countryCode":"RU","name":"Mikhaylovka","fclName":"city, village,...","countryName":"Russia","fcodeName":"populated place","adminName1":"Kursk","lat":"51.91667","fcode":"PPL"},{"adminCode1":"41","lng":"34.4676","geonameId":526993,"toponymName":"Mikhaylovka","countryId":"2017370","fcl":"P","population":0,"countryCode":"RU","name":"Mikhaylovka","fclName":"city, village,...","countryName":"Russia","fcodeName":"populated place","adminName1":"Kursk","lat":"51.6169","fcode":"PPL"},{"adminCode1":"41","lng":"35.76667","geonameId":526994,"toponymName":"Mikhaylovka","countryId":"2017370","fcl":"P","population":0,"countryCode":"RU","name":"Mikhaylovka","fclName":"city, village,...","countryName":"Russia","fcodeName":"populated place","adminName1":"Kursk","lat":"51.6","fcode":"PPL"},{"adminCode1":"09","lng":"38.53333","geonameId":527011,"toponymName":"Mikhaylovka","countryId":"2017370","fcl":"P","population":0,"countryCode":"RU","name":"Mikhaylovka","fclName":"city, village,...","countryName":"Russia","fcodeName":"populated place","adminName1":"Belgorod","lat":"50.21667","fcode":"PPL"},{"adminCode1":"10","lng":"32.98496","geonameId":813728,"toponymName":"Mikhaylovka","countryId":"2017370","fcl":"P","population":0,"countryCode":"RU","name":"Mikhaylovka","fclName":"city, village,...","countryName":"Russia","fcodeName":"populated place","adminName1":"Brjansk","lat":"53.06183","fcode":"PPL"},{"adminCode1":"10","lng":"32.19298","geonameId":814257,"toponymName":"Mikhaylovka","countryId":"2017370","fcl":"P","population":0,"countryCode":"RU","name":"Mikhaylovka","fclName":"city, village,...","countryName":"Russia","fcodeName":"populated place","adminName1":"Brjansk","lat":"53.10044","fcode":"PPL"},{"adminCode1":"56","lng":"35.6861","geonameId":816517,"toponymName":"Mikhaylovka","countryId":"2017370","fcl":"P","population":0,"countryCode":"RU","name":"Mikhaylovka","fclName":"city, village,...","countryName":"Russia","fcodeName":"populated place","adminName1":"Orjol","lat":"53.26485","fcode":"PPL"},{"adminCode1":"76","lng":"38.28403","geonameId":818430,"toponymName":"Mikhaylovka","countryId":"2017370","fcl":"P","population":0,"countryCode":"RU","name":"Mikhaylovka","fclName":"city, village,...","countryName":"Russia","fcodeName":"populated place","adminName1":"Tula","lat":"54.57777","fcode":"PPL"},{"adminCode1":"62","lng":"39.20297","geonameId":821420,"toponymName":"Mikhaylovka","countryId":"2017370","fcl":"P","population":0,"countryCode":"RU","name":"Mikhaylovka","fclName":"city, village,...","countryName":"Russia","fcodeName":"populated place","adminName1":"Rjazan","lat":"53.68115","fcode":"PPL"},{"adminCode1":"76","lng":"38.70074","geonameId":822011,"toponymName":"Mikhaylovka","countryId":"2017370","fcl":"P","population":0,"countryCode":"RU","name":"Mikhaylovka","fclName":"city, village,...","countryName":"Russia","fcodeName":"populated place","adminName1":"Tula","lat":"53.84981","fcode":"PPL"},{"adminCode1":"56","lng":"36.44409","geonameId":831473,"toponymName":"Mikhaylovka","countryId":"2017370","fcl":"P","population":0,"countryCode":"RU","name":"Mikhaylovka","fclName":"city, village,...","countryName":"Russia","fcodeName":"populated place","adminName1":"Orjol","lat":"52.92112","fcode":"PPL"},{"adminCode1":"43","lng":"39.4695","geonameId":526745,"toponymName":"Mikhaylovka","countryId":"2017370","fcl":"P","population":0,"countryCode":"RU","name":"Mikhaylovka","fclName":"city, village,...","countryName":"Russia","fcodeName":"populated place","adminName1":"Lipetsk","lat":"52.9204","fcode":"PPL"},{"adminCode1":"76","lng":"37.11681","geonameId":526915,"toponymName":"Mikhaylovka","countryId":"2017370","fcl":"P","population":0,"countryCode":"RU","name":"Mikhaylovka","fclName":"city, village,...","countryName":"Russia","fcodeName":"populated place","adminName1":"Tula","lat":"53.6604","fcode":"PPL"},{"adminCode1":"43","lng":"38.18931","geonameId":526933,"toponymName":"Mikhaylovka","countryId":"2017370","fcl":"P","population":0,"countryCode":"RU","name":"Mikhaylovka","fclName":"city, village,...","countryName":"Russia","fcodeName":"populated place","adminName1":"Lipetsk","lat":"52.96482","fcode":"PPL"},{"adminCode1":"43","lng":"38.56349","geonameId":526947,"toponymName":"Mikhaylovka","countryId":"2017370","fcl":"P","population":0,"countryCode":"RU","name":"Mikhaylovka","fclName":"city, village,...","countryName":"Russia","fcodeName":"populated place","adminName1":"Lipetsk","lat":"52.7105","fcode":"PPL"},{"adminCode1":"56","lng":"36.59265","geonameId":526955,"toponymName":"Mikhaylovka","countryId":"2017370","fcl":"P","population":0,"countryCode":"RU","name":"Mikhaylovka","fclName":"city, village,...","countryName":"Russia","fcodeName":"populated place","adminName1":"Orjol","lat":"52.67124","fcode":"PPL"},{"adminCode1":"56","lng":"37.08333","geonameId":526960,"toponymName":"Mikhaylovka","countryId":"2017370","fcl":"P","population":0,"countryCode":"RU","name":"Mikhaylovka","fclName":"city, village,...","countryName":"Russia","fcodeName":"populated place","adminName1":"Orjol","lat":"52.48333","fcode":"PPL"},{"adminCode1":"43","lng":"38.43216","geonameId":526980,"toponymName":"Mikhaylovka","countryId":"2017370","fcl":"P","population":0,"countryCode":"RU","name":"Mikhaylovka","fclName":"city, village,...","countryName":"Russia","fcodeName":"populated place","adminName1":"Lipetsk","lat":"52.02387","fcode":"PPL"},{"adminCode1":"41","lng":"37.1557","geonameId":526988,"toponymName":"Mikhaylovka","countryId":"2017370","fcl":"P","population":0,"countryCode":"RU","name":"Mikhaylovka","fclName":"city, village,...","countryName":"Russia","fcodeName":"populated place","adminName1":"Kursk","lat":"51.8358","fcode":"PPL"},{"adminCode1":"69","lng":"32.9717","geonameId":526874,"toponymName":"Mikhaylovka","countryId":"2017370","fcl":"P","population":0,"countryCode":"RU","name":"Mikhaylovka","fclName":"city, village,...","countryName":"Russia","fcodeName":"populated place","adminName1":"Smolensk","lat":"54.89496","fcode":"PPL"},{"adminCode1":"21","lng":"33.89482","geonameId":701159,"toponymName":"Mykhaylivka","countryId":"690791","fcl":"P","population":0,"countryCode":"UA","name":"Mikhaylovka","fclName":"city, village,...","countryName":"Ukraine","fcodeName":"populated place","adminName1":"Sumy","lat":"51.14535","fcode":"PPL"},{"adminCode1":"18","lng":"34.60654","geonameId":701172,"toponymName":"Mykhaylivka","countryId":"690791","fcl":"P","population":0,"countryCode":"UA","name":"Mikhaylovka","fclName":"city, village,...","countryName":"Ukraine","fcodeName":"populated place","adminName1":"Poltava","lat":"49.78519","fcode":"PPL"},{"adminCode1":"04","lng":"35.55904","geonameId":701190,"toponymName":"Mykhaylivka","countryId":"690791","fcl":"P","population":0,"countryCode":"UA","name":"Mikhaylovka","fclName":"city, village,...","countryName":"Ukraine","fcodeName":"populated place","adminName1":"Dnipropetrovsk","lat":"48.88352","fcode":"PPL"},{"adminCode1":"76","lng":"37.97845","geonameId":526741,"toponymName":"Mikhaylovka","countryId":"2017370","fcl":"P","population":0,"countryCode":"RU","name":"Mikhaylovka","fclName":"city, village,...","countryName":"Russia","fcodeName":"populated place","adminName1":"Tula","lat":"54.62923","fcode":"PPL"},{"adminCode1":"47","lng":"37.47035","geonameId":526833,"toponymName":"Mikhaylovka","countryId":"2017370","fcl":"P","population":0,"countryCode":"RU","name":"Mikhaylovka","fclName":"city, village,...","countryName":"Russia","fcodeName":"populated place","adminName1":"Moskovskaya","lat":"54.8621","fcode":"PPL"},{"adminCode1":"25","lng":"36.62587","geonameId":526886,"toponymName":"Mikhaylovka","countryId":"2017370","fcl":"P","population":0,"countryCode":"RU","name":"Mikhaylovka","fclName":"city, village,...","countryName":"Russia","fcodeName":"populated place","adminName1":"Kaluga","lat":"54.43669","fcode":"PPL"},{"adminCode1":"76","lng":"36.55316","geonameId":526899,"toponymName":"Mikhaylovka","countryId":"2017370","fcl":"P","population":0,"countryCode":"RU","name":"Mikhaylovka","fclName":"city, village,...","countryName":"Russia","fcodeName":"populated place","adminName1":"Tula","lat":"54.08979","fcode":"PPL"},{"adminCode1":"18","lng":"34.86632","geonameId":701179,"toponymName":"Mikhaylovka","countryId":"690791","fcl":"P","population":0,"countryCode":"UA","name":"Mikhaylovka","fclName":"city, village,...","countryName":"Ukraine","fcodeName":"populated place","adminName1":"Poltava","lat":"49.30469","fcode":"PPL"},{"adminCode1":"04","lng":"35.41669","geonameId":701209,"toponymName":"Mikhaylovka","countryId":"690791","fcl":"P","population":0,"countryCode":"UA","name":"Mikhaylovka","fclName":"city, village,...","countryName":"Ukraine","fcodeName":"populated place","adminName1":"Dnipropetrovsk","lat":"48.19415","fcode":"PPL"},{"adminCode1":"10","lng":"33.74052","geonameId":813605,"toponymName":"Mikhaylovka","countryId":"2017370","fcl":"P","population":0,"countryCode":"RU","name":"Mikhaylovka","fclName":"city, village,...","countryName":"Russia","fcodeName":"populated place","adminName1":"Brjansk","lat":"53.0454","fcode":"PPL"},{"adminCode1":"07","lng":"36.47693","geonameId":809595,"toponymName":"Mikhaylovka","countryId":"690791","fcl":"P","population":0,"countryCode":"UA","name":"Mikhaylovka","fclName":"city, village,...","countryName":"Ukraine","fcodeName":"populated place","adminName1":"Kharkiv","lat":"49.33882","fcode":"PPL"},{"adminCode1":"56","lng":"36.8147","geonameId":7451667,"toponymName":"Mikhaylovka","countryId":"2017370","fcl":"P","population":0,"countryCode":"RU","name":"Mikhaylovka","fclName":"city, village,...","countryName":"Russia","fcodeName":"abandoned populated place","adminName1":"Orjol","lat":"52.4457","fcode":"PPLQ"},{"adminCode1":"21","lng":"34.41717","geonameId":701163,"toponymName":"Mykhaylivka","countryId":"690791","fcl":"P","population":0,"countryCode":"UA","name":"Mikhaylovka","fclName":"city, village,...","countryName":"Ukraine","fcodeName":"populated place","adminName1":"Sumy","lat":"50.65973","fcode":"PPL"},{"adminCode1":"14","lng":"39.24782","geonameId":701214,"toponymName":"Mykhaylivka","countryId":"690791","fcl":"P","population":0,"countryCode":"UA","name":"Mikhaylovka","fclName":"city, village,...","countryName":"Ukraine","fcodeName":"populated place","adminName1":"Luhansk","lat":"48.06644","fcode":"PPL"},{"adminCode1":"43","lng":"38.54758","geonameId":513035,"toponymName":"Pal’na-Mikhaylovka","countryId":"2017370","fcl":"P","population":0,"countryCode":"RU","name":"Pal'na-Mikhaylovka","fclName":"city, village,...","countryName":"Russia","fcodeName":"populated place","adminName1":"Lipetsk","lat":"52.75267","fcode":"PPL"},{"adminCode1":"86","lng":"39.28685","geonameId":549036,"toponymName":"Mikhaylovka","countryId":"2017370","fcl":"P","population":0,"countryCode":"RU","name":"Mikhaylovka","fclName":"city, village,...","countryName":"Russia","fcodeName":"populated place","adminName1":"Voronezj","lat":"51.28627","fcode":"PPL"},{"adminCode1":"07","lng":"37.42027","geonameId":806844,"toponymName":"Mykhaylivka","countryId":"690791","fcl":"P","population":0,"countryCode":"UA","name":"Mykhaylivka","fclName":"city, village,...","countryName":"Ukraine","fcodeName":"populated place","adminName1":"Kharkiv","lat":"50.09036","fcode":"PPL"},{"adminCode1":"69","lng":"32.48757","geonameId":526891,"toponymName":"Mikhaylovka","countryId":"2017370","fcl":"P","population":0,"countryCode":"RU","name":"Mikhaylovka","fclName":"city, village,...","countryName":"Russia","fcodeName":"populated place","adminName1":"Smolensk","lat":"54.27261","fcode":"PPL"},{"adminCode1":"86","lng":"39.66743","geonameId":526997,"toponymName":"Mikhaylovka","countryId":"2017370","fcl":"P","population":0,"countryCode":"RU","name":"Mikhaylovka","fclName":"city, village,...","countryName":"Russia","fcodeName":"populated place","adminName1":"Voronezj","lat":"51.50385","fcode":"PPL"},{"adminCode1":"09","lng":"36.60712","geonameId":527007,"toponymName":"Mikhaylovka","countryId":"2017370","fcl":"P","population":0,"countryCode":"RU","name":"Mikhaylovka","fclName":"city, village,...","countryName":"Russia","fcodeName":"populated place","adminName1":"Belgorod","lat":"51.02432","fcode":"PPL"},{"adminCode1":"09","lng":"36.61958","geonameId":527009,"toponymName":"Mikhaylovka","countryId":"2017370","fcl":"P","population":0,"countryCode":"RU","name":"Mikhaylovka","fclName":"city, village,...","countryName":"Russia","fcodeName":"populated place","adminName1":"Belgorod","lat":"50.58529","fcode":"PPL"},{"adminCode1":"41","lng":"35.3643","geonameId":805818,"toponymName":"Mikhaylovka","countryId":"2017370","fcl":"P","population":0,"countryCode":"RU","name":"Mikhaylovka","fclName":"city, village,...","countryName":"Russia","fcodeName":"populated place","adminName1":"Kursk","lat":"51.2236","fcode":"PPL"},{"adminCode1":"09","lng":"37.7708","geonameId":807044,"toponymName":"Mikhaylovka","countryId":"2017370","fcl":"P","population":0,"countryCode":"RU","name":"Mikhaylovka","fclName":"city, village,...","countryName":"Russia","fcodeName":"populated place","adminName1":"Belgorod","lat":"50.2326","fcode":"PPL"},{"adminCode1":"41","lng":"37.8595","geonameId":807264,"toponymName":"Mikhaylovka","countryId":"2017370","fcl":"P","population":0,"countryCode":"RU","name":"Mikhaylovka","fclName":"city, village,...","countryName":"Russia","fcodeName":"populated place","adminName1":"Kursk","lat":"51.4395","fcode":"PPL"},{"adminCode1":"41","lng":"37.9744","geonameId":7687573,"toponymName":"Mikhaylovka","countryId":"2017370","fcl":"P","population":0,"countryCode":"RU","name":"Mikhaylovka","fclName":"city, village,...","countryName":"Russia","fcodeName":"populated place","adminName1":"Kursk","lat":"51.5956","fcode":"PPL"},{"adminCode1":"76","lng":"38.0184","geonameId":7690488,"toponymName":"Mikhaylovka","countryId":"2017370","fcl":"P","population":0,"countryCode":"RU","name":"Mikhaylovka","fclName":"city, village,...","countryName":"Russia","fcodeName":"populated place","adminName1":"Tula","lat":"54.0833","fcode":"PPL"},{"adminCode1":"41","lng":"35.1017","geonameId":7685929,"toponymName":"Mikhaylovka","countryId":"2017370","fcl":"P","population":0,"countryCode":"RU","name":"Mikhaylovka","fclName":"city, village,...","countryName":"Russia","fcodeName":"populated place","adminName1":"Kursk","lat":"51.5001","fcode":"PPL"},{"adminCode1":"06","lng":"32.4476","geonameId":8178360,"toponymName":"Mikhaylovka","countryId":"630336","fcl":"P","population":0,"countryCode":"BY","name":"Mikhaylovka","fclName":"city, village,...","countryName":"Belarus","fcodeName":"populated place","adminName1":"Mogilev","lat":"53.2269","fcode":"PPL"},{"adminCode1":"69","lng":"32.81357","geonameId":7092638,"toponymName":"Mikhaylovka","countryId":"2017370","fcl":"P","population":0,"countryCode":"RU","name":"Mikhaylovka","fclName":"city, village,...","countryName":"Russia","fcodeName":"populated place","adminName1":"Smolensk","lat":"54.09465","fcode":"PPL"},{"adminCode1":"56","lng":"35.43992","geonameId":526926,"toponymName":"Bol’shaya Mikhaylovka","countryId":"2017370","fcl":"P","population":0,"countryCode":"RU","name":"Bol’shaya Mikhaylovka","fclName":"city, village,...","countryName":"Russia","fcodeName":"populated place","adminName1":"Orjol","lat":"53.3414","fcode":"PPL"},{"adminCode1":"76","lng":"36.85","geonameId":526838,"toponymName":"Mikhaylovka Vtoraya","countryId":"2017370","fcl":"P","population":0,"countryCode":"RU","name":"Mikhaylovka Vtoraya","fclName":"city, village,...","countryName":"Russia","fcodeName":"populated place","adminName1":"Tula","lat":"53.55","fcode":"PPL"},{"adminCode1":"76","lng":"36.84778","geonameId":526843,"toponymName":"Mikhaylovka Pervaya","countryId":"2017370","fcl":"P","population":0,"countryCode":"RU","name":"Mikhaylovka Pervaya","fclName":"city, village,...","countryName":"Russia","fcodeName":"populated place","adminName1":"Tula","lat":"53.54861","fcode":"PPL"},{"adminCode1":"56","lng":"35.38699","geonameId":531508,"toponymName":"Malaya Mikhaylovka","countryId":"2017370","fcl":"P","population":0,"countryCode":"RU","name":"Malaya Mikhaylovka","fclName":"city, village,...","countryName":"Russia","fcodeName":"populated place","adminName1":"Orjol","lat":"53.32847","fcode":"PPL"},{"adminCode1":"86","lng":"40.02532","geonameId":531509,"toponymName":"Malaya Mikhaylovka","countryId":"2017370","fcl":"P","population":0,"countryCode":"RU","name":"Malaya Mikhaylovka","fclName":"city, village,...","countryName":"Russia","fcodeName":"populated place","adminName1":"Voronezj","lat":"51.89399","fcode":"PPL"},{"adminCode1":"86","lng":"39.97992","geonameId":471054,"toponymName":"Mikhaylovka Vtoraya","countryId":"2017370","fcl":"P","population":0,"countryCode":"RU","name":"Mikhaylovka Vtoraya","fclName":"city, village,...","countryName":"Russia","fcodeName":"populated place","adminName1":"Voronezj","lat":"51.74048","fcode":"PPL"},{"adminCode1":"04","lng":"34.72759","geonameId":692175,"toponymName":"Sursko-Mikhaylovka","countryId":"690791","fcl":"P","population":2552,"countryCode":"UA","name":"Sursko-Mikhaylovka","fclName":"city, village,...","countryName":"Ukraine","fcodeName":"populated place","adminName1":"Dnipropetrovsk","lat":"48.27202","fcode":"PPL"},{"adminCode1":"43","lng":"40.0699","geonameId":526969,"toponymName":"Mikhaylovka","countryId":"2017370","fcl":"P","population":0,"countryCode":"RU","name":"Mikhaylovka","fclName":"city, village,...","countryName":"Russia","fcodeName":"abandoned populated place","adminName1":"Lipetsk","lat":"52.2295","fcode":"PPLQ"},{"adminCode1":"04","lng":"35.39746","geonameId":707467,"toponymName":"Ivano-Mykhaylivka","countryId":"690791","fcl":"P","population":0,"countryCode":"UA","name":"Ivano-Mikhaylovka","fclName":"city, village,...","countryName":"Ukraine","fcodeName":"populated place","adminName1":"Dnipropetrovsk","lat":"48.7817","fcode":"PPL"},{"adminCode1":"05","lng":"36.92487","geonameId":693031,"toponymName":"Spas’ko-Mykhaylivka","countryId":"690791","fcl":"P","population":0,"countryCode":"UA","name":"Spassko-Mikhaylovka","fclName":"city, village,...","countryName":"Ukraine","fcodeName":"populated place","adminName1":"Donetsk","lat":"48.58096","fcode":"PPL"},{"adminCode1":"26","lng":"35.23153","geonameId":697441,"toponymName":"Petro-Mikhaylovka","countryId":"690791","fcl":"P","population":0,"countryCode":"UA","name":"Petro-Mikhaylovka","fclName":"city, village,...","countryName":"Ukraine","fcodeName":"populated place","adminName1":"Zaporizhia","lat":"48.0589","fcode":"PPL"},{"adminCode1":"56","lng":"36.93333","geonameId":526841,"toponymName":"Mikhaylovka Pervaya","countryId":"2017370","fcl":"P","population":0,"countryCode":"RU","name":"Mikhaylovka Pervaya","fclName":"city, village,...","countryName":"Russia","fcodeName":"section of populated place","adminName1":"Orjol","lat":"52.3","fcode":"PPLX"},{"adminCode1":"06","lng":"32.4061","geonameId":625199,"toponymName":"Mikhaylovka","countryId":"630336","fcl":"P","population":0,"countryCode":"BY","name":"Mikhaylovka","fclName":"city, village,...","countryName":"Belarus","fcodeName":"abandoned populated place","adminName1":"Mogilev","lat":"53.4785","fcode":"PPLQ"},{"adminCode1":"56","lng":"36.93333","geonameId":526836,"toponymName":"Mikhaylovka Vtoraya","countryId":"2017370","fcl":"P","population":0,"countryCode":"RU","name":"Mikhaylovka Vtoraya","fclName":"city, village,...","countryName":"Russia","fcodeName":"section of populated place","adminName1":"Orjol","lat":"52.3","fcode":"PPLX"},{"adminCode1":"86","lng":"40.0265","geonameId":7751557,"toponymName":"Bol’shaya Mikhaylovka","countryId":"2017370","fcl":"P","population":0,"countryCode":"RU","name":"Bol’shaya Mikhaylovka","fclName":"city, village,...","countryName":"Russia","fcodeName":"populated place","adminName1":"Voronezj","lat":"51.9017","fcode":"PPL"},{"adminCode1":"05","lng":"38.00632","geonameId":708468,"toponymName":"Horbachevo-Mykhaylivka","countryId":"690791","fcl":"P","population":797,"countryCode":"UA","name":"Horbachevo-Mykhaylivka","fclName":"city, village,...","countryName":"Ukraine","fcodeName":"populated place","adminName1":"Donetsk","lat":"47.85118","fcode":"PPL"}]}