{"geonames": [{"fcl": "P", "countryName": "Russia", "adminCode1": "52", "fcodeName": "populated place", "adminName1": "Novgorod", "lng": "31.55059", "name": "Mshaga", "toponymName": "Mshaga", "lat": "58.53556", "fclName": "city, village,...", "geonameId": 524669, "fcode": "PPL", "population": 0, "countryCode": "RU", "countryId": "2017370"}, {"fcl": "P", "countryName": "Russia", "adminCode1": "52", "fcodeName": "populated place", "adminName1": "Novgorod", "lng": "34.81667", "name": "Mshaga", "toponymName": "Mshaga", "lat": "58.91667", "fclName": "city, village,...", "geonameId": 524668, "fcode": "PPL", "population": 0, "countryCode": "RU", "countryId": "2017370"}, {"fcl": "P", "countryName": "Russia", "adminCode1": "52", "fcodeName": "populated place", "adminName1": "Novgorod", "lng": "30.59399", "name": "Mshaga", "toponymName": "Mshaga", "lat": "58.20569", "fclName": "city, village,...", "geonameId": 524670, "fcode": "PPL", "population": 0, "countryCode": "RU", "countryId": "2017370"}, {"fcl": "P", "countryName": "Russia", "adminCode1": "52", "fcodeName": "populated place", "adminName1": "Novgorod", "lng": "30.6", "name": "Novaya Mshaga", "toponymName": "Novaya Mshaga", "lat": "58.25", "fclName": "city, village,...", "geonameId": 519590, "fcode": "PPL", "population": 0, "countryCode": "RU", "countryId": "2017370"}, {"fcl": "P", "countryName": "Russia", "adminCode1": "52", "fcodeName": "section of populated place", "adminName1": "Novgorod", "lng": "30.58982", "name": "Mshaga Yamskaya", "toponymName": "Mshaga Yamskaya", "lat": "58.20222", "fclName": "city, village,...", "geonameId": 524665, "fcode": "PPLX", "population": 0, "countryCode": "RU", "countryId": "2017370"}, {"fcl": "P", "countryName": "Russia", "adminCode1": "52", "fcodeName": "section of populated place", "adminName1": "Novgorod", "lng": "30.59756", "name": "Mshaga Voskresenskaya", "toponymName": "Mshaga Voskresenskaya", "lat": "58.21163", "fclName": "city, village,...", "geonameId": 524666, "fcode": "PPLX", "population": 0, "countryCode": "RU", "countryId": "2017370"}], "totalResultsCount": 6, "url": "http://api.geonames.org/search?north=61.31&west=28.65&south=57.1&name=%D0%9C%D1%88%D0%B0%D0%B3%D0%B0&username=jaguillette&east=39.89&featureClass=P&type=json"}