{"totalResultsCount":6,"geonames":[{"countryId":"2017370","adminCode1":"52","countryName":"Russia","fclName":"city, village,...","countryCode":"RU","lng":"34.81667","fcodeName":"populated place","toponymName":"Mshaga","fcl":"P","name":"Mshaga","fcode":"PPL","geonameId":524668,"lat":"58.91667","adminName1":"Novgorod","population":0},{"countryId":"2017370","adminCode1":"52","countryName":"Russia","fclName":"city, village,...","countryCode":"RU","lng":"30.59399","fcodeName":"populated place","toponymName":"Mshaga","fcl":"P","name":"Mshaga","fcode":"PPL","geonameId":524670,"lat":"58.20569","adminName1":"Novgorod","population":0},{"countryId":"2017370","adminCode1":"52","countryName":"Russia","fclName":"city, village,...","countryCode":"RU","lng":"31.55059","fcodeName":"populated place","toponymName":"Mshaga","fcl":"P","name":"Mshaga","fcode":"PPL","geonameId":524669,"lat":"58.53556","adminName1":"Novgorod","population":0},{"countryId":"2017370","adminCode1":"52","countryName":"Russia","fclName":"city, village,...","countryCode":"RU","lng":"30.6","fcodeName":"populated place","toponymName":"Novaya Mshaga","fcl":"P","name":"Novaya Mshaga","fcode":"PPL","geonameId":519590,"lat":"58.25","adminName1":"Novgorod","population":0},{"countryId":"2017370","adminCode1":"52","countryName":"Russia","fclName":"city, village,...","countryCode":"RU","lng":"30.58982","fcodeName":"section of populated place","toponymName":"Mshaga Yamskaya","fcl":"P","name":"Mshaga Yamskaya","fcode":"PPLX","geonameId":524665,"lat":"58.20222","adminName1":"Novgorod","population":0},{"countryId":"2017370","adminCode1":"52","countryName":"Russia","fclName":"city, village,...","countryCode":"RU","lng":"30.59756","fcodeName":"section of populated place","toponymName":"Mshaga Voskresenskaya","fcl":"P","name":"Mshaga Voskresenskaya","fcode":"PPLX","geonameId":524666,"lat":"58.21163","adminName1":"Novgorod","population":0}]}