{"totalResultsCount":30,"geonames":[{"countryId":"2017370","adminCode1":"61","countryName":"Russia","fclName":"city, village,...","countryCode":"RU","lng":"41.76444","fcodeName":"populated place","toponymName":"Orlov","fcl":"P","name":"Orlov","fcode":"PPL","geonameId":514922,"lat":"49.04694","adminName1":"Rostov","population":0},{"countryId":"2017370","adminCode1":"10","countryName":"Russia","fclName":"city, village,...","countryCode":"RU","lng":"34.68333","fcodeName":"populated place","toponymName":"Orlov","fcl":"P","name":"Orlov","fcode":"PPL","geonameId":514919,"lat":"53","adminName1":"Brjansk","population":0},{"countryId":"2017370","adminCode1":"10","countryName":"Russia","fclName":"city, village,...","countryCode":"RU","lng":"31.78333","fcodeName":"populated place","toponymName":"Orlov","fcl":"P","name":"Orlov","fcode":"PPL","geonameId":514920,"lat":"52.8","adminName1":"Brjansk","population":0},{"countryId":"2017370","adminCode1":"07","countryName":"Russia","fclName":"city, village,...","countryCode":"RU","lng":"46.11361","fcodeName":"populated place","toponymName":"Orlov","fcl":"P","name":"Orlov","fcode":"PPL","geonameId":514924,"lat":"48.49972","adminName1":"Astrakhan","population":0},{"countryId":"2017370","adminCode1":"01","countryName":"Russia","fclName":"city, village,...","countryCode":"RU","lng":"40.36778","fcodeName":"populated place","toponymName":"Orlov","fcl":"P","name":"Orlov","fcode":"PPL","geonameId":514925,"lat":"44.82306","adminName1":"Adygeya","population":0},{"countryId":"2017370","adminCode1":"61","countryName":"Russia","fclName":"city, village,...","countryCode":"RU","lng":"41.9","fcodeName":"populated place","toponymName":"Orlov","fcl":"P","name":"Orlov","fcode":"PPL","geonameId":796740,"lat":"48.64861","adminName1":"Rostov","population":0},{"countryId":"2017370","adminCode1":"84","countryName":"Russia","fclName":"city, village,...","countryCode":"RU","lng":"45.33333","fcodeName":"populated place","toponymName":"Orlov","fcl":"P","name":"Orlov","fcode":"PPL","geonameId":514921,"lat":"49.08333","adminName1":"Volgograd","population":0},{"countryId":"2017370","adminCode1":"61","countryName":"Russia","fclName":"city, village,...","countryCode":"RU","lng":"41.8696","fcodeName":"populated place","toponymName":"Orlov","fcl":"P","name":"Orlov","fcode":"PPL","geonameId":514923,"lat":"48.65257","adminName1":"Rostov","population":0},{"countryId":"2017370","adminCode1":"38","countryName":"Russia","fclName":"city, village,...","countryCode":"RU","lng":"40.48972","fcodeName":"populated place","toponymName":"Orlov","fcl":"P","name":"Orlov","fcode":"PPL","geonameId":514798,"lat":"45.24333","adminName1":"Krasnodarskiy","population":0},{"countryId":"2017370","adminCode1":"41","countryName":"Russia","fclName":"city, village,...","countryCode":"RU","lng":"38.397","fcodeName":"populated place","toponymName":"Orlov","fcl":"P","name":"Orlov","fcode":"PPL","geonameId":7687953,"lat":"51.8708","adminName1":"Kursk","population":0},{"countryId":"2017370","adminCode1":"09","countryName":"Russia","fclName":"city, village,...","countryCode":"RU","lng":"38.5332","fcodeName":"populated place","toponymName":"Orlov","fcl":"P","name":"Orlov","fcode":"PPL","geonameId":796845,"lat":"50.0878","adminName1":"Belgorod","population":0},{"countryId":"2017370","adminCode1":"09","countryName":"Russia","fclName":"city, village,...","countryCode":"RU","lng":"38.6965","fcodeName":"populated place","toponymName":"Orlov","fcl":"P","name":"Orlov","fcode":"PPL","geonameId":797597,"lat":"50.5398","adminName1":"Belgorod","population":0},{"countryId":"2017370","adminCode1":"67","countryName":"Russia","fclName":"city, village,...","countryCode":"RU","lng":"48.2071","fcodeName":"populated place","toponymName":"Orlov Gay","fcl":"P","name":"Orlov Gay","fcode":"PPL","geonameId":514910,"lat":"50.918","adminName1":"Saratov","population":0},{"countryId":"2017370","adminCode1":"33","countryName":"Russia","fclName":"city, village,...","countryCode":"RU","lng":"48.89173","fcodeName":"populated place","toponymName":"Orlov","fcl":"P","name":"Orlov","fcode":"PPL","geonameId":550785,"lat":"58.53946","adminName1":"Kirov","population":8400},{"countryId":"2017370","adminCode1":"85","countryName":"Russia","fclName":"city, village,...","countryCode":"RU","lng":"46.4129","fcodeName":"populated place","toponymName":"Orlov Pochinok","fcl":"P","name":"Orlov Pochinok","fcode":"PPL","geonameId":7512982,"lat":"60.319","adminName1":"Vologda","population":0},{"countryId":"3057568","adminCode1":"05","countryName":"Slovakia","fclName":"city, village,...","countryCode":"SK","lng":"20.8696","fcodeName":"populated place","toponymName":"Orlov","fcl":"P","name":"Orlov","fcode":"PPL","geonameId":723967,"lat":"49.28466","adminName1":"Prešovský","population":0},{"countryId":"732800","adminCode1":"43","countryName":"Bulgaria","fclName":"city, village,...","countryCode":"BG","lng":"26.18333","fcodeName":"populated place","toponymName":"Orlov Dol","fcl":"P","name":"Orlov Dol","fcode":"PPL","geonameId":728585,"lat":"42.11667","adminName1":"Khaskovo","population":0},{"countryId":"3077311","adminCode1":"86","countryName":"Czech Republic","fclName":"city, village,...","countryCode":"CZ","lng":"16.2485","fcodeName":"populated place","toponymName":"Orlov","fcl":"P","name":"Orlov","fcode":"PPL","geonameId":3068874,"lat":"49.94864","adminName1":"Pardubický","population":0},{"countryId":"3077311","adminCode1":"88","countryName":"Czech Republic","fclName":"city, village,...","countryCode":"CZ","lng":"13.94893","fcodeName":"populated place","toponymName":"Orlov","fcl":"P","name":"Orlov","fcode":"PPL","geonameId":3068875,"lat":"49.6876","adminName1":"Central Bohemia","population":0},{"countryId":"3077311","adminCode1":"79","countryName":"Czech Republic","fclName":"city, village,...","countryCode":"CZ","lng":"14.56762","fcodeName":"populated place","toponymName":"Orlov","fcl":"P","name":"Orlov","fcode":"PPL","geonameId":3068876,"lat":"49.49346","adminName1":"Jihočeský","population":0},{"countryId":"3077311","adminCode1":"80","countryName":"Czech Republic","fclName":"city, village,...","countryCode":"CZ","lng":"15.38388","fcodeName":"populated place","toponymName":"Orlov","fcl":"P","name":"Orlov","fcode":"PPL","geonameId":3068877,"lat":"49.47884","adminName1":"Vysočina","population":0},{"countryId":"1522867","adminCode1":"00","countryName":"Kazakhstan","fclName":"city, village,...","countryCode":"KZ","lng":"50.78333","fcodeName":"populated place","toponymName":"Orlov","fcl":"P","name":"Orlov","fcode":"PPL","geonameId":608663,"lat":"51.51667","adminName1":"","population":0},{"countryId":"2017370","adminCode1":"09","countryName":"Russia","fclName":"city, village,...","countryCode":"RU","lng":"39.18028","fcodeName":"populated place","toponymName":"Orlov","fcl":"P","name":"Orlov","fcode":"PPL","geonameId":809255,"lat":"49.90806","adminName1":"Belgorod","population":0},{"countryId":"2017370","adminCode1":"38","countryName":"Russia","fclName":"city, village,...","countryCode":"RU","lng":"39.97556","fcodeName":"populated place","toponymName":"Orlov","fcl":"P","name":"Orlov","fcode":"PPL","geonameId":802690,"lat":"45.23056","adminName1":"Krasnodarskiy","population":0},{"countryId":"2017370","adminCode1":"67","countryName":"Russia","fclName":"city, village,...","countryCode":"RU","lng":"46.07913","fcodeName":"populated place","toponymName":"Orlov","fcl":"P","name":"Orlov","fcode":"PPL","geonameId":6612005,"lat":"51.90986","adminName1":"Saratov","population":0},{"countryId":"2017370","adminCode1":"86","countryName":"Russia","fclName":"city, village,...","countryCode":"RU","lng":"38.9815","fcodeName":"populated place","toponymName":"Orlov Log","fcl":"P","name":"Orlov Log","fcode":"PPL","geonameId":7687993,"lat":"51.6567","adminName1":"Voronezj","population":0},{"countryId":"2017370","adminCode1":"24","countryName":"Russia","fclName":"city, village,...","countryCode":"RU","lng":"42.0847","fcodeName":"populated place","toponymName":"Proletarskiy","fcl":"P","name":"Proletarskiy","fcode":"PPL","geonameId":504809,"lat":"46.4633","adminName1":"Kalmykiya","population":0},{"countryId":"690791","adminCode1":"26","countryName":"Ukraine","fclName":"city, village,...","countryCode":"UA","lng":"35.5709","fcodeName":"populated place","toponymName":"Orlovo","fcl":"P","name":"Orlovo","fcode":"PPL","geonameId":698366,"lat":"47.06509","adminName1":"Zaporizhia","population":0},{"countryId":"1527747","adminCode1":"06","countryName":"Kyrgyzstan","fclName":"city, village,...","countryCode":"KG","lng":"71.95209","fcodeName":"populated place","toponymName":"Orlovka","fcl":"P","name":"Orlovka","fcode":"PPL","geonameId":1527553,"lat":"42.54678","adminName1":"Talas","population":0},{"countryId":"690791","adminCode1":"21","countryName":"Ukraine","fclName":"city, village,...","countryCode":"UA","lng":"34.08008","fcodeName":"populated place","toponymName":"Orliv Yar","fcl":"P","name":"Orliv Yar","fcode":"PPL","geonameId":809078,"lat":"51.83777","adminName1":"Sumy","population":0}]}