{"totalResultsCount":26,"geonames":[{"adminCode1":"60","lng":"28.64667","geonameId":514163,"toponymName":"Ostrov","countryId":"2017370","fcl":"P","population":0,"countryCode":"RU","name":"Ostrov","fclName":"city, village,...","countryName":"Russia","fcodeName":"populated place","adminName1":"Pskov","lat":"58.47806","fcode":"PPL"},{"adminCode1":"52","lng":"31.51667","geonameId":514155,"toponymName":"Ostrov","countryId":"2017370","fcl":"P","population":0,"countryCode":"RU","name":"Ostrov","fclName":"city, village,...","countryName":"Russia","fcodeName":"populated place","adminName1":"Novgorod","lat":"58.93333","fcode":"PPL"},{"adminCode1":"52","lng":"30.57636","geonameId":514161,"toponymName":"Ostrov","countryId":"2017370","fcl":"P","population":0,"countryCode":"RU","name":"Ostrov","fclName":"city, village,...","countryName":"Russia","fcodeName":"populated place","adminName1":"Novgorod","lat":"58.65068","fcode":"PPL"},{"adminCode1":"52","lng":"30.53118","geonameId":514162,"toponymName":"Ostrov","countryId":"2017370","fcl":"P","population":0,"countryCode":"RU","name":"Ostrov","fclName":"city, village,...","countryName":"Russia","fcodeName":"populated place","adminName1":"Novgorod","lat":"58.48486","fcode":"PPL"},{"adminCode1":"52","lng":"30.93999","geonameId":514173,"toponymName":"Ostrov","countryId":"2017370","fcl":"P","population":0,"countryCode":"RU","name":"Ostrov","fclName":"city, village,...","countryName":"Russia","fcodeName":"populated place","adminName1":"Novgorod","lat":"57.21314","fcode":"PPL"},{"adminCode1":"60","lng":"27.56124","geonameId":856204,"toponymName":"Ostrov","countryId":"2017370","fcl":"P","population":0,"countryCode":"RU","name":"Ostrov","fclName":"city, village,...","countryName":"Russia","fcodeName":"populated place","adminName1":"Pskov","lat":"58.28737","fcode":"PPL"},{"adminCode1":"60","lng":"29.5014","geonameId":7597592,"toponymName":"Ostrov","countryId":"2017370","fcl":"P","population":0,"countryCode":"RU","name":"Ostrov","fclName":"city, village,...","countryName":"Russia","fcodeName":"populated place","adminName1":"Pskov","lat":"56.8448","fcode":"PPL"},{"adminCode1":"52","lng":"30.7731","geonameId":7600867,"toponymName":"Ostrov","countryId":"2017370","fcl":"P","population":0,"countryCode":"RU","name":"Ostrov","fclName":"city, village,...","countryName":"Russia","fcodeName":"populated place","adminName1":"Novgorod","lat":"57.8589","fcode":"PPL"},{"adminCode1":"52","lng":"30.21025","geonameId":514166,"toponymName":"Ostrov","countryId":"2017370","fcl":"P","population":0,"countryCode":"RU","name":"Ostrov","fclName":"city, village,...","countryName":"Russia","fcodeName":"populated place","adminName1":"Novgorod","lat":"58.19794","fcode":"PPL"},{"adminCode1":"77","lng":"31.60261","geonameId":7418770,"toponymName":"Ostrov","countryId":"2017370","fcl":"P","population":0,"countryCode":"RU","name":"Ostrov","fclName":"city, village,...","countryName":"Russia","fcodeName":"populated place","adminName1":"Tverskaya","lat":"56.818","fcode":"PPL"},{"adminCode1":"60","lng":"29.4883","geonameId":7598657,"toponymName":"Ostrov","countryId":"2017370","fcl":"P","population":0,"countryCode":"RU","name":"Ostrov","fclName":"city, village,...","countryName":"Russia","fcodeName":"populated place","adminName1":"Pskov","lat":"56.6074","fcode":"PPL"},{"adminCode1":"60","lng":"29.8678","geonameId":7599187,"toponymName":"Ostrov","countryId":"2017370","fcl":"P","population":0,"countryCode":"RU","name":"Ostrov","fclName":"city, village,...","countryName":"Russia","fcodeName":"populated place","adminName1":"Pskov","lat":"56.0091","fcode":"PPL"},{"adminCode1":"07","lng":"30.6501","geonameId":8280077,"toponymName":"Ostrov","countryId":"630336","fcl":"P","population":0,"countryCode":"BY","name":"Ostrov","fclName":"city, village,...","countryName":"Belarus","fcodeName":"populated place","adminName1":"Vitebsk","lat":"55.262","fcode":"PPL"},{"adminCode1":"60","lng":"28.35368","geonameId":514171,"toponymName":"Ostrov","countryId":"2017370","fcl":"P","population":24500,"countryCode":"RU","name":"Ostrov","fclName":"city, village,...","countryName":"Russia","fcodeName":"populated place","adminName1":"Pskov","lat":"57.34395","fcode":"PPL"},{"adminCode1":"60","lng":"29.6192","geonameId":7598743,"toponymName":"Ostrov","countryId":"2017370","fcl":"P","population":0,"countryCode":"RU","name":"Ostrov","fclName":"city, village,...","countryName":"Russia","fcodeName":"abandoned populated place","adminName1":"Pskov","lat":"56.5314","fcode":"PPLQ"},{"adminCode1":"52","lng":"31.71667","geonameId":511344,"toponymName":"Peresvet-Ostrov","countryId":"2017370","fcl":"P","population":0,"countryCode":"RU","name":"Peresvet-Ostrov","fclName":"city, village,...","countryName":"Russia","fcodeName":"populated place","adminName1":"Novgorod","lat":"58.98333","fcode":"PPL"},{"adminCode1":"52","lng":"31.86972","geonameId":572948,"toponymName":"Bol’shoy Ostrov","countryId":"2017370","fcl":"P","population":0,"countryCode":"RU","name":"Bol’shoy Ostrov","fclName":"city, village,...","countryName":"Russia","fcodeName":"populated place","adminName1":"Novgorod","lat":"57.43833","fcode":"PPL"},{"adminCode1":"60","lng":"30.06667","geonameId":498146,"toponymName":"Savostin Ostrov","countryId":"2017370","fcl":"P","population":0,"countryCode":"RU","name":"Savostin Ostrov","fclName":"city, village,...","countryName":"Russia","fcodeName":"populated place","adminName1":"Pskov","lat":"57.41667","fcode":"PPL"},{"adminCode1":"52","lng":"31.83333","geonameId":529850,"toponymName":"Malyy Ostrov","countryId":"2017370","fcl":"P","population":0,"countryCode":"RU","name":"Malyy Ostrov","fclName":"city, village,...","countryName":"Russia","fcodeName":"populated place","adminName1":"Novgorod","lat":"57.43333","fcode":"PPL"},{"adminCode1":"60","lng":"28.02103","geonameId":823739,"toponymName":"Ostrov Belov","countryId":"2017370","fcl":"P","population":0,"countryCode":"RU","name":"Ostrov Belov","fclName":"city, village,...","countryName":"Russia","fcodeName":"populated place","adminName1":"Pskov","lat":"58.00166","fcode":"PPL"},{"adminCode1":"00","lng":"28.1122","geonameId":623943,"toponymName":"Ostrov","countryId":"630336","fcl":"P","population":0,"countryCode":"BY","name":"Ostrov","fclName":"city, village,...","countryName":"Belarus","fcodeName":"populated place","adminName1":"","lat":"56.05231","fcode":"PPL"},{"adminCode1":"60","lng":"28.0698","geonameId":514037,"toponymName":"Ostrov Zalit","countryId":"2017370","fcl":"P","population":0,"countryCode":"RU","name":"Ostrov Zalit","fclName":"city, village,...","countryName":"Russia","fcodeName":"populated place","adminName1":"Pskov","lat":"58.01281","fcode":"PPL"},{"adminCode1":"60","lng":"28.6973","geonameId":7079969,"toponymName":"Stekhnov Ostrov","countryId":"2017370","fcl":"P","population":0,"countryCode":"RU","name":"Stekhnov Ostrov","fclName":"city, village,...","countryName":"Russia","fcodeName":"populated place","adminName1":"Pskov","lat":"56.99007","fcode":"PPL"},{"adminCode1":"52","lng":"31.88749","geonameId":582984,"toponymName":"Aleksandrovskoye","countryId":"2017370","fcl":"P","population":0,"countryCode":"RU","name":"Aleksandrovskoye","fclName":"city, village,...","countryName":"Russia","fcodeName":"populated place","adminName1":"Novgorod","lat":"58.78572","fcode":"PPL"},{"adminCode1":"52","lng":"30.7984","geonameId":514122,"toponymName":"Ostrova","countryId":"2017370","fcl":"P","population":0,"countryCode":"RU","name":"Ostrova","fclName":"city, village,...","countryName":"Russia","fcodeName":"populated place","adminName1":"Novgorod","lat":"58.18025","fcode":"PPL"},{"adminCode1":"60","lng":"27.91667","geonameId":467488,"toponymName":"Yeniki","countryId":"2017370","fcl":"P","population":0,"countryCode":"RU","name":"Yeniki","fclName":"city, village,...","countryName":"Russia","fcodeName":"populated place","adminName1":"Pskov","lat":"56.76667","fcode":"PPL"}]}