{"totalResultsCount":7,"geonames":[{"adminCode1":"25","lng":"34.72188","geonameId":817863,"toponymName":"Pavlovo","countryId":"2017370","fcl":"P","population":0,"countryCode":"RU","name":"Pavlovo","fclName":"city, village,...","countryName":"Russia","fcodeName":"populated place","adminName1":"Kaluga","lat":"54.50148","fcode":"PPL"},{"adminCode1":"25","lng":"34.94278","geonameId":6284388,"toponymName":"Pavlovo","countryId":"2017370","fcl":"P","population":0,"countryCode":"RU","name":"Pavlovo","fclName":"city, village,...","countryName":"Russia","fcodeName":"populated place","adminName1":"Kaluga","lat":"54.59139","fcode":"PPL"},{"adminCode1":"76","lng":"36.96322","geonameId":512097,"toponymName":"Pavlovo","countryId":"2017370","fcl":"P","population":0,"countryCode":"RU","name":"Pavlovo","fclName":"city, village,...","countryName":"Russia","fcodeName":"populated place","adminName1":"Tula","lat":"54.50534","fcode":"PPL"},{"adminCode1":"83","lng":"39.67906","geonameId":7077432,"toponymName":"Pavlovo","countryId":"2017370","fcl":"P","population":0,"countryCode":"RU","name":"Pavlovo","fclName":"city, village,...","countryName":"Russia","fcodeName":"populated place","adminName1":"Vladimir","lat":"56.12344","fcode":"PPL"},{"adminCode1":"69","lng":"35.03306","geonameId":813787,"toponymName":"Pavlovo","countryId":"2017370","fcl":"P","population":0,"countryCode":"RU","name":"Pavlovo","fclName":"city, village,...","countryName":"Russia","fcodeName":"populated place","adminName1":"Smolensk","lat":"55.91028","fcode":"PPL"},{"adminCode1":"76","lng":"38.3065","geonameId":7690567,"toponymName":"Pavlovo-Vorontsovo","countryId":"2017370","fcl":"P","population":0,"countryCode":"RU","name":"Pavlovo-Vorontsovo","fclName":"city, village,...","countryName":"Russia","fcodeName":"populated place","adminName1":"Tula","lat":"54.6514","fcode":"PPL"},{"adminCode1":"47","lng":"38.65025","geonameId":512023,"toponymName":"Pavlovskiy Posad","countryId":"2017370","fcl":"P","population":60051,"countryCode":"RU","name":"Pavlovskiy Posad","fclName":"city, village,...","countryName":"Russia","fcodeName":"populated place","adminName1":"Moskovskaya","lat":"55.78187","fcode":"PPL"}]}