{"totalResultsCount":9,"geonames":[{"countryId":"2017370","adminCode1":"90","countryName":"Russia","fclName":"city, village,...","countryCode":"RU","lng":"56.31472","fcodeName":"populated place","toponymName":"Zvëzdnyy","fcl":"P","name":"Zvëzdnyy","fcode":"PPL","geonameId":831140,"lat":"57.7325","adminName1":"Perm","population":9800},{"countryId":"2017370","adminCode1":"91","countryName":"Russia","fclName":"city, village,...","countryCode":"RU","lng":"93.02806","fcodeName":"populated place","toponymName":"Novotroitskoye","fcl":"P","name":"Novotroitskoye","fcode":"PPL","geonameId":1495333,"lat":"56.65917","adminName1":"Krasnoyarskiy","population":0},{"countryId":"6251999","adminCode1":"08","countryName":"Canada","fclName":"city, village,...","countryCode":"CA","lng":"-80.07159","fcodeName":"populated place","toponymName":"Perm","fcl":"P","name":"Perm","fcode":"PPL","geonameId":6101387,"lat":"44.16295","adminName1":"Ontario","population":0},{"countryId":"1605651","adminCode1":"80","countryName":"Thailand","fclName":"city, village,...","countryCode":"TH","lng":"102.44908","fcodeName":"populated place","toponymName":"Ban Prem Kamon","fcl":"P","name":"Ban Prem Kamon","fcode":"PPL","geonameId":1950610,"lat":"13.62408","adminName1":"Sa Kaeo","population":0},{"countryId":"1605651","adminCode1":"36","countryName":"Thailand","fclName":"city, village,...","countryCode":"TH","lng":"100.57336","fcodeName":"populated place","toponymName":"Ban Khlong Prem","fcl":"P","name":"Ban Khlong Prem","fcode":"PPL","geonameId":1618174,"lat":"14.17364","adminName1":"Phra Nakhon Si Ayutthaya","population":0},{"countryId":"1605651","adminCode1":"39","countryName":"Thailand","fclName":"city, village,...","countryCode":"TH","lng":"100.586","fcodeName":"populated place","toponymName":"Ban Khlong Prem","fcl":"P","name":"Ban Khlong Prem","fcode":"PPL","geonameId":6845799,"lat":"13.99006","adminName1":"Pathum Thani","population":0},{"countryId":"1605651","adminCode1":"79","countryName":"Thailand","fclName":"city, village,...","countryCode":"TH","lng":"102.22239","fcodeName":"populated place","toponymName":"Ban Prem Chai","fcl":"P","name":"Ban Prem Chai","fcode":"PPL","geonameId":8460138,"lat":"17.15836","adminName1":"Changwat Nong Bua Lamphu","population":0},{"countryId":"1605651","adminCode1":"39","countryName":"Thailand","fclName":"city, village,...","countryCode":"TH","lng":"100.5892","fcodeName":"populated place","toponymName":"Ban Khlong Prem Nuea","fcl":"P","name":"Ban Khlong Prem Nuea","fcode":"PPL","geonameId":1618173,"lat":"14.0497","adminName1":"Pathum Thani","population":0},{"countryId":"1605651","adminCode1":"39","countryName":"Thailand","fclName":"city, village,...","countryCode":"TH","lng":"100.59628","fcodeName":"populated place","toponymName":"Ban Khlong Prem Prachakon","fcl":"P","name":"Ban Khlong Prem Prachakon","fcode":"PPL","geonameId":8538503,"lat":"14.00356","adminName1":"Pathum Thani","population":0}]}