{"totalResultsCount":26,"geonames":[{"adminCode1":"67","lng":"45.39167","geonameId":509987,"toponymName":"Petrovsk","countryId":"2017370","fcl":"P","population":33622,"countryCode":"RU","name":"Petrovsk","fclName":"city, village,...","countryName":"Russia","fcodeName":"populated place","adminName1":"Saratov","lat":"52.30639","fcode":"PPL"},{"adminCode1":"75","lng":"86.2891","geonameId":1495053,"toponymName":"Petrovsk","countryId":"2017370","fcl":"P","population":0,"countryCode":"RU","name":"Petrovsk","fclName":"city, village,...","countryName":"Russia","fcodeName":"populated place","adminName1":"Tomsk","lat":"57.2097","fcode":"PPL"},{"adminCode1":"10","lng":"33.56797","geonameId":818846,"toponymName":"Petrovsk","countryId":"2017370","fcl":"P","population":0,"countryCode":"RU","name":"Petrovsk","fclName":"city, village,...","countryName":"Russia","fcodeName":"populated place","adminName1":"Brjansk","lat":"52.59035","fcode":"PPL"},{"adminCode1":"65","lng":"51.2994","geonameId":7614033,"toponymName":"Petrovsk","countryId":"2017370","fcl":"P","population":0,"countryCode":"RU","name":"Petrovsk","fclName":"city, village,...","countryName":"Russia","fcodeName":"populated place","adminName1":"Samara","lat":"54.4056","fcode":"PPL"},{"adminCode1":"20","lng":"100.3998","geonameId":2017952,"toponymName":"Petrovsk","countryId":"2017370","fcl":"P","population":100,"countryCode":"RU","name":"Petrovsk","fclName":"city, village,...","countryName":"Russia","fcodeName":"populated place","adminName1":"Irkutsk","lat":"54.36659","fcode":"PPL"},{"adminCode1":"93","lng":"108.84301","geonameId":2017945,"toponymName":"Petrovsk-Zabaykal’skiy","countryId":"2017370","fcl":"P","population":19713,"countryCode":"RU","name":"Petrovsk-Zabaykal'skiy","fclName":"city, village,...","countryName":"Russia","fcodeName":"populated place","adminName1":"Zabaykalsky","lat":"51.2753","fcode":"PPL"},{"adminCode1":"30","lng":"140.91667","geonameId":2122097,"toponymName":"Petrovsk","countryId":"2017370","fcl":"P","population":0,"countryCode":"RU","name":"Petrovsk","fclName":"city, village,...","countryName":"Russia","fcodeName":"populated place","adminName1":"Khabarovsk Krai","lat":"53.45","fcode":"PPL"},{"adminCode1":"25","lng":"35.86472","geonameId":816184,"toponymName":"Petrovsk","countryId":"2017370","fcl":"P","population":0,"countryCode":"RU","name":"Petrovsk","fclName":"city, village,...","countryName":"Russia","fcodeName":"populated place","adminName1":"Kaluga","lat":"54.16083","fcode":"PPL"},{"adminCode1":"05","lng":"27.3645","geonameId":8020103,"toponymName":"Petrovsk","countryId":"630336","fcl":"P","population":0,"countryCode":"BY","name":"Petrovsk","fclName":"city, village,...","countryName":"Belarus","fcodeName":"populated place","adminName1":"Minskaja Voblasts’","lat":"53.5047","fcode":"PPL"},{"adminCode1":"05","lng":"27.5962","geonameId":8020169,"toponymName":"Petrovsk","countryId":"630336","fcl":"P","population":0,"countryCode":"BY","name":"Petrovsk","fclName":"city, village,...","countryName":"Belarus","fcodeName":"populated place","adminName1":"Minskaja Voblasts’","lat":"53.411","fcode":"PPL"},{"adminCode1":"23","lng":"29.66667","geonameId":697318,"toponymName":"Petrovsk","countryId":"690791","fcl":"P","population":0,"countryCode":"UA","name":"Petrovsk","fclName":"city, village,...","countryName":"Ukraine","fcodeName":"populated place","adminName1":"Vinnyts'ka","lat":"48.8","fcode":"PPL"},{"adminCode1":"17","lng":"47.50236","geonameId":532096,"toponymName":"Makhachkala","countryId":"2017370","fcl":"P","population":497959,"countryCode":"RU","name":"Makhachkala","fclName":"city, village,...","countryName":"Russia","fcodeName":"seat of a first-order administrative division","adminName1":"Dagestan","lat":"42.97638","fcode":"PPLA"},{"adminCode1":"20","lng":"105.85","geonameId":2017956,"toponymName":"Petrovsk","countryId":"2017370","fcl":"P","population":0,"countryCode":"RU","name":"Petrovsk","fclName":"city, village,...","countryName":"Russia","fcodeName":"populated place","adminName1":"Irkutsk","lat":"53.43333","fcode":"PPL"},{"adminCode1":"25","lng":"35.72508","geonameId":811192,"toponymName":"Petrovsk","countryId":"2017370","fcl":"P","population":0,"countryCode":"RU","name":"Petrovsk","fclName":"city, village,...","countryName":"Russia","fcodeName":"populated place","adminName1":"Kaluga","lat":"55.08847","fcode":"PPL"},{"adminCode1":"93","lng":"108.77658","geonameId":9260970,"toponymName":"Petrovsk-Zabaykal’skiy","countryId":"2017370","fcl":"P","population":0,"countryCode":"RU","name":"Petrovsk-Zabaykal’skiy","fclName":"city, village,...","countryName":"Russia","fcodeName":"populated place","adminName1":"Zabaykalsky","lat":"51.29309","fcode":"PPL"},{"adminCode1":"93","lng":"108.85541","geonameId":9260971,"toponymName":"Petrovsk-Zabaykal’skiy","countryId":"2017370","fcl":"P","population":0,"countryCode":"RU","name":"Petrovsk-Zabaykal’skiy","fclName":"city, village,...","countryName":"Russia","fcodeName":"populated place","adminName1":"Zabaykalsky","lat":"51.23263","fcode":"PPL"},{"adminCode1":"08","lng":"57.53722","geonameId":475206,"toponymName":"Verkhniy Avzyan","countryId":"2017370","fcl":"P","population":2581,"countryCode":"RU","name":"Verkhniy Avzyan","fclName":"city, village,...","countryName":"Russia","fcodeName":"populated place","adminName1":"Bashkortostan","lat":"53.52889","fcode":"PPL"},{"adminCode1":"00","lng":"82.93333","geonameId":1520162,"toponymName":"Petrova","countryId":"1522867","fcl":"P","population":0,"countryCode":"KZ","name":"Petrova","fclName":"city, village,...","countryName":"Kazakhstan","fcodeName":"populated place","adminName1":"","lat":"49.9","fcode":"PPL"},{"adminCode1":"05","lng":"37.75","geonameId":697313,"toponymName":"Petrovskiy","countryId":"690791","fcl":"P","population":0,"countryCode":"UA","name":"Petrovskiy","fclName":"city, village,...","countryName":"Ukraine","fcodeName":"populated place","adminName1":"Donetsk","lat":"47.26667","fcode":"PPL"},{"adminCode1":"88","lng":"39.26928","geonameId":509850,"toponymName":"Petrovskoye","countryId":"2017370","fcl":"P","population":5324,"countryCode":"RU","name":"Petrovskoye","fclName":"city, village,...","countryName":"Russia","fcodeName":"populated place","adminName1":"Jaroslavl","lat":"57.01039","fcode":"PPL"},{"adminCode1":"71","lng":"64.64875","geonameId":1495067,"toponymName":"Petrovskaya","countryId":"2017370","fcl":"P","population":0,"countryCode":"RU","name":"Petrovskaya","fclName":"city, village,...","countryName":"Russia","fcodeName":"populated place","adminName1":"Sverdlovsk","lat":"58.18432","fcode":"PPL"},{"adminCode1":"23","lng":"28.22138","geonameId":699345,"toponymName":"Petrivka","countryId":"690791","fcl":"P","population":0,"countryCode":"UA","name":"Petrivka","fclName":"city, village,...","countryName":"Ukraine","fcodeName":"populated place","adminName1":"Vinnyts'ka","lat":"49.01123","fcode":"PPL"},{"adminCode1":"14","lng":"38.80199","geonameId":697343,"toponymName":"Petrivka","countryId":"690791","fcl":"P","population":0,"countryCode":"UA","name":"Petrivka","fclName":"city, village,...","countryName":"Ukraine","fcodeName":"populated place","adminName1":"Luhansk","lat":"49.86755","fcode":"PPL"},{"adminCode1":"61","lng":"41.02972","geonameId":797959,"toponymName":"Petrovsk","countryId":"2017370","fcl":"P","population":0,"countryCode":"RU","name":"Petrovsk","fclName":"city, village,...","countryName":"Russia","fcodeName":"abandoned populated place","adminName1":"Rostov","lat":"48.16528","fcode":"PPLQ"},{"adminCode1":"17","lng":"28.97306","geonameId":697461,"toponymName":"Petrivs’k","countryId":"690791","fcl":"P","population":0,"countryCode":"UA","name":"Petrivs’k","fclName":"city, village,...","countryName":"Ukraine","fcodeName":"populated place","adminName1":"Odessa","lat":"46.44778","fcode":"PPL"},{"adminCode1":"08","lng":"57.5847","geonameId":520804,"toponymName":"Nizhniy Avzyan","countryId":"2017370","fcl":"P","population":0,"countryCode":"RU","name":"Nizhniy Avzyan","fclName":"city, village,...","countryName":"Russia","fcodeName":"populated place","adminName1":"Bashkortostan","lat":"53.486","fcode":"PPL"}]}