{"geonames": [{"fcl": "P", "countryName": "Russia", "adminCode1": "21", "fcodeName": "populated place", "adminName1": "Ivanovo", "lng": "40.52983", "name": "Pistsovo", "toponymName": "Pistsovo", "lat": "57.17904", "fclName": "city, village,...", "geonameId": 509278, "fcode": "PPL", "population": 2775, "countryCode": "RU", "countryId": "2017370"}, {"fcl": "P", "countryName": "Russia", "adminCode1": "62", "fcodeName": "populated place", "adminName1": "Rjazan", "lng": "39.5843", "name": "Pistsovo", "toponymName": "Pistsovo", "lat": "54.4628", "fclName": "city, village,...", "geonameId": 818271, "fcode": "PPL", "population": 0, "countryCode": "RU", "countryId": "2017370"}, {"fcl": "P", "countryName": "Russia", "adminCode1": "21", "fcodeName": "populated place", "adminName1": "Ivanovo", "lng": "42.33522", "name": "Novoye Pistsovo", "toponymName": "Novoye Pistsovo", "lat": "57.14264", "fclName": "city, village,...", "geonameId": 509279, "fcode": "PPL", "population": 0, "countryCode": "RU", "countryId": "2017370"}, {"fcl": "P", "countryName": "Russia", "adminCode1": "21", "fcodeName": "section of populated place", "adminName1": "Ivanovo", "lng": "41.85", "name": "Pistsovo", "toponymName": "Pistsovo", "lat": "57.31667", "fclName": "city, village,...", "geonameId": 509277, "fcode": "PPLX", "population": 0, "countryCode": "RU", "countryId": "2017370"}, {"fcl": "P", "countryName": "Russia", "adminCode1": "88", "fcodeName": "populated place", "adminName1": "Jaroslavl", "lng": "39.6507", "name": "Pistsovo", "toponymName": "Pistsovo", "lat": "57.5211", "fclName": "city, village,...", "geonameId": 7079760, "fcode": "PPL", "population": 0, "countryCode": "RU", "countryId": "2017370"}], "totalResultsCount": 5, "url": "http://api.geonames.org/search?north=61.766667&west=36.933333&south=53.766667&name=%D0%9F%D0%B8%D1%81%D1%86%D0%BE%D0%B2%D0%BE&username=jaguillette&east=44.933333&featureClass=P&type=json"}