{"geonames": [{"fcl": "P", "countryName": "Russia", "adminCode1": "56", "fcodeName": "populated place", "adminName1": "Orjol", "lng": "37.63101", "name": "Ploskoye", "toponymName": "Ploskoye", "lat": "53.0502", "fclName": "city, village,...", "geonameId": 508859, "fcode": "PPL", "population": 0, "countryCode": "RU", "countryId": "2017370"}, {"fcl": "P", "countryName": "Russia", "adminCode1": "76", "fcodeName": "populated place", "adminName1": "Tula", "lng": "38.6202", "name": "Ploskoye", "toponymName": "Ploskoye", "lat": "53.0488", "fclName": "city, village,...", "geonameId": 7457275, "fcode": "PPL", "population": 0, "countryCode": "RU", "countryId": "2017370"}, {"fcl": "P", "countryName": "Russia", "adminCode1": "76", "fcodeName": "populated place", "adminName1": "Tula", "lng": "37.13856", "name": "Ploskoye", "toponymName": "Ploskoye", "lat": "54.35432", "fclName": "city, village,...", "geonameId": 508832, "fcode": "PPL", "population": 0, "countryCode": "RU", "countryId": "2017370"}, {"fcl": "P", "countryName": "Russia", "adminCode1": "43", "fcodeName": "populated place", "adminName1": "Lipetsk", "lng": "38.71374", "name": "Ploskoye", "toponymName": "Ploskoye", "lat": "53.17339", "fclName": "city, village,...", "geonameId": 820348, "fcode": "PPL", "population": 0, "countryCode": "RU", "countryId": "2017370"}, {"fcl": "P", "countryName": "Russia", "adminCode1": "56", "fcodeName": "populated place", "adminName1": "Orjol", "lng": "35.85126", "name": "Ploskaya", "toponymName": "Ploskaya", "lat": "53.51387", "fclName": "city, village,...", "geonameId": 508858, "fcode": "PPL", "population": 0, "countryCode": "RU", "countryId": "2017370"}, {"fcl": "P", "countryName": "Russia", "adminCode1": "62", "fcodeName": "populated place", "adminName1": "Rjazan", "lng": "39.4309", "name": "Ploskoye", "toponymName": "Ploskoye", "lat": "54.1324", "fclName": "city, village,...", "geonameId": 7690419, "fcode": "PPL", "population": 0, "countryCode": "RU", "countryId": "2017370"}, {"fcl": "P", "countryName": "Russia", "adminCode1": "76", "fcodeName": "populated place", "adminName1": "Tula", "lng": "38.7156", "name": "Ploskoye", "toponymName": "Ploskoye", "lat": "54.2268", "fclName": "city, village,...", "geonameId": 7690528, "fcode": "PPL", "population": 0, "countryCode": "RU", "countryId": "2017370"}], "totalResultsCount": 7, "url": "http://api.geonames.org/search?north=55.0867&west=35.5421&south=52.8329&name=%D0%9F%D0%BB%D0%BE%D1%81%D0%BA%D0%BE%D0%B5&username=jaguillette&east=39.6827&featureClass=P&type=json"}