{"totalResultsCount":7,"geonames":[{"countryId":"2017370","adminCode1":"56","countryName":"Russia","fclName":"city, village,...","countryCode":"RU","lng":"37.63101","fcodeName":"populated place","toponymName":"Ploskoye","fcl":"P","name":"Ploskoye","fcode":"PPL","geonameId":508859,"lat":"53.0502","adminName1":"Orjol","population":0},{"countryId":"2017370","adminCode1":"76","countryName":"Russia","fclName":"city, village,...","countryCode":"RU","lng":"38.6202","fcodeName":"populated place","toponymName":"Ploskoye","fcl":"P","name":"Ploskoye","fcode":"PPL","geonameId":7457275,"lat":"53.0488","adminName1":"Tula","population":0},{"countryId":"2017370","adminCode1":"76","countryName":"Russia","fclName":"city, village,...","countryCode":"RU","lng":"37.13856","fcodeName":"populated place","toponymName":"Ploskoye","fcl":"P","name":"Ploskoye","fcode":"PPL","geonameId":508832,"lat":"54.35432","adminName1":"Tula","population":0},{"countryId":"2017370","adminCode1":"43","countryName":"Russia","fclName":"city, village,...","countryCode":"RU","lng":"38.71374","fcodeName":"populated place","toponymName":"Ploskoye","fcl":"P","name":"Ploskoye","fcode":"PPL","geonameId":820348,"lat":"53.17339","adminName1":"Lipetsk","population":0},{"countryId":"2017370","adminCode1":"56","countryName":"Russia","fclName":"city, village,...","countryCode":"RU","lng":"35.85126","fcodeName":"populated place","toponymName":"Ploskaya","fcl":"P","name":"Ploskaya","fcode":"PPL","geonameId":508858,"lat":"53.51387","adminName1":"Orjol","population":0},{"countryId":"2017370","adminCode1":"62","countryName":"Russia","fclName":"city, village,...","countryCode":"RU","lng":"39.4309","fcodeName":"populated place","toponymName":"Ploskoye","fcl":"P","name":"Ploskoye","fcode":"PPL","geonameId":7690419,"lat":"54.1324","adminName1":"Rjazan","population":0},{"countryId":"2017370","adminCode1":"76","countryName":"Russia","fclName":"city, village,...","countryCode":"RU","lng":"38.7156","fcodeName":"populated place","toponymName":"Ploskoye","fcl":"P","name":"Ploskoye","fcode":"PPL","geonameId":7690528,"lat":"54.2268","adminName1":"Tula","population":0}]}