{"totalResultsCount":20,"geonames":[{"adminCode1":"46","lng":"45.85033","geonameId":508636,"toponymName":"Pochinki","countryId":"2017370","fcl":"P","population":0,"countryCode":"RU","name":"Pochinki","fclName":"city, village,...","countryName":"Russia","fcodeName":"populated place","adminName1":"Mordoviya","lat":"54.20278","fcode":"PPL"},{"adminCode1":"51","lng":"44.86678","geonameId":508635,"toponymName":"Pochinki","countryId":"2017370","fcl":"P","population":11724,"countryCode":"RU","name":"Pochinki","fclName":"city, village,...","countryName":"Russia","fcodeName":"populated place","adminName1":"Nizjnij Novgorod","lat":"54.69875","fcode":"PPL"},{"adminCode1":"21","lng":"41.15563","geonameId":508617,"toponymName":"Pochinki","countryId":"2017370","fcl":"P","population":0,"countryCode":"RU","name":"Pochinki","fclName":"city, village,...","countryName":"Russia","fcodeName":"populated place","adminName1":"Ivanovo","lat":"57.02211","fcode":"PPL"},{"adminCode1":"83","lng":"42.4367","geonameId":508622,"toponymName":"Pochinki","countryId":"2017370","fcl":"P","population":0,"countryCode":"RU","name":"Pochinki","fclName":"city, village,...","countryName":"Russia","fcodeName":"populated place","adminName1":"Vladimir","lat":"55.9895","fcode":"PPL"},{"adminCode1":"83","lng":"40.97568","geonameId":508626,"toponymName":"Pochinki","countryId":"2017370","fcl":"P","population":0,"countryCode":"RU","name":"Pochinki","fclName":"city, village,...","countryName":"Russia","fcodeName":"populated place","adminName1":"Vladimir","lat":"55.62315","fcode":"PPL"},{"adminCode1":"51","lng":"42.69861","geonameId":508633,"toponymName":"Pochinki","countryId":"2017370","fcl":"P","population":0,"countryCode":"RU","name":"Pochinki","fclName":"city, village,...","countryName":"Russia","fcodeName":"populated place","adminName1":"Nizjnij Novgorod","lat":"54.84583","fcode":"PPL"},{"adminCode1":"21","lng":"42.91291","geonameId":6424270,"toponymName":"Pochinki","countryId":"2017370","fcl":"P","population":0,"countryCode":"RU","name":"Pochinki","fclName":"city, village,...","countryName":"Russia","fcodeName":"populated place","adminName1":"Ivanovo","lat":"57.27335","fcode":"PPL"},{"adminCode1":"57","lng":"44.85","geonameId":508637,"toponymName":"Pochinki","countryId":"2017370","fcl":"P","population":0,"countryCode":"RU","name":"Pochinki","fclName":"city, village,...","countryName":"Russia","fcodeName":"populated place","adminName1":"Penza","lat":"53.95","fcode":"PPL"},{"adminCode1":"57","lng":"42.92413","geonameId":508638,"toponymName":"Pochinki","countryId":"2017370","fcl":"P","population":0,"countryCode":"RU","name":"Pochinki","fclName":"city, village,...","countryName":"Russia","fcodeName":"populated place","adminName1":"Penza","lat":"53.05196","fcode":"PPL"},{"adminCode1":"62","lng":"41.62","geonameId":579360,"toponymName":"Balushevy Pochinki","countryId":"2017370","fcl":"P","population":0,"countryCode":"RU","name":"Balushevo-Pochinki","fclName":"city, village,...","countryName":"Russia","fcodeName":"populated place","adminName1":"Rjazan","lat":"54.76389","fcode":"PPL"},{"adminCode1":"51","lng":"43.82506","geonameId":6608926,"toponymName":"Pochinki","countryId":"2017370","fcl":"P","population":0,"countryCode":"RU","name":"Pochinki","fclName":"city, village,...","countryName":"Russia","fcodeName":"populated place","adminName1":"Nizjnij Novgorod","lat":"56.90845","fcode":"PPL"},{"adminCode1":"62","lng":"41.27817","geonameId":465007,"toponymName":"Zanino Pochinki","countryId":"2017370","fcl":"P","population":0,"countryCode":"RU","name":"Zanino Pochinki","fclName":"city, village,...","countryName":"Russia","fcodeName":"populated place","adminName1":"Rjazan","lat":"54.60761","fcode":"PPL"},{"adminCode1":"62","lng":"41.33333","geonameId":568536,"toponymName":"Chernyshovo-Pochinki","countryId":"2017370","fcl":"P","population":0,"countryCode":"RU","name":"Chernyshovo-Pochinki","fclName":"city, village,...","countryName":"Russia","fcodeName":"populated place","adminName1":"Rjazan","lat":"54.88333","fcode":"PPL"},{"adminCode1":"62","lng":"42.4645","geonameId":7750996,"toponymName":"Krasnyye Pochinki","countryId":"2017370","fcl":"P","population":0,"countryCode":"RU","name":"Krasnyye Pochinki","fclName":"city, village,...","countryName":"Russia","fcodeName":"populated place","adminName1":"Rjazan","lat":"54.6689","fcode":"PPL"},{"adminCode1":"16","lng":"47.68698","geonameId":508614,"toponymName":"Pochinok-Ineli","countryId":"2017370","fcl":"P","population":0,"countryCode":"RU","name":"Pochinok-Ineli","fclName":"city, village,...","countryName":"Russia","fcodeName":"populated place","adminName1":"Chuvashia","lat":"55.27215","fcode":"PPL"},{"adminCode1":"62","lng":"42.6179","geonameId":7750749,"toponymName":"Kurmanovy Pochinki","countryId":"2017370","fcl":"P","population":0,"countryCode":"RU","name":"Kurmanovy Pochinki","fclName":"city, village,...","countryName":"Russia","fcodeName":"populated place","adminName1":"Rjazan","lat":"54.6071","fcode":"PPL"},{"adminCode1":"62","lng":"42.4679","geonameId":7750736,"toponymName":"Novyye Pochinki","countryId":"2017370","fcl":"P","population":0,"countryCode":"RU","name":"Novyye Pochinki","fclName":"city, village,...","countryName":"Russia","fcodeName":"populated place","adminName1":"Rjazan","lat":"54.6591","fcode":"PPL"},{"adminCode1":"62","lng":"42.6218","geonameId":7750750,"toponymName":"Kulayevy Pochinki","countryId":"2017370","fcl":"P","population":0,"countryCode":"RU","name":"Kulayevy Pochinki","fclName":"city, village,...","countryName":"Russia","fcodeName":"populated place","adminName1":"Rjazan","lat":"54.6241","fcode":"PPL"},{"adminCode1":"45","lng":"46.12199","geonameId":508598,"toponymName":"Pochinok","countryId":"2017370","fcl":"P","population":0,"countryCode":"RU","name":"Pochinok","fclName":"city, village,...","countryName":"Russia","fcodeName":"populated place","adminName1":"Mariy-El","lat":"56.27581","fcode":"PPL"},{"adminCode1":"51","lng":"42.88","geonameId":508620,"toponymName":"Pochinok","countryId":"2017370","fcl":"P","population":0,"countryCode":"RU","name":"Pochinok","fclName":"city, village,...","countryName":"Russia","fcodeName":"populated place","adminName1":"Nizjnij Novgorod","lat":"56.73466","fcode":"PPL"}]}