{"totalResultsCount":15,"geonames":[{"countryId":"2017370","adminCode1":"77","countryName":"Russia","fclName":"city, village,...","countryCode":"RU","lng":"36.40233","fcodeName":"populated place","toponymName":"Porech’ye","fcl":"P","name":"Porech'ye","fcode":"PPL","geonameId":506302,"lat":"58.0355","adminName1":"Tverskaya","population":0},{"countryId":"2017370","adminCode1":"47","countryName":"Russia","fclName":"city, village,...","countryCode":"RU","lng":"35.55218","fcodeName":"populated place","toponymName":"Porech’ye","fcl":"P","name":"Porech'ye","fcode":"PPL","geonameId":506308,"lat":"55.71419","adminName1":"Moskovskaya","population":0},{"countryId":"2017370","adminCode1":"25","countryName":"Russia","fclName":"city, village,...","countryCode":"RU","lng":"36.5702","fcodeName":"populated place","toponymName":"Porech’ye","fcl":"P","name":"Porech'ye","fcode":"PPL","geonameId":506310,"lat":"54.87275","adminName1":"Kaluga","population":0},{"countryId":"2017370","adminCode1":"77","countryName":"Russia","fclName":"city, village,...","countryCode":"RU","lng":"37.92583","fcodeName":"populated place","toponymName":"Porech’ye","fcl":"P","name":"Porech'ye","fcode":"PPL","geonameId":506304,"lat":"57.08528","adminName1":"Tverskaya","population":0},{"countryId":"2017370","adminCode1":"76","countryName":"Russia","fclName":"city, village,...","countryCode":"RU","lng":"37.06854","fcodeName":"populated place","toponymName":"Porech’ye","fcl":"P","name":"Porech'ye","fcode":"PPL","geonameId":506312,"lat":"54.1837","adminName1":"Tula","population":0},{"countryId":"2017370","adminCode1":"42","countryName":"Russia","fclName":"city, village,...","countryCode":"RU","lng":"34.10944","fcodeName":"populated place","toponymName":"Porech’ye","fcl":"P","name":"Porech’ye","fcode":"PPL","geonameId":506294,"lat":"59.92472","adminName1":"Leningrad","population":0},{"countryId":"2017370","adminCode1":"52","countryName":"Russia","fclName":"city, village,...","countryCode":"RU","lng":"34.65272","fcodeName":"populated place","toponymName":"Porech’ye","fcl":"P","name":"Porech’ye","fcode":"PPL","geonameId":506298,"lat":"58.412","adminName1":"Novgorod","population":0},{"countryId":"2017370","adminCode1":"77","countryName":"Russia","fclName":"city, village,...","countryCode":"RU","lng":"37.382","fcodeName":"populated place","toponymName":"Porech’ye","fcl":"P","name":"Porech’ye","fcode":"PPL","geonameId":506303,"lat":"57.74054","adminName1":"Tverskaya","population":0},{"countryId":"2017370","adminCode1":"77","countryName":"Russia","fclName":"city, village,...","countryCode":"RU","lng":"37.4961","fcodeName":"populated place","toponymName":"Porech’ye","fcl":"P","name":"Porech’ye","fcode":"PPL","geonameId":7586002,"lat":"57.5041","adminName1":"Tverskaya","population":0},{"countryId":"2017370","adminCode1":"77","countryName":"Russia","fclName":"city, village,...","countryCode":"RU","lng":"36.5972","fcodeName":"populated place","toponymName":"Porech’ye","fcl":"P","name":"Porech’ye","fcode":"PPL","geonameId":7606051,"lat":"57.3249","adminName1":"Tverskaya","population":0},{"countryId":"2017370","adminCode1":"47","countryName":"Russia","fclName":"city, village,...","countryCode":"RU","lng":"36.1833","fcodeName":"populated place","toponymName":"Porech’ye","fcl":"P","name":"Porech’ye","fcode":"PPL","geonameId":7601460,"lat":"56.1202","adminName1":"Moskovskaya","population":0},{"countryId":"2017370","adminCode1":"47","countryName":"Russia","fclName":"city, village,...","countryCode":"RU","lng":"35.56983","fcodeName":"populated place","toponymName":"Novoye Porech’ye","fcl":"P","name":"Novoye Porech’ye","fcode":"PPL","geonameId":517451,"lat":"55.71565","adminName1":"Moskovskaya","population":0},{"countryId":"2017370","adminCode1":"88","countryName":"Russia","fclName":"city, village,...","countryCode":"RU","lng":"39.38354","fcodeName":"populated place","toponymName":"Porech’ye-Rybnoye","fcl":"P","name":"Porech'ye-Rybnoye","fcode":"PPL","geonameId":506291,"lat":"57.09805","adminName1":"Jaroslavl","population":1949},{"countryId":"2017370","adminCode1":"77","countryName":"Russia","fclName":"city, village,...","countryCode":"RU","lng":"35.07545","fcodeName":"populated place","toponymName":"Porech’ye","fcl":"P","name":"Porech’ye","fcode":"PPL","geonameId":857062,"lat":"56.77103","adminName1":"Tverskaya","population":0},{"countryId":"2017370","adminCode1":"83","countryName":"Russia","fclName":"city, village,...","countryCode":"RU","lng":"39.0831","fcodeName":"populated place","toponymName":"Porech’ye","fcl":"P","name":"Porech’ye","fcode":"PPL","geonameId":506306,"lat":"56.43345","adminName1":"Vladimir","population":0}]}