{"totalResultsCount":8,"geonames":[{"countryId":"2017370","adminCode1":"51","countryName":"Russia","fclName":"city, village,...","countryCode":"RU","lng":"44.86678","fcodeName":"populated place","toponymName":"Pochinki","fcl":"P","name":"Pochinki","fcode":"PPL","geonameId":508635,"lat":"54.69875","adminName1":"Nizjnij Novgorod","population":11724},{"countryId":"2017370","adminCode1":"46","countryName":"Russia","fclName":"city, village,...","countryCode":"RU","lng":"45.85033","fcodeName":"populated place","toponymName":"Pochinki","fcl":"P","name":"Pochinki","fcode":"PPL","geonameId":508636,"lat":"54.20278","adminName1":"Mordoviya","population":0},{"countryId":"2017370","adminCode1":"57","countryName":"Russia","fclName":"city, village,...","countryCode":"RU","lng":"44.85","fcodeName":"populated place","toponymName":"Pochinki","fcl":"P","name":"Pochinki","fcode":"PPL","geonameId":508637,"lat":"53.95","adminName1":"Penza","population":0},{"countryId":"2017370","adminCode1":"57","countryName":"Russia","fclName":"city, village,...","countryCode":"RU","lng":"42.92413","fcodeName":"populated place","toponymName":"Pochinki","fcl":"P","name":"Pochinki","fcode":"PPL","geonameId":508638,"lat":"53.05196","adminName1":"Penza","population":0},{"countryId":"2017370","adminCode1":"62","countryName":"Russia","fclName":"city, village,...","countryCode":"RU","lng":"42.4645","fcodeName":"populated place","toponymName":"Krasnyye Pochinki","fcl":"P","name":"Krasnyye Pochinki","fcode":"PPL","geonameId":7750996,"lat":"54.6689","adminName1":"Rjazan","population":0},{"countryId":"2017370","adminCode1":"62","countryName":"Russia","fclName":"city, village,...","countryCode":"RU","lng":"42.4679","fcodeName":"populated place","toponymName":"Novyye Pochinki","fcl":"P","name":"Novyye Pochinki","fcode":"PPL","geonameId":7750736,"lat":"54.6591","adminName1":"Rjazan","population":0},{"countryId":"2017370","adminCode1":"62","countryName":"Russia","fclName":"city, village,...","countryCode":"RU","lng":"42.6179","fcodeName":"populated place","toponymName":"Kurmanovy Pochinki","fcl":"P","name":"Kurmanovy Pochinki","fcode":"PPL","geonameId":7750749,"lat":"54.6071","adminName1":"Rjazan","population":0},{"countryId":"2017370","adminCode1":"62","countryName":"Russia","fclName":"city, village,...","countryCode":"RU","lng":"42.6218","fcodeName":"populated place","toponymName":"Kulayevy Pochinki","fcl":"P","name":"Kulayevy Pochinki","fcode":"PPL","geonameId":7750750,"lat":"54.6241","adminName1":"Rjazan","population":0}]}