{"geonames": [{"fcl": "P", "countryName": "Russia", "adminCode1": "47", "fcodeName": "populated place", "adminName1": "Moskovskaya", "lng": "37.05", "name": "Pokrovskoye", "toponymName": "Pokrovskoye", "lat": "56.41667", "fclName": "city, village,...", "geonameId": 507382, "fcode": "PPL", "population": 0, "countryCode": "RU", "countryId": "2017370"}, {"fcl": "P", "countryName": "Russia", "adminCode1": "47", "fcodeName": "populated place", "adminName1": "Moskovskaya", "lng": "36.31839", "name": "Pokrovskoye", "toponymName": "Pokrovskoye", "lat": "55.8853", "fclName": "city, village,...", "geonameId": 507387, "fcode": "PPL", "population": 0, "countryCode": "RU", "countryId": "2017370"}, {"fcl": "P", "countryName": "Russia", "adminCode1": "77", "fcodeName": "populated place", "adminName1": "Tverskaya", "lng": "34.71391", "name": "Pokrovskoye", "toponymName": "Pokrovskoye", "lat": "56.47665", "fclName": "city, village,...", "geonameId": 507381, "fcode": "PPL", "population": 0, "countryCode": "RU", "countryId": "2017370"}, {"fcl": "P", "countryName": "Russia", "adminCode1": "47", "fcodeName": "populated place", "adminName1": "Moskovskaya", "lng": "36", "name": "Pokrovskoye", "toponymName": "Pokrovskoye", "lat": "56.26667", "fclName": "city, village,...", "geonameId": 507385, "fcode": "PPL", "population": 0, "countryCode": "RU", "countryId": "2017370"}, {"fcl": "P", "countryName": "Russia", "adminCode1": "47", "fcodeName": "populated place", "adminName1": "Moskovskaya", "lng": "37.01195", "name": "Pokrovskoye", "toponymName": "Pokrovskoye", "lat": "55.81218", "fclName": "city, village,...", "geonameId": 507388, "fcode": "PPL", "population": 0, "countryCode": "RU", "countryId": "2017370"}, {"fcl": "P", "countryName": "Russia", "adminCode1": "47", "fcodeName": "populated place", "adminName1": "Moskovskaya", "lng": "36.60115", "name": "Pokrovskoye", "toponymName": "Pokrovskoye", "lat": "55.72555", "fclName": "city, village,...", "geonameId": 507390, "fcode": "PPL", "population": 0, "countryCode": "RU", "countryId": "2017370"}, {"fcl": "P", "countryName": "Russia", "adminCode1": "47", "fcodeName": "populated place", "adminName1": "Moskovskaya", "lng": "38.31606", "name": "Pokrovskoye", "toponymName": "Pokrovskoye", "lat": "55.20982", "fclName": "city, village,...", "geonameId": 507393, "fcode": "PPL", "population": 0, "countryCode": "RU", "countryId": "2017370"}, {"fcl": "P", "countryName": "Russia", "adminCode1": "25", "fcodeName": "populated place", "adminName1": "Kaluga", "lng": "35.14861", "name": "Pokrovskoye", "toponymName": "Pokrovskoye", "lat": "54.55139", "fclName": "city, village,...", "geonameId": 507399, "fcode": "PPL", "population": 0, "countryCode": "RU", "countryId": "2017370"}, {"fcl": "P", "countryName": "Russia", "adminCode1": "47", "fcodeName": "populated place", "adminName1": "Moskovskaya", "lng": "37.18417", "name": "Pokrovskoye", "toponymName": "Pokrovskoye", "lat": "55.31278", "fclName": "city, village,...", "geonameId": 818187, "fcode": "PPL", "population": 0, "countryCode": "RU", "countryId": "2017370"}, {"fcl": "P", "countryName": "Russia", "adminCode1": "47", "fcodeName": "populated place", "adminName1": "Moskovskaya", "lng": "36.1642", "name": "Pokrovskoye", "toponymName": "Pokrovskoye", "lat": "56.1681", "fclName": "city, village,...", "geonameId": 7601426, "fcode": "PPL", "population": 0, "countryCode": "RU", "countryId": "2017370"}, {"fcl": "P", "countryName": "Russia", "adminCode1": "47", "fcodeName": "populated place", "adminName1": "Moskovskaya", "lng": "36.1896", "name": "Pokrovskoye", "toponymName": "Pokrovskoye", "lat": "56.0097", "fclName": "city, village,...", "geonameId": 7601542, "fcode": "PPL", "population": 0, "countryCode": "RU", "countryId": "2017370"}, {"fcl": "P", "countryName": "Russia", "adminCode1": "77", "fcodeName": "populated place", "adminName1": "Tverskaya", "lng": "35.90454", "name": "Pokrovskoye", "toponymName": "Pokrovskoye", "lat": "56.63314", "fclName": "city, village,...", "geonameId": 507378, "fcode": "PPL", "population": 0, "countryCode": "RU", "countryId": "2017370"}, {"fcl": "P", "countryName": "Russia", "adminCode1": "77", "fcodeName": "populated place", "adminName1": "Tverskaya", "lng": "35.07549", "name": "Pokrovskoye", "toponymName": "Pokrovskoye", "lat": "56.39701", "fclName": "city, village,...", "geonameId": 507383, "fcode": "PPL", "population": 0, "countryCode": "RU", "countryId": "2017370"}, {"fcl": "P", "countryName": "Russia", "adminCode1": "25", "fcodeName": "populated place", "adminName1": "Kaluga", "lng": "36.05614", "name": "Pokrovskoye", "toponymName": "Pokrovskoye", "lat": "54.23047", "fclName": "city, village,...", "geonameId": 507400, "fcode": "PPL", "population": 0, "countryCode": "RU", "countryId": "2017370"}, {"fcl": "P", "countryName": "Russia", "adminCode1": "48", "fcodeName": "section of populated place", "adminName1": "Moscow", "lng": "37.45814", "name": "Pokrovskoye-Streshn\u00ebvo", "toponymName": "Pokrovskoye-Streshn\u00ebvo", "lat": "55.80797", "fclName": "city, village,...", "geonameId": 507338, "fcode": "PPLX", "population": 55000, "countryCode": "RU", "countryId": "2017370"}, {"fcl": "P", "countryName": "Russia", "adminCode1": "47", "fcodeName": "populated place", "adminName1": "Moskovskaya", "lng": "37.52995", "name": "Pokrovskoye", "toponymName": "Pokrovskoye", "lat": "54.76036", "fclName": "city, village,...", "geonameId": 507395, "fcode": "PPL", "population": 0, "countryCode": "RU", "countryId": "2017370"}, {"fcl": "P", "countryName": "Russia", "adminCode1": "47", "fcodeName": "populated place", "adminName1": "Moskovskaya", "lng": "36.83186", "name": "Pokrovskoye-Zasekino", "toponymName": "Pokrovskoye-Zasekino", "lat": "55.64853", "fclName": "city, village,...", "geonameId": 507340, "fcode": "PPL", "population": 0, "countryCode": "RU", "countryId": "2017370"}, {"fcl": "P", "countryName": "Russia", "adminCode1": "47", "fcodeName": "populated place", "adminName1": "Moskovskaya", "lng": "37.95508", "name": "Pekhra-Pokrovskoye", "toponymName": "Pekhra-Pokrovskoye", "lat": "55.83943", "fclName": "city, village,...", "geonameId": 511738, "fcode": "PPL", "population": 0, "countryCode": "RU", "countryId": "2017370"}, {"fcl": "P", "countryName": "Russia", "adminCode1": "77", "fcodeName": "populated place", "adminName1": "Tverskaya", "lng": "34.73801", "name": "Kurovo-Pokrovskoye", "toponymName": "Kurovo-Pokrovskoye", "lat": "56.72959", "fclName": "city, village,...", "geonameId": 451981, "fcode": "PPL", "population": 0, "countryCode": "RU", "countryId": "2017370"}, {"fcl": "P", "countryName": "Russia", "adminCode1": "47", "fcodeName": "populated place", "adminName1": "Moskovskaya", "lng": "36.4265", "name": "Pokrovskoye-Zhukovo", "toponymName": "Pokrovskoye-Zhukovo", "lat": "56.1147", "fclName": "city, village,...", "geonameId": 7601453, "fcode": "PPL", "population": 0, "countryCode": "RU", "countryId": "2017370"}, {"fcl": "P", "countryName": "Russia", "adminCode1": "47", "fcodeName": "populated place", "adminName1": "Moskovskaya", "lng": "37.23614", "name": "Bol\u2019shoye Pokrovskoye", "toponymName": "Bol\u2019shoye Pokrovskoye", "lat": "55.56484", "fclName": "city, village,...", "geonameId": 573396, "fcode": "PPL", "population": 0, "countryCode": "RU", "countryId": "2017370"}], "totalResultsCount": 21, "url": "http://api.geonames.org/search?north=56.981&west=34.3446&south=54.2132&name=%D0%9F%D0%BE%D0%BA%D1%80%D0%BE%D0%B2%D1%81%D0%BA%D0%BE%D0%B5&username=jaguillette&east=40.3419&featureClass=P&type=json"}