{"geonames": [{"fcl": "P", "countryName": "Russia", "adminCode1": "56", "fcodeName": "populated place", "adminName1": "Orjol", "lng": "36.87124", "name": "Pokrovskoye", "toponymName": "Pokrovskoye", "lat": "52.60968", "fclName": "city, village,...", "geonameId": 507421, "fcode": "PPL", "population": 4566, "countryCode": "RU", "countryId": "2017370"}, {"fcl": "P", "countryName": "Russia", "adminCode1": "76", "fcodeName": "populated place", "adminName1": "Tula", "lng": "37.5109", "name": "Pokrovskoye", "toponymName": "Pokrovskoye", "lat": "53.52975", "fclName": "city, village,...", "geonameId": 507410, "fcode": "PPL", "population": 0, "countryCode": "RU", "countryId": "2017370"}, {"fcl": "P", "countryName": "Russia", "adminCode1": "43", "fcodeName": "populated place", "adminName1": "Lipetsk", "lng": "38.92026", "name": "Pokrovskoye", "toponymName": "Pokrovskoye", "lat": "53.35175", "fclName": "city, village,...", "geonameId": 507412, "fcode": "PPL", "population": 0, "countryCode": "RU", "countryId": "2017370"}, {"fcl": "P", "countryName": "Russia", "adminCode1": "43", "fcodeName": "populated place", "adminName1": "Lipetsk", "lng": "38.06576", "name": "Pokrovskoye", "toponymName": "Pokrovskoye", "lat": "52.27614", "fclName": "city, village,...", "geonameId": 507424, "fcode": "PPL", "population": 0, "countryCode": "RU", "countryId": "2017370"}, {"fcl": "P", "countryName": "Russia", "adminCode1": "76", "fcodeName": "populated place", "adminName1": "Tula", "lng": "36.55088", "name": "Pokrovskoye", "toponymName": "Pokrovskoye", "lat": "53.83888", "fclName": "city, village,...", "geonameId": 507405, "fcode": "PPL", "population": 0, "countryCode": "RU", "countryId": "2017370"}, {"fcl": "P", "countryName": "Russia", "adminCode1": "76", "fcodeName": "populated place", "adminName1": "Tula", "lng": "36.91835", "name": "Pokrovskoye", "toponymName": "Pokrovskoye", "lat": "53.76039", "fclName": "city, village,...", "geonameId": 507406, "fcode": "PPL", "population": 0, "countryCode": "RU", "countryId": "2017370"}, {"fcl": "P", "countryName": "Russia", "adminCode1": "76", "fcodeName": "populated place", "adminName1": "Tula", "lng": "37.89971", "name": "Pokrovskoye", "toponymName": "Pokrovskoye", "lat": "53.48327", "fclName": "city, village,...", "geonameId": 507411, "fcode": "PPL", "population": 0, "countryCode": "RU", "countryId": "2017370"}, {"fcl": "P", "countryName": "Russia", "adminCode1": "56", "fcodeName": "populated place", "adminName1": "Orjol", "lng": "35.48333", "name": "Pokrovskoye", "toponymName": "Pokrovskoye", "lat": "52.88333", "fclName": "city, village,...", "geonameId": 507414, "fcode": "PPL", "population": 0, "countryCode": "RU", "countryId": "2017370"}, {"fcl": "P", "countryName": "Russia", "adminCode1": "43", "fcodeName": "populated place", "adminName1": "Lipetsk", "lng": "38.23333", "name": "Pokrovskoye", "toponymName": "Pokrovskoye", "lat": "52.78333", "fclName": "city, village,...", "geonameId": 507416, "fcode": "PPL", "population": 0, "countryCode": "RU", "countryId": "2017370"}, {"fcl": "P", "countryName": "Russia", "adminCode1": "56", "fcodeName": "populated place", "adminName1": "Orjol", "lng": "37.21128", "name": "Pokrovskoye", "toponymName": "Pokrovskoye", "lat": "52.77924", "fclName": "city, village,...", "geonameId": 507417, "fcode": "PPL", "population": 0, "countryCode": "RU", "countryId": "2017370"}, {"fcl": "P", "countryName": "Russia", "adminCode1": "56", "fcodeName": "populated place", "adminName1": "Orjol", "lng": "35.6473", "name": "Pokrovskoye", "toponymName": "Pokrovskoye", "lat": "52.4467", "fclName": "city, village,...", "geonameId": 507422, "fcode": "PPL", "population": 0, "countryCode": "RU", "countryId": "2017370"}, {"fcl": "P", "countryName": "Russia", "adminCode1": "56", "fcodeName": "populated place", "adminName1": "Orjol", "lng": "36.63801", "name": "Pokrovskoye", "toponymName": "Pokrovskoye", "lat": "52.4349", "fclName": "city, village,...", "geonameId": 507423, "fcode": "PPL", "population": 0, "countryCode": "RU", "countryId": "2017370"}, {"fcl": "P", "countryName": "Russia", "adminCode1": "56", "fcodeName": "populated place", "adminName1": "Orjol", "lng": "35.67666", "name": "Pokrovskoye", "toponymName": "Pokrovskoye", "lat": "53.32714", "fclName": "city, village,...", "geonameId": 816488, "fcode": "PPL", "population": 0, "countryCode": "RU", "countryId": "2017370"}, {"fcl": "P", "countryName": "Russia", "adminCode1": "43", "fcodeName": "populated place", "adminName1": "Lipetsk", "lng": "38.4125", "name": "Pokrovskoye", "toponymName": "Pokrovskoye", "lat": "52.8885", "fclName": "city, village,...", "geonameId": 7451825, "fcode": "PPL", "population": 0, "countryCode": "RU", "countryId": "2017370"}, {"fcl": "P", "countryName": "Russia", "adminCode1": "76", "fcodeName": "populated place", "adminName1": "Tula", "lng": "38.6185", "name": "Pokrovskoye", "toponymName": "Pokrovskoye", "lat": "53.9398", "fclName": "city, village,...", "geonameId": 7457526, "fcode": "PPL", "population": 0, "countryCode": "RU", "countryId": "2017370"}, {"fcl": "P", "countryName": "Russia", "adminCode1": "56", "fcodeName": "populated place", "adminName1": "Orjol", "lng": "37.44785", "name": "Pokrovskoye", "toponymName": "Pokrovskoye", "lat": "52.70679", "fclName": "city, village,...", "geonameId": 507418, "fcode": "PPL", "population": 0, "countryCode": "RU", "countryId": "2017370"}, {"fcl": "P", "countryName": "Russia", "adminCode1": "76", "fcodeName": "populated place", "adminName1": "Tula", "lng": "37.05609", "name": "Pokrovskoye", "toponymName": "Pokrovskoye", "lat": "53.71428", "fclName": "city, village,...", "geonameId": 507407, "fcode": "PPL", "population": 0, "countryCode": "RU", "countryId": "2017370"}, {"fcl": "P", "countryName": "Russia", "adminCode1": "43", "fcodeName": "populated place", "adminName1": "Lipetsk", "lng": "38.8996", "name": "Telepnevo", "toponymName": "Telepn\u00ebvo", "lat": "53.11835", "fclName": "city, village,...", "geonameId": 483797, "fcode": "PPL", "population": 0, "countryCode": "RU", "countryId": "2017370"}, {"fcl": "P", "countryName": "Russia", "adminCode1": "56", "fcodeName": "section of populated place", "adminName1": "Orjol", "lng": "36.86667", "name": "Pokrovskoye Leninskiy", "toponymName": "Pokrovskoye Leninskiy", "lat": "52.61667", "fclName": "city, village,...", "geonameId": 507345, "fcode": "PPLX", "population": 0, "countryCode": "RU", "countryId": "2017370"}, {"fcl": "P", "countryName": "Russia", "adminCode1": "56", "fcodeName": "section of populated place", "adminName1": "Orjol", "lng": "35.48139", "name": "Lyudskoye-Pokrovskoye", "toponymName": "Lyudskoye-Pokrovskoye", "lat": "52.88694", "fclName": "city, village,...", "geonameId": 532448, "fcode": "PPLX", "population": 0, "countryCode": "RU", "countryId": "2017370"}], "totalResultsCount": 20, "url": "http://api.geonames.org/search?north=54.0138&west=32.7557&south=51.8511&name=%D0%9F%D0%BE%D0%BA%D1%80%D0%BE%D0%B2%D1%81%D0%BA%D0%BE%D0%B5&username=jaguillette&east=39.224&featureClass=P&type=json"}