{"geonames": [{"fcl": "P", "countryName": "Russia", "adminCode1": "51", "fcodeName": "populated place", "adminName1": "Nizjnij Novgorod", "lng": "44.86678", "name": "Pochinki", "toponymName": "Pochinki", "lat": "54.69875", "fclName": "city, village,...", "geonameId": 508635, "fcode": "PPL", "population": 11724, "countryCode": "RU", "countryId": "2017370"}, {"fcl": "P", "countryName": "Russia", "adminCode1": "46", "fcodeName": "populated place", "adminName1": "Mordoviya", "lng": "45.85033", "name": "Pochinki", "toponymName": "Pochinki", "lat": "54.20278", "fclName": "city, village,...", "geonameId": 508636, "fcode": "PPL", "population": 0, "countryCode": "RU", "countryId": "2017370"}, {"fcl": "P", "countryName": "Russia", "adminCode1": "57", "fcodeName": "populated place", "adminName1": "Penza", "lng": "44.85", "name": "Pochinki", "toponymName": "Pochinki", "lat": "53.95", "fclName": "city, village,...", "geonameId": 508637, "fcode": "PPL", "population": 0, "countryCode": "RU", "countryId": "2017370"}, {"fcl": "P", "countryName": "Russia", "adminCode1": "57", "fcodeName": "populated place", "adminName1": "Penza", "lng": "42.92413", "name": "Pochinki", "toponymName": "Pochinki", "lat": "53.05196", "fclName": "city, village,...", "geonameId": 508638, "fcode": "PPL", "population": 0, "countryCode": "RU", "countryId": "2017370"}, {"fcl": "P", "countryName": "Russia", "adminCode1": "62", "fcodeName": "populated place", "adminName1": "Rjazan", "lng": "42.4645", "name": "Krasnyye Pochinki", "toponymName": "Krasnyye Pochinki", "lat": "54.6689", "fclName": "city, village,...", "geonameId": 7750996, "fcode": "PPL", "population": 0, "countryCode": "RU", "countryId": "2017370"}, {"fcl": "P", "countryName": "Russia", "adminCode1": "62", "fcodeName": "populated place", "adminName1": "Rjazan", "lng": "42.6179", "name": "Kurmanovy Pochinki", "toponymName": "Kurmanovy Pochinki", "lat": "54.6071", "fclName": "city, village,...", "geonameId": 7750749, "fcode": "PPL", "population": 0, "countryCode": "RU", "countryId": "2017370"}, {"fcl": "P", "countryName": "Russia", "adminCode1": "62", "fcodeName": "populated place", "adminName1": "Rjazan", "lng": "42.4679", "name": "Novyye Pochinki", "toponymName": "Novyye Pochinki", "lat": "54.6591", "fclName": "city, village,...", "geonameId": 7750736, "fcode": "PPL", "population": 0, "countryCode": "RU", "countryId": "2017370"}, {"fcl": "P", "countryName": "Russia", "adminCode1": "62", "fcodeName": "populated place", "adminName1": "Rjazan", "lng": "42.6218", "name": "Kulayevy Pochinki", "toponymName": "Kulayevy Pochinki", "lat": "54.6241", "fclName": "city, village,...", "geonameId": 7750750, "fcode": "PPL", "population": 0, "countryCode": "RU", "countryId": "2017370"}], "totalResultsCount": 8, "url": "http://api.geonames.org/search?north=54.837&west=41.8373&south=52.3247&name=%D0%9F%D0%BE%D1%87%D0%B8%D0%BD%D0%BA%D0%B8&username=jaguillette&east=46.7277&featureClass=P&type=json"}