{"totalResultsCount":15,"geonames":[{"adminCode1":"77","lng":"36.40233","geonameId":506302,"toponymName":"Porech’ye","countryId":"2017370","fcl":"P","population":0,"countryCode":"RU","name":"Porech'ye","fclName":"city, village,...","countryName":"Russia","fcodeName":"populated place","adminName1":"Tverskaya","lat":"58.03551","fcode":"PPL"},{"adminCode1":"77","lng":"37.92583","geonameId":506304,"toponymName":"Porech’ye","countryId":"2017370","fcl":"P","population":0,"countryCode":"RU","name":"Porech'ye","fclName":"city, village,...","countryName":"Russia","fcodeName":"populated place","adminName1":"Tverskaya","lat":"57.08528","fcode":"PPL"},{"adminCode1":"47","lng":"35.55217","geonameId":506308,"toponymName":"Porech’ye","countryId":"2017370","fcl":"P","population":0,"countryCode":"RU","name":"Porech'ye","fclName":"city, village,...","countryName":"Russia","fcodeName":"populated place","adminName1":"Moskovskaya","lat":"55.71419","fcode":"PPL"},{"adminCode1":"25","lng":"36.57019","geonameId":506310,"toponymName":"Porech’ye","countryId":"2017370","fcl":"P","population":0,"countryCode":"RU","name":"Porech'ye","fclName":"city, village,...","countryName":"Russia","fcodeName":"populated place","adminName1":"Kaluga","lat":"54.87275","fcode":"PPL"},{"adminCode1":"76","lng":"37.06854","geonameId":506312,"toponymName":"Porech’ye","countryId":"2017370","fcl":"P","population":0,"countryCode":"RU","name":"Porech'ye","fclName":"city, village,...","countryName":"Russia","fcodeName":"populated place","adminName1":"Tula","lat":"54.1837","fcode":"PPL"},{"adminCode1":"42","lng":"34.10944","geonameId":506294,"toponymName":"Porech’ye","countryId":"2017370","fcl":"P","population":0,"countryCode":"RU","name":"Porech’ye","fclName":"city, village,...","countryName":"Russia","fcodeName":"populated place","adminName1":"Leningrad","lat":"59.92472","fcode":"PPL"},{"adminCode1":"52","lng":"34.65272","geonameId":506298,"toponymName":"Porech’ye","countryId":"2017370","fcl":"P","population":0,"countryCode":"RU","name":"Porech’ye","fclName":"city, village,...","countryName":"Russia","fcodeName":"populated place","adminName1":"Novgorod","lat":"58.412","fcode":"PPL"},{"adminCode1":"77","lng":"37.382","geonameId":506303,"toponymName":"Porech’ye","countryId":"2017370","fcl":"P","population":0,"countryCode":"RU","name":"Porech’ye","fclName":"city, village,...","countryName":"Russia","fcodeName":"populated place","adminName1":"Tverskaya","lat":"57.74054","fcode":"PPL"},{"adminCode1":"47","lng":"36.1833","geonameId":7601460,"toponymName":"Porech’ye","countryId":"2017370","fcl":"P","population":0,"countryCode":"RU","name":"Porech’ye","fclName":"city, village,...","countryName":"Russia","fcodeName":"populated place","adminName1":"Moskovskaya","lat":"56.1202","fcode":"PPL"},{"adminCode1":"77","lng":"36.5972","geonameId":7606051,"toponymName":"Porech’ye","countryId":"2017370","fcl":"P","population":0,"countryCode":"RU","name":"Porech’ye","fclName":"city, village,...","countryName":"Russia","fcodeName":"populated place","adminName1":"Tverskaya","lat":"57.3249","fcode":"PPL"},{"adminCode1":"77","lng":"37.4961","geonameId":7586002,"toponymName":"Porech’ye","countryId":"2017370","fcl":"P","population":0,"countryCode":"RU","name":"Porech’ye","fclName":"city, village,...","countryName":"Russia","fcodeName":"populated place","adminName1":"Tverskaya","lat":"57.5041","fcode":"PPL"},{"adminCode1":"47","lng":"35.56983","geonameId":517451,"toponymName":"Novoye Porech’ye","countryId":"2017370","fcl":"P","population":0,"countryCode":"RU","name":"Novoye Porech’ye","fclName":"city, village,...","countryName":"Russia","fcodeName":"populated place","adminName1":"Moskovskaya","lat":"55.71565","fcode":"PPL"},{"adminCode1":"88","lng":"39.38354","geonameId":506291,"toponymName":"Porech’ye-Rybnoye","countryId":"2017370","fcl":"P","population":1949,"countryCode":"RU","name":"Porech'ye-Rybnoye","fclName":"city, village,...","countryName":"Russia","fcodeName":"populated place","adminName1":"Jaroslavl","lat":"57.09805","fcode":"PPL"},{"adminCode1":"77","lng":"35.07545","geonameId":857062,"toponymName":"Porech’ye","countryId":"2017370","fcl":"P","population":0,"countryCode":"RU","name":"Porech’ye","fclName":"city, village,...","countryName":"Russia","fcodeName":"populated place","adminName1":"Tverskaya","lat":"56.77103","fcode":"PPL"},{"adminCode1":"83","lng":"39.0831","geonameId":506306,"toponymName":"Porech’ye","countryId":"2017370","fcl":"P","population":0,"countryCode":"RU","name":"Porech’ye","fclName":"city, village,...","countryName":"Russia","fcodeName":"populated place","adminName1":"Vladimir","lat":"56.43345","fcode":"PPL"}]}