{"totalResultsCount":6,"geonames":[{"adminCode1":"02","lng":"32.38761","geonameId":696108,"toponymName":"Pryluky","countryId":"690791","fcl":"P","population":62823,"countryCode":"UA","name":"Pryluky","fclName":"city, village,...","countryName":"Ukraine","fcodeName":"populated place","adminName1":"Chernihiv","lat":"50.59323","fcode":"PPL"},{"adminCode1":"05","lng":"27.4125","geonameId":623098,"toponymName":"Priluki","countryId":"630336","fcl":"P","population":0,"countryCode":"BY","name":"Priluki","fclName":"city, village,...","countryName":"Belarus","fcodeName":"populated place","adminName1":"Minsk","lat":"53.7865","fcode":"PPL"},{"adminCode1":"27","lng":"28.86574","geonameId":696295,"toponymName":"Pryluky","countryId":"690791","fcl":"P","population":0,"countryCode":"UA","name":"Pryluky","fclName":"city, village,...","countryName":"Ukraine","fcodeName":"populated place","adminName1":"Zhytomyr","lat":"51.46341","fcode":"PPL"},{"adminCode1":"25","lng":"33.85281","geonameId":811225,"toponymName":"Priluki","countryId":"2017370","fcl":"P","population":0,"countryCode":"RU","name":"Priluki","fclName":"city, village,...","countryName":"Russia","fcodeName":"populated place","adminName1":"Kaluga","lat":"54.49036","fcode":"PPL"},{"adminCode1":"05","lng":"27.4524","geonameId":8537698,"toponymName":"Pryluki","countryId":"630336","fcl":"P","population":0,"countryCode":"BY","name":"Pryluki","fclName":"city, village,...","countryName":"Belarus","fcodeName":"populated place","adminName1":"Minsk","lat":"53.7928","fcode":"PPL"},{"adminCode1":"23","lng":"28.71748","geonameId":696109,"toponymName":"Pryluky","countryId":"690791","fcl":"P","population":0,"countryCode":"UA","name":"Pryluky","fclName":"city, village,...","countryName":"Ukraine","fcodeName":"populated place","adminName1":"Vinnyts'ka","lat":"49.38706","fcode":"PPL"}]}