{"totalResultsCount":6,"geonames":[{"adminCode1":"47","lng":"37.21667","geonameId":502953,"toponymName":"Ramen’ye","countryId":"2017370","fcl":"P","population":0,"countryCode":"RU","name":"Ramen'ye","fclName":"city, village,...","countryName":"Russia","fcodeName":"populated place","adminName1":"Moskovskaya","lat":"56.56667","fcode":"PPL"},{"adminCode1":"47","lng":"35.50009","geonameId":502958,"toponymName":"Ramen’ye","countryId":"2017370","fcl":"P","population":0,"countryCode":"RU","name":"Ramen'ye","fclName":"city, village,...","countryName":"Russia","fcodeName":"populated place","adminName1":"Moskovskaya","lat":"56.15392","fcode":"PPL"},{"adminCode1":"83","lng":"40.26667","geonameId":502959,"toponymName":"Ramen’ye","countryId":"2017370","fcl":"P","population":0,"countryCode":"RU","name":"Ramen’ye","fclName":"city, village,...","countryName":"Russia","fcodeName":"populated place","adminName1":"Vladimir","lat":"55.91667","fcode":"PPL"},{"adminCode1":"62","lng":"40.33333","geonameId":502961,"toponymName":"Ramen’ye","countryId":"2017370","fcl":"P","population":0,"countryCode":"RU","name":"Ramen’ye","fclName":"city, village,...","countryName":"Russia","fcodeName":"populated place","adminName1":"Rjazan","lat":"54.33333","fcode":"PPL"},{"adminCode1":"25","lng":"35.31472","geonameId":817381,"toponymName":"Ramen’ye","countryId":"2017370","fcl":"P","population":0,"countryCode":"RU","name":"Ramen’ye","fclName":"city, village,...","countryName":"Russia","fcodeName":"populated place","adminName1":"Kaluga","lat":"54.52861","fcode":"PPL"},{"adminCode1":"47","lng":"35.48915","geonameId":857140,"toponymName":"Ramen’ye","countryId":"2017370","fcl":"P","population":0,"countryCode":"RU","name":"Ramen’ye","fclName":"city, village,...","countryName":"Russia","fcodeName":"populated place","adminName1":"Moskovskaya","lat":"56.35099","fcode":"PPL"}]}