{"totalResultsCount":7,"geonames":[{"adminCode1":"84","lng":"42.4188","geonameId":501679,"toponymName":"Rogachëv","countryId":"2017370","fcl":"P","population":0,"countryCode":"RU","name":"Rogachëv","fclName":"city, village,...","countryName":"Russia","fcodeName":"populated place","adminName1":"Volgograd","lat":"50.6737","fcode":"PPL"},{"adminCode1":"27","lng":"29.36076","geonameId":695569,"toponymName":"Rogachëv","countryId":"690791","fcl":"P","population":350,"countryCode":"UA","name":"Rogachëv","fclName":"city, village,...","countryName":"Ukraine","fcodeName":"populated place","adminName1":"Zhytomyr","lat":"49.64413","fcode":"PPL"},{"adminCode1":"38","lng":"40.542","geonameId":501680,"toponymName":"Rogachëv","countryId":"2017370","fcl":"P","population":0,"countryCode":"RU","name":"Rogachëv","fclName":"city, village,...","countryName":"Russia","fcodeName":"populated place","adminName1":"Krasnodarskiy","lat":"45.5472","fcode":"PPL"},{"adminCode1":"02","lng":"30.0495","geonameId":622739,"toponymName":"Rahachow","countryId":"630336","fcl":"P","population":34700,"countryCode":"BY","name":"Rahachow","fclName":"city, village,...","countryName":"Belarus","fcodeName":"seat of a second-order administrative division","adminName1":"Gomel","lat":"53.0934","fcode":"PPLA2"},{"adminCode1":"38","lng":"38.83556","geonameId":803109,"toponymName":"Rogachev","countryId":"2017370","fcl":"P","population":0,"countryCode":"RU","name":"Rogachev","fclName":"city, village,...","countryName":"Russia","fcodeName":"populated place","adminName1":"Krasnodarskiy","lat":"45.68333","fcode":"PPL"},{"adminCode1":"27","lng":"27.72239","geonameId":695568,"toponymName":"Rohachiv","countryId":"690791","fcl":"P","population":0,"countryCode":"UA","name":"Rohachiv","fclName":"city, village,...","countryName":"Ukraine","fcodeName":"populated place","adminName1":"Zhytomyr","lat":"50.41042","fcode":"PPL"},{"adminCode1":"19","lng":"26.13218","geonameId":8441458,"toponymName":"Rohachiv","countryId":"690791","fcl":"P","population":0,"countryCode":"UA","name":"Rohachiv","fclName":"city, village,...","countryName":"Ukraine","fcodeName":"populated place","adminName1":"Rivne","lat":"50.7009","fcode":"PPL"}]}