{"totalResultsCount":36,"geonames":[{"adminCode1":"69","lng":"32.0401","geonameId":491687,"toponymName":"Smolensk","countryId":"2017370","fcl":"P","population":320991,"countryCode":"RU","name":"Smolensk","fclName":"city, village,...","countryName":"Russia","fcodeName":"seat of a first-order administrative division","adminName1":"Smolensk","lat":"54.7818","fcode":"PPLA"},{"adminCode1":"23","lng":"27.7982","geonameId":700918,"toponymName":"Mohyliv-Podil’s’kyy","countryId":"690791","fcl":"P","population":32500,"countryCode":"UA","name":"Mohyliv-Podil’s’kyy","fclName":"city, village,...","countryName":"Ukraine","fcodeName":"seat of a second-order administrative division","adminName1":"Vinnyts'ka","lat":"48.44598","fcode":"PPLA2"},{"adminCode1":"10","lng":"30.81821","geonameId":699680,"toponymName":"Novoarkhanhel’s’k","countryId":"690791","fcl":"P","population":7624,"countryCode":"UA","name":"Novoarkhanhel's'k","fclName":"city, village,...","countryName":"Ukraine","fcodeName":"populated place","adminName1":"Kirovohrad","lat":"48.65803","fcode":"PPL"},{"adminCode1":"16","lng":"31.33078","geonameId":688860,"toponymName":"Voznesensk","countryId":"690791","fcl":"P","population":42248,"countryCode":"UA","name":"Voznesensk","fclName":"city, village,...","countryName":"Ukraine","fcodeName":"populated place","adminName1":"Mykolaiv","lat":"47.56494","fcode":"PPL"},{"adminCode1":"18","lng":"33.63567","geonameId":6559559,"toponymName":"Komsomolsk","countryId":"690791","fcl":"P","population":51740,"countryCode":"UA","name":"Komsomolsk","fclName":"city, village,...","countryName":"Ukraine","fcodeName":"seat of a second-order administrative division","adminName1":"Poltava","lat":"49.01018","fcode":"PPLA2"},{"adminCode1":"18","lng":"34.63502","geonameId":712498,"toponymName":"Bil’s’k","countryId":"690791","fcl":"P","population":0,"countryCode":"UA","name":"Bel'sk","fclName":"city, village,...","countryName":"Ukraine","fcodeName":"populated place","adminName1":"Poltava","lat":"50.0938","fcode":"PPL"},{"adminCode1":"02","lng":"32.11137","geonameId":688108,"toponymName":"Krasnosil’s’ke","countryId":"690791","fcl":"P","population":0,"countryCode":"UA","name":"Krasnosil’s’ke","fclName":"city, village,...","countryName":"Ukraine","fcodeName":"populated place","adminName1":"Chernihiv","lat":"51.20166","fcode":"PPL"},{"adminCode1":"13","lng":"29.83382","geonameId":691933,"toponymName":"Tal’s’ke","countryId":"690791","fcl":"P","population":0,"countryCode":"UA","name":"Tal’s’ke","fclName":"city, village,...","countryName":"Ukraine","fcodeName":"populated place","adminName1":"Kiev","lat":"50.77036","fcode":"PPL"},{"adminCode1":"27","lng":"27.56667","geonameId":694989,"toponymName":"Komsomol’s’ke","countryId":"690791","fcl":"P","population":0,"countryCode":"UA","name":"Komsomol’s’ke","fclName":"city, village,...","countryName":"Ukraine","fcodeName":"populated place","adminName1":"Zhytomyr","lat":"51.35","fcode":"PPL"},{"adminCode1":"02","lng":"32.99905","geonameId":706766,"toponymName":"Karyl’s’ke","countryId":"690791","fcl":"P","population":0,"countryCode":"UA","name":"Karil'skoye","fclName":"city, village,...","countryName":"Ukraine","fcodeName":"populated place","adminName1":"Chernihiv","lat":"51.50653","fcode":"PPL"},{"adminCode1":"27","lng":"28.52085","geonameId":689576,"toponymName":"Vil’s’k","countryId":"690791","fcl":"P","population":0,"countryCode":"UA","name":"Vil’s’k","fclName":"city, village,...","countryName":"Ukraine","fcodeName":"populated place","adminName1":"Zhytomyr","lat":"50.38085","fcode":"PPL"},{"adminCode1":"18","lng":"34.43564","geonameId":705180,"toponymName":"Komsomol’s’ke","countryId":"690791","fcl":"P","population":0,"countryCode":"UA","name":"Komsomol’s’ke","fclName":"city, village,...","countryName":"Ukraine","fcodeName":"populated place","adminName1":"Poltava","lat":"50.26823","fcode":"PPL"},{"adminCode1":"21","lng":"34.23529","geonameId":806602,"toponymName":"Novosil’s’ke","countryId":"690791","fcl":"P","population":0,"countryCode":"UA","name":"Novosil’s’ke","fclName":"city, village,...","countryName":"Ukraine","fcodeName":"populated place","adminName1":"Sumy","lat":"50.65494","fcode":"PPL"},{"adminCode1":"21","lng":"34.28278","geonameId":806830,"toponymName":"Sul’s’ke","countryId":"690791","fcl":"P","population":0,"countryCode":"UA","name":"Sul’s’ke","fclName":"city, village,...","countryName":"Ukraine","fcodeName":"populated place","adminName1":"Sumy","lat":"50.85944","fcode":"PPL"},{"adminCode1":"02","lng":"30.91048","geonameId":8393179,"toponymName":"Nabil’s’ke","countryId":"690791","fcl":"P","population":0,"countryCode":"UA","name":"Nabil’s’ke","fclName":"city, village,...","countryName":"Ukraine","fcodeName":"populated place","adminName1":"Chernihiv","lat":"50.98647","fcode":"PPL"},{"adminCode1":"02","lng":"32.68067","geonameId":8208117,"toponymName":"Komsomol’s’ke","countryId":"690791","fcl":"P","population":0,"countryCode":"UA","name":"Komsomol’s’ke","fclName":"city, village,...","countryName":"Ukraine","fcodeName":"populated place","adminName1":"Chernihiv","lat":"51.86738","fcode":"PPL"},{"adminCode1":"07","lng":"27.9049","geonameId":621308,"toponymName":"Stenka","countryId":"630336","fcl":"P","population":0,"countryCode":"BY","name":"Stenka","fclName":"city, village,...","countryName":"Belarus","fcodeName":"populated place","adminName1":"Vitebsk","lat":"54.9519","fcode":"PPL"},{"adminCode1":"23","lng":"28.07777","geonameId":699401,"toponymName":"Novomykil’s’k","countryId":"690791","fcl":"P","population":0,"countryCode":"UA","name":"Novomykil’s’k","fclName":"city, village,...","countryName":"Ukraine","fcodeName":"populated place","adminName1":"Vinnyts'ka","lat":"48.41132","fcode":"PPL"},{"adminCode1":"27","lng":"27.71415","geonameId":707904,"toponymName":"Hul’s’k","countryId":"690791","fcl":"P","population":0,"countryCode":"UA","name":"Hul’s’k","fclName":"city, village,...","countryName":"Ukraine","fcodeName":"populated place","adminName1":"Zhytomyr","lat":"50.51701","fcode":"PPL"},{"adminCode1":"21","lng":"34.68144","geonameId":808132,"toponymName":"Rybal’s’ke","countryId":"690791","fcl":"P","population":0,"countryCode":"UA","name":"Rybal’s’ke","fclName":"city, village,...","countryName":"Ukraine","fcodeName":"populated place","adminName1":"Sumy","lat":"50.25","fcode":"PPL"},{"adminCode1":"21","lng":"34.9911","geonameId":805759,"toponymName":"Mykil’s’ke","countryId":"690791","fcl":"P","population":0,"countryCode":"UA","name":"Mykil’s’ke","fclName":"city, village,...","countryName":"Ukraine","fcodeName":"populated place","adminName1":"Sumy","lat":"51.02825","fcode":"PPL"},{"adminCode1":"27","lng":"27.83406","geonameId":8462392,"toponymName":"Rykhal’s’ke","countryId":"690791","fcl":"P","population":0,"countryCode":"UA","name":"Rykhal’s’ke","fclName":"city, village,...","countryName":"Ukraine","fcodeName":"populated place","adminName1":"Zhytomyr","lat":"50.71643","fcode":"PPL"},{"adminCode1":"27","lng":"27.97755","geonameId":8467410,"toponymName":"Lahul’s’k","countryId":"690791","fcl":"P","population":0,"countryCode":"UA","name":"Lahul’s’k","fclName":"city, village,...","countryName":"Ukraine","fcodeName":"populated place","adminName1":"Zhytomyr","lat":"50.53444","fcode":"PPL"},{"adminCode1":"18","lng":"33.5389","geonameId":8718702,"toponymName":"Rybal’s’ke","countryId":"690791","fcl":"P","population":0,"countryCode":"UA","name":"Rybal’s’ke","fclName":"city, village,...","countryName":"Ukraine","fcodeName":"populated place","adminName1":"Poltava","lat":"49.90278","fcode":"PPL"},{"adminCode1":"05","lng":"27.398","geonameId":621293,"toponymName":"Steshitsy","countryId":"630336","fcl":"P","population":0,"countryCode":"BY","name":"Steshitsy","fclName":"city, village,...","countryName":"Belarus","fcodeName":"populated place","adminName1":"Minsk","lat":"54.5722","fcode":"PPL"},{"adminCode1":"27","lng":"27.90001","geonameId":695152,"toponymName":"Rudnya-Radovel’s’ka","countryId":"690791","fcl":"P","population":0,"countryCode":"UA","name":"Rudnya-Radovel’s’ka","fclName":"city, village,...","countryName":"Ukraine","fcodeName":"populated place","adminName1":"Zhytomyr","lat":"51.17585","fcode":"PPL"},{"adminCode1":"09","lng":"27.59467","geonameId":694645,"toponymName":"Semaki","countryId":"690791","fcl":"P","population":0,"countryCode":"UA","name":"Semaki","fclName":"city, village,...","countryName":"Ukraine","fcodeName":"populated place","adminName1":"Khmelnytskyi","lat":"49.52972","fcode":"PPL"},{"adminCode1":"23","lng":"28.66656","geonameId":705182,"toponymName":"Komsomol’s’ke","countryId":"690791","fcl":"P","population":0,"countryCode":"UA","name":"Komsomol’s’ke","fclName":"city, village,...","countryName":"Ukraine","fcodeName":"populated place","adminName1":"Vinnyts'ka","lat":"49.71942","fcode":"PPL"},{"adminCode1":"18","lng":"34.07483","geonameId":8630721,"toponymName":"Zapsil’s’ke","countryId":"690791","fcl":"P","population":0,"countryCode":"UA","name":"Zapsil’s’ke","fclName":"city, village,...","countryName":"Ukraine","fcodeName":"populated place","adminName1":"Poltava","lat":"50.30629","fcode":"PPL"},{"adminCode1":"21","lng":"34.95085","geonameId":8630888,"toponymName":"Korabel’s’ke","countryId":"690791","fcl":"P","population":0,"countryCode":"UA","name":"Korabel’s’ke","fclName":"city, village,...","countryName":"Ukraine","fcodeName":"populated place","adminName1":"Sumy","lat":"50.34541","fcode":"PPL"},{"adminCode1":"07","lng":"35.23284","geonameId":8699482,"toponymName":"Komsomol’s’ke","countryId":"690791","fcl":"P","population":0,"countryCode":"UA","name":"Komsomol’s’ke","fclName":"city, village,...","countryName":"Ukraine","fcodeName":"populated place","adminName1":"Kharkiv","lat":"49.96513","fcode":"PPL"},{"adminCode1":"18","lng":"33.45209","geonameId":8717729,"toponymName":"Komsomol’s’ke","countryId":"690791","fcl":"P","population":0,"countryCode":"UA","name":"Komsomol’s’ke","fclName":"city, village,...","countryName":"Ukraine","fcodeName":"populated place","adminName1":"Poltava","lat":"50.22085","fcode":"PPL"},{"adminCode1":"18","lng":"33.77465","geonameId":8718699,"toponymName":"Psil’s’ke","countryId":"690791","fcl":"P","population":0,"countryCode":"UA","name":"Psil’s’ke","fclName":"city, village,...","countryName":"Ukraine","fcodeName":"populated place","adminName1":"Poltava","lat":"49.83182","fcode":"PPL"},{"adminCode1":"01","lng":"31.97057","geonameId":9290285,"toponymName":"Podil’s’ke","countryId":"690791","fcl":"P","population":0,"countryCode":"UA","name":"Podil’s’ke","fclName":"city, village,...","countryName":"Ukraine","fcodeName":"populated place","adminName1":"Cherkasy","lat":"49.74445","fcode":"PPL"},{"adminCode1":"13","lng":"29.9812","geonameId":695146,"toponymName":"Rudnya-Tal’s’ka","countryId":"690791","fcl":"P","population":0,"countryCode":"UA","name":"Rudnya-Tal’s’ka","fclName":"city, village,...","countryName":"Ukraine","fcodeName":"populated place","adminName1":"Kiev","lat":"50.85409","fcode":"PPL"},{"adminCode1":"21","lng":"33.25403","geonameId":8407601,"toponymName":"Komsomol’s’ka Komuna","countryId":"690791","fcl":"P","population":0,"countryCode":"UA","name":"Komsomol’s’ka Komuna","fclName":"city, village,...","countryName":"Ukraine","fcodeName":"populated place","adminName1":"Sumy","lat":"51.20172","fcode":"PPL"}]}