{"totalResultsCount":24,"geonames":[{"adminCode1":"00","lng":"27.93333","geonameId":621685,"toponymName":"Sokol’","countryId":"630336","fcl":"P","population":0,"countryCode":"BY","name":"Sokol’","fclName":"city, village,...","countryName":"Belarus","fcodeName":"populated place","adminName1":"","lat":"54.43333","fcode":"PPL"},{"adminCode1":"05","lng":"29.1918","geonameId":624300,"toponymName":"Novyy Sokol","countryId":"630336","fcl":"P","population":0,"countryCode":"BY","name":"Novyy Sokol","fclName":"city, village,...","countryName":"Belarus","fcodeName":"populated place","adminName1":"Minsk","lat":"54.1348","fcode":"PPL"},{"adminCode1":"02","lng":"30.0804","geonameId":8181447,"toponymName":"Sokol","countryId":"630336","fcl":"P","population":0,"countryCode":"BY","name":"Sokol","fclName":"city, village,...","countryName":"Belarus","fcodeName":"abandoned populated place","adminName1":"Gomel","lat":"51.8343","fcode":"PPLQ"},{"adminCode1":"02","lng":"30.3789","geonameId":8195870,"toponymName":"Posëlok Sokol","countryId":"630336","fcl":"P","population":0,"countryCode":"BY","name":"Posëlok Sokol","fclName":"city, village,...","countryName":"Belarus","fcodeName":"populated place","adminName1":"Gomel","lat":"52.1857","fcode":"PPL"},{"adminCode1":"05","lng":"29.2131","geonameId":8330550,"toponymName":"Staryy Sokol","countryId":"630336","fcl":"P","population":0,"countryCode":"BY","name":"Staryy Sokol","fclName":"city, village,...","countryName":"Belarus","fcodeName":"populated place","adminName1":"Minsk","lat":"54.1322","fcode":"PPL"},{"adminCode1":"52","lng":"31.08292","geonameId":491131,"toponymName":"Sokol’ye","countryId":"2017370","fcl":"P","population":0,"countryCode":"RU","name":"Sokol'ye","fclName":"city, village,...","countryName":"Russia","fcodeName":"populated place","adminName1":"Novgorod","lat":"57.44974","fcode":"PPL"},{"adminCode1":"52","lng":"31.8","geonameId":491130,"toponymName":"Sokol’ye","countryId":"2017370","fcl":"P","population":0,"countryCode":"RU","name":"Sokol’ye","fclName":"city, village,...","countryName":"Russia","fcodeName":"populated place","adminName1":"Novgorod","lat":"58.35","fcode":"PPL"},{"adminCode1":"60","lng":"30.09271","geonameId":491140,"toponymName":"Sokol’ye","countryId":"2017370","fcl":"P","population":0,"countryCode":"RU","name":"Sokol’ye","fclName":"city, village,...","countryName":"Russia","fcodeName":"populated place","adminName1":"Pskov","lat":"56.94142","fcode":"PPL"},{"adminCode1":"02","lng":"30.1292","geonameId":621669,"toponymName":"Novovinogradov","countryId":"630336","fcl":"P","population":0,"countryCode":"BY","name":"Novovinogradov","fclName":"city, village,...","countryName":"Belarus","fcodeName":"populated place","adminName1":"Gomel","lat":"52.6203","fcode":"PPL"},{"adminCode1":"06","lng":"32.4773","geonameId":622107,"toponymName":"Shelodonovka","countryId":"630336","fcl":"P","population":0,"countryCode":"BY","name":"Shelodonovka","fclName":"city, village,...","countryName":"Belarus","fcodeName":"populated place","adminName1":"Mogilev","lat":"53.4213","fcode":"PPL"},{"adminCode1":"07","lng":"30.1919","geonameId":621680,"toponymName":"Sokol’niki","countryId":"630336","fcl":"P","population":0,"countryCode":"BY","name":"Sokol’niki","fclName":"city, village,...","countryName":"Belarus","fcodeName":"populated place","adminName1":"Vitebsk","lat":"55.3089","fcode":"PPL"},{"adminCode1":"07","lng":"30.6021","geonameId":8280057,"toponymName":"Sokol’niki","countryId":"630336","fcl":"P","population":0,"countryCode":"BY","name":"Sokol’niki","fclName":"city, village,...","countryName":"Belarus","fcodeName":"populated place","adminName1":"Vitebsk","lat":"55.3204","fcode":"PPL"},{"adminCode1":"07","lng":"30.2493","geonameId":8280148,"toponymName":"Sokol’niki","countryId":"630336","fcl":"P","population":0,"countryCode":"BY","name":"Sokol’niki","fclName":"city, village,...","countryName":"Belarus","fcodeName":"populated place","adminName1":"Vitebsk","lat":"55.1383","fcode":"PPL"},{"adminCode1":"05","lng":"26.5298","geonameId":8282529,"toponymName":"Sokol’niki","countryId":"630336","fcl":"P","population":0,"countryCode":"BY","name":"Sokol’niki","fclName":"city, village,...","countryName":"Belarus","fcodeName":"populated place","adminName1":"Minsk","lat":"54.2291","fcode":"PPL"},{"adminCode1":"69","lng":"32.28526","geonameId":7092382,"toponymName":"Sokol’niki","countryId":"2017370","fcl":"P","population":0,"countryCode":"RU","name":"Sokol’niki","fclName":"city, village,...","countryName":"Russia","fcodeName":"populated place","adminName1":"Smolensk","lat":"54.82066","fcode":"PPL"},{"adminCode1":"42","lng":"30.27156","geonameId":530012,"toponymName":"Malyye Sokol’niki","countryId":"2017370","fcl":"P","population":0,"countryCode":"RU","name":"Malyye Sokol’niki","fclName":"city, village,...","countryName":"Russia","fcodeName":"populated place","adminName1":"Leningrad","lat":"58.79816","fcode":"PPL"},{"adminCode1":"05","lng":"27.3685","geonameId":8019939,"toponymName":"Sokol’shchina","countryId":"630336","fcl":"P","population":0,"countryCode":"BY","name":"Sokol’shchina","fclName":"city, village,...","countryName":"Belarus","fcodeName":"populated place","adminName1":"Minsk","lat":"53.6746","fcode":"PPL"},{"adminCode1":"05","lng":"27.1191","geonameId":8020100,"toponymName":"Sokol’shchina","countryId":"630336","fcl":"P","population":0,"countryCode":"BY","name":"Sokol’shchina","fclName":"city, village,...","countryName":"Belarus","fcodeName":"populated place","adminName1":"Minsk","lat":"53.4923","fcode":"PPL"},{"adminCode1":"42","lng":"30.28517","geonameId":573973,"toponymName":"Bol’shiye Sokol’niki","countryId":"2017370","fcl":"P","population":0,"countryCode":"RU","name":"Bol’shiye Sokol’niki","fclName":"city, village,...","countryName":"Russia","fcodeName":"populated place","adminName1":"Leningrad","lat":"58.79885","fcode":"PPL"},{"adminCode1":"10","lng":"32.03333","geonameId":491151,"toponymName":"Sokolki","countryId":"2017370","fcl":"P","population":0,"countryCode":"RU","name":"Sokolki","fclName":"city, village,...","countryName":"Russia","fcodeName":"populated place","adminName1":"Brjansk","lat":"52.99131","fcode":"PPL"},{"adminCode1":"05","lng":"27.3617","geonameId":8246986,"toponymName":"Sokol’ye-Ugol","countryId":"630336","fcl":"P","population":0,"countryCode":"BY","name":"Sokol’ye-Ugol","fclName":"city, village,...","countryName":"Belarus","fcodeName":"populated place","adminName1":"Minsk","lat":"54.3829","fcode":"PPL"},{"adminCode1":"04","lng":"27.8983","geonameId":8019718,"toponymName":"Sokal","countryId":"630336","fcl":"P","population":0,"countryCode":"BY","name":"Sokal","fclName":"city, village,...","countryName":"Belarus","fcodeName":"section of populated place","adminName1":"Minsk","lat":"53.8764","fcode":"PPLX"},{"adminCode1":"06","lng":"31.6657","geonameId":621681,"toponymName":"Sakol’niki","countryId":"630336","fcl":"P","population":0,"countryCode":"BY","name":"Sakol’niki","fclName":"city, village,...","countryName":"Belarus","fcodeName":"populated place","adminName1":"Mogilev","lat":"53.6645","fcode":"PPL"},{"adminCode1":"60","lng":"30.01149","geonameId":822742,"toponymName":"Starosokol’niki","countryId":"2017370","fcl":"P","population":0,"countryCode":"RU","name":"Starosokol’niki","fclName":"city, village,...","countryName":"Russia","fcodeName":"populated place","adminName1":"Pskov","lat":"56.34678","fcode":"PPL"}]}