{"totalResultsCount":24,"geonames":[{"countryId":"630336","adminCode1":"00","countryName":"Belarus","fclName":"city, village,...","countryCode":"BY","lng":"27.93333","fcodeName":"populated place","toponymName":"Sokol’","fcl":"P","name":"Sokol’","fcode":"PPL","geonameId":621685,"lat":"54.43333","adminName1":"","population":0},{"countryId":"630336","adminCode1":"05","countryName":"Belarus","fclName":"city, village,...","countryCode":"BY","lng":"29.1918","fcodeName":"populated place","toponymName":"Novyy Sokol","fcl":"P","name":"Novyy Sokol","fcode":"PPL","geonameId":624300,"lat":"54.1348","adminName1":"Minsk","population":0},{"countryId":"630336","adminCode1":"02","countryName":"Belarus","fclName":"city, village,...","countryCode":"BY","lng":"30.0804","fcodeName":"abandoned populated place","toponymName":"Sokol","fcl":"P","name":"Sokol","fcode":"PPLQ","geonameId":8181447,"lat":"51.8343","adminName1":"Gomel","population":0},{"countryId":"2017370","adminCode1":"52","countryName":"Russia","fclName":"city, village,...","countryCode":"RU","lng":"31.08292","fcodeName":"populated place","toponymName":"Sokol’ye","fcl":"P","name":"Sokol'ye","fcode":"PPL","geonameId":491131,"lat":"57.44974","adminName1":"Novgorod","population":0},{"countryId":"630336","adminCode1":"02","countryName":"Belarus","fclName":"city, village,...","countryCode":"BY","lng":"30.3789","fcodeName":"populated place","toponymName":"Posëlok Sokol","fcl":"P","name":"Posëlok Sokol","fcode":"PPL","geonameId":8195870,"lat":"52.1857","adminName1":"Gomel","population":0},{"countryId":"630336","adminCode1":"05","countryName":"Belarus","fclName":"city, village,...","countryCode":"BY","lng":"29.2131","fcodeName":"populated place","toponymName":"Staryy Sokol","fcl":"P","name":"Staryy Sokol","fcode":"PPL","geonameId":8330550,"lat":"54.1322","adminName1":"Minsk","population":0},{"countryId":"2017370","adminCode1":"52","countryName":"Russia","fclName":"city, village,...","countryCode":"RU","lng":"31.8","fcodeName":"populated place","toponymName":"Sokol’ye","fcl":"P","name":"Sokol’ye","fcode":"PPL","geonameId":491130,"lat":"58.35","adminName1":"Novgorod","population":0},{"countryId":"2017370","adminCode1":"60","countryName":"Russia","fclName":"city, village,...","countryCode":"RU","lng":"30.09271","fcodeName":"populated place","toponymName":"Sokol’ye","fcl":"P","name":"Sokol’ye","fcode":"PPL","geonameId":491140,"lat":"56.94142","adminName1":"Pskov","population":0},{"countryId":"630336","adminCode1":"02","countryName":"Belarus","fclName":"city, village,...","countryCode":"BY","lng":"30.1292","fcodeName":"populated place","toponymName":"Novovinogradov","fcl":"P","name":"Novovinogradov","fcode":"PPL","geonameId":621669,"lat":"52.6203","adminName1":"Gomel","population":0},{"countryId":"630336","adminCode1":"06","countryName":"Belarus","fclName":"city, village,...","countryCode":"BY","lng":"32.4773","fcodeName":"populated place","toponymName":"Shelodonovka","fcl":"P","name":"Shelodonovka","fcode":"PPL","geonameId":622107,"lat":"53.4213","adminName1":"Mogilev","population":0},{"countryId":"630336","adminCode1":"07","countryName":"Belarus","fclName":"city, village,...","countryCode":"BY","lng":"30.1919","fcodeName":"populated place","toponymName":"Sokol’niki","fcl":"P","name":"Sokol’niki","fcode":"PPL","geonameId":621680,"lat":"55.3089","adminName1":"Vitebsk","population":0},{"countryId":"2017370","adminCode1":"69","countryName":"Russia","fclName":"city, village,...","countryCode":"RU","lng":"32.28526","fcodeName":"populated place","toponymName":"Sokol’niki","fcl":"P","name":"Sokol’niki","fcode":"PPL","geonameId":7092382,"lat":"54.82066","adminName1":"Smolensk","population":0},{"countryId":"630336","adminCode1":"07","countryName":"Belarus","fclName":"city, village,...","countryCode":"BY","lng":"30.6021","fcodeName":"populated place","toponymName":"Sokol’niki","fcl":"P","name":"Sokol’niki","fcode":"PPL","geonameId":8280057,"lat":"55.3204","adminName1":"Vitebsk","population":0},{"countryId":"630336","adminCode1":"07","countryName":"Belarus","fclName":"city, village,...","countryCode":"BY","lng":"30.2493","fcodeName":"populated place","toponymName":"Sokol’niki","fcl":"P","name":"Sokol’niki","fcode":"PPL","geonameId":8280148,"lat":"55.1383","adminName1":"Vitebsk","population":0},{"countryId":"630336","adminCode1":"05","countryName":"Belarus","fclName":"city, village,...","countryCode":"BY","lng":"26.5298","fcodeName":"populated place","toponymName":"Sokol’niki","fcl":"P","name":"Sokol’niki","fcode":"PPL","geonameId":8282529,"lat":"54.2291","adminName1":"Minsk","population":0},{"countryId":"2017370","adminCode1":"42","countryName":"Russia","fclName":"city, village,...","countryCode":"RU","lng":"30.27156","fcodeName":"populated place","toponymName":"Malyye Sokol’niki","fcl":"P","name":"Malyye Sokol’niki","fcode":"PPL","geonameId":530012,"lat":"58.79816","adminName1":"Leningrad","population":0},{"countryId":"630336","adminCode1":"04","countryName":"Belarus","fclName":"city, village,...","countryCode":"BY","lng":"27.8983","fcodeName":"section of populated place","toponymName":"Sokal","fcl":"P","name":"Sokal","fcode":"PPLX","geonameId":8019718,"lat":"53.8764","adminName1":"Minsk","population":0},{"countryId":"630336","adminCode1":"05","countryName":"Belarus","fclName":"city, village,...","countryCode":"BY","lng":"27.3685","fcodeName":"populated place","toponymName":"Sokol’shchina","fcl":"P","name":"Sokol’shchina","fcode":"PPL","geonameId":8019939,"lat":"53.6746","adminName1":"Minsk","population":0},{"countryId":"630336","adminCode1":"05","countryName":"Belarus","fclName":"city, village,...","countryCode":"BY","lng":"27.1191","fcodeName":"populated place","toponymName":"Sokol’shchina","fcl":"P","name":"Sokol’shchina","fcode":"PPL","geonameId":8020100,"lat":"53.4923","adminName1":"Minsk","population":0},{"countryId":"2017370","adminCode1":"42","countryName":"Russia","fclName":"city, village,...","countryCode":"RU","lng":"30.28517","fcodeName":"populated place","toponymName":"Bol’shiye Sokol’niki","fcl":"P","name":"Bol’shiye Sokol’niki","fcode":"PPL","geonameId":573973,"lat":"58.79885","adminName1":"Leningrad","population":0},{"countryId":"2017370","adminCode1":"10","countryName":"Russia","fclName":"city, village,...","countryCode":"RU","lng":"32.03333","fcodeName":"populated place","toponymName":"Sokolki","fcl":"P","name":"Sokolki","fcode":"PPL","geonameId":491151,"lat":"52.99131","adminName1":"Brjansk","population":0},{"countryId":"630336","adminCode1":"05","countryName":"Belarus","fclName":"city, village,...","countryCode":"BY","lng":"27.3617","fcodeName":"populated place","toponymName":"Sokol’ye-Ugol","fcl":"P","name":"Sokol’ye-Ugol","fcode":"PPL","geonameId":8246986,"lat":"54.3829","adminName1":"Minsk","population":0},{"countryId":"630336","adminCode1":"06","countryName":"Belarus","fclName":"city, village,...","countryCode":"BY","lng":"31.6657","fcodeName":"populated place","toponymName":"Sakol’niki","fcl":"P","name":"Sakol’niki","fcode":"PPL","geonameId":621681,"lat":"53.6645","adminName1":"Mogilev","population":0},{"countryId":"2017370","adminCode1":"60","countryName":"Russia","fclName":"city, village,...","countryCode":"RU","lng":"30.01149","fcodeName":"populated place","toponymName":"Starosokol’niki","fcl":"P","name":"Starosokol’niki","fcode":"PPL","geonameId":822742,"lat":"56.34678","adminName1":"Pskov","population":0}]}