{"totalResultsCount":24,"geonames":[{"adminCode1":"88","lng":"39.05842","geonameId":489875,"toponymName":"Spas","countryId":"2017370","fcl":"P","population":0,"countryCode":"RU","name":"Spas","fclName":"city, village,...","countryName":"Russia","fcodeName":"populated place","adminName1":"Jaroslavl","lat":"58.03246","fcode":"PPL"},{"adminCode1":"37","lng":"46.72044","geonameId":489754,"toponymName":"Spas","countryId":"2017370","fcl":"P","population":0,"countryCode":"RU","name":"Spas","fclName":"city, village,...","countryName":"Russia","fcodeName":"populated place","adminName1":"Kostroma","lat":"59.16276","fcode":"PPL"},{"adminCode1":"85","lng":"40.20818","geonameId":489872,"toponymName":"Spas","countryId":"2017370","fcl":"P","population":0,"countryCode":"RU","name":"Spas","fclName":"city, village,...","countryName":"Russia","fcodeName":"populated place","adminName1":"Vologda","lat":"59.12552","fcode":"PPL"},{"adminCode1":"37","lng":"41.02888","geonameId":489877,"toponymName":"Spas","countryId":"2017370","fcl":"P","population":0,"countryCode":"RU","name":"Spas","fclName":"city, village,...","countryName":"Russia","fcodeName":"populated place","adminName1":"Kostroma","lat":"57.45277","fcode":"PPL"},{"adminCode1":"37","lng":"40.76802","geonameId":489876,"toponymName":"Spas","countryId":"2017370","fcl":"P","population":0,"countryCode":"RU","name":"Spas","fclName":"city, village,...","countryName":"Russia","fcodeName":"populated place","adminName1":"Kostroma","lat":"57.9047","fcode":"PPL"},{"adminCode1":"85","lng":"38.81711","geonameId":489854,"toponymName":"Spas-Lom","countryId":"2017370","fcl":"P","population":0,"countryCode":"RU","name":"Spas-Lom","fclName":"city, village,...","countryName":"Russia","fcodeName":"populated place","adminName1":"Vologda","lat":"58.95181","fcode":"PPL"},{"adminCode1":"88","lng":"39.8887","geonameId":7079479,"toponymName":"Spas","countryId":"2017370","fcl":"P","population":0,"countryCode":"RU","name":"Spas","fclName":"city, village,...","countryName":"Russia","fcodeName":"populated place","adminName1":"Jaroslavl","lat":"57.8018","fcode":"PPL"},{"adminCode1":"33","lng":"49.00348","geonameId":489846,"toponymName":"Spas-Talitsa","countryId":"2017370","fcl":"P","population":0,"countryCode":"RU","name":"Spas-Talitsa","fclName":"city, village,...","countryName":"Russia","fcodeName":"populated place","adminName1":"Kirov","lat":"58.40507","fcode":"PPL"},{"adminCode1":"88","lng":"38.07636","geonameId":489864,"toponymName":"Spas-Il’d’","countryId":"2017370","fcl":"P","population":0,"countryCode":"RU","name":"Spas-Il'd'","fclName":"city, village,...","countryName":"Russia","fcodeName":"populated place","adminName1":"Jaroslavl","lat":"57.99173","fcode":"PPL"},{"adminCode1":"37","lng":"41.17237","geonameId":489733,"toponymName":"Spas Yamshchiki","countryId":"2017370","fcl":"P","population":0,"countryCode":"RU","name":"Spas Yamshchiki","fclName":"city, village,...","countryName":"Russia","fcodeName":"populated place","adminName1":"Kostroma","lat":"57.70077","fcode":"PPL"},{"adminCode1":"85","lng":"40.37305","geonameId":6313448,"toponymName":"Spas-Nurma","countryId":"2017370","fcl":"P","population":0,"countryCode":"RU","name":"Spas-Nurma","fclName":"city, village,...","countryName":"Russia","fcodeName":"populated place","adminName1":"Vologda","lat":"58.73159","fcode":"PPL"},{"adminCode1":"85","lng":"40.7","geonameId":489832,"toponymName":"Spas-Sen’ga","countryId":"2017370","fcl":"P","population":0,"countryCode":"RU","name":"Spas-Sen’ga","fclName":"city, village,...","countryName":"Russia","fcodeName":"populated place","adminName1":"Vologda","lat":"58.91667","fcode":"PPL"},{"adminCode1":"37","lng":"41.41569","geonameId":489874,"toponymName":"Spas","countryId":"2017370","fcl":"P","population":0,"countryCode":"RU","name":"Spas","fclName":"city, village,...","countryName":"Russia","fcodeName":"populated place","adminName1":"Kostroma","lat":"58.41199","fcode":"PPL"},{"adminCode1":"88","lng":"40.19023","geonameId":6641622,"toponymName":"Spas-Vitaliy","countryId":"2017370","fcl":"P","population":0,"countryCode":"RU","name":"Spas-Vitaliy","fclName":"city, village,...","countryName":"Russia","fcodeName":"populated place","adminName1":"Jaroslavl","lat":"57.80043","fcode":"PPL"},{"adminCode1":"88","lng":"39.20209","geonameId":7079009,"toponymName":"Spas-Ramen’ye","countryId":"2017370","fcl":"P","population":0,"countryCode":"RU","name":"Spas-Ramen’ye","fclName":"city, village,...","countryName":"Russia","fcodeName":"populated place","adminName1":"Jaroslavl","lat":"57.55105","fcode":"PPL"},{"adminCode1":"37","lng":"41.88408","geonameId":6283017,"toponymName":"Spas-Pen’ye","countryId":"2017370","fcl":"P","population":0,"countryCode":"RU","name":"Spas-Pen’ye","fclName":"city, village,...","countryName":"Russia","fcodeName":"abandoned populated place","adminName1":"Kostroma","lat":"57.82647","fcode":"PPLQ"},{"adminCode1":"37","lng":"41.98678","geonameId":489759,"toponymName":"Spas-Verkhov’ye","countryId":"2017370","fcl":"P","population":0,"countryCode":"RU","name":"Spas-Verkhov’ye","fclName":"city, village,...","countryName":"Russia","fcodeName":"populated place","adminName1":"Kostroma","lat":"58.13349","fcode":"PPL"},{"adminCode1":"37","lng":"42.41504","geonameId":465814,"toponymName":"Zabor’ye","countryId":"2017370","fcl":"P","population":0,"countryCode":"RU","name":"Zabor'ye","fclName":"city, village,...","countryName":"Russia","fcodeName":"populated place","adminName1":"Kostroma","lat":"57.68621","fcode":"PPL"},{"adminCode1":"37","lng":"41.20856","geonameId":6610681,"toponymName":"Spas-Buraki","countryId":"2017370","fcl":"P","population":0,"countryCode":"RU","name":"Spas-Buraki","fclName":"city, village,...","countryName":"Russia","fcodeName":"populated place","adminName1":"Kostroma","lat":"58.03302","fcode":"PPL"},{"adminCode1":"88","lng":"39.8405","geonameId":7078838,"toponymName":"Spass","countryId":"2017370","fcl":"P","population":0,"countryCode":"RU","name":"Spass","fclName":"city, village,...","countryName":"Russia","fcodeName":"populated place","adminName1":"Jaroslavl","lat":"57.41824","fcode":"PPL"},{"adminCode1":"37","lng":"43.27584","geonameId":495633,"toponymName":"Shartanovo","countryId":"2017370","fcl":"P","population":0,"countryCode":"RU","name":"Shartanovo","fclName":"city, village,...","countryName":"Russia","fcodeName":"populated place","adminName1":"Kostroma","lat":"59.07009","fcode":"PPL"},{"adminCode1":"37","lng":"41.33768","geonameId":463029,"toponymName":"Zhilino","countryId":"2017370","fcl":"P","population":0,"countryCode":"RU","name":"Zhilino","fclName":"city, village,...","countryName":"Russia","fcodeName":"populated place","adminName1":"Kostroma","lat":"57.58271","fcode":"PPL"},{"adminCode1":"33","lng":"50.14472","geonameId":510869,"toponymName":"Pervomayskiy","countryId":"2017370","fcl":"P","population":0,"countryCode":"RU","name":"Pervomayskiy","fclName":"city, village,...","countryName":"Russia","fcodeName":"populated place","adminName1":"Kirov","lat":"58.67167","fcode":"PPL"},{"adminCode1":"85","lng":"43.20143","geonameId":475492,"toponymName":"Spasskiy Pogost","countryId":"2017370","fcl":"P","population":225,"countryCode":"RU","name":"Spasskiy Pogost","fclName":"city, village,...","countryName":"Russia","fcodeName":"populated place","adminName1":"Vologda","lat":"60.66564","fcode":"PPL"}]}