{"totalResultsCount":185,"geonames":[{"countryId":"2017370","adminCode1":"10","countryName":"Russia","fclName":"city, village,...","countryCode":"RU","lng":"34.15183","fcodeName":"populated place","toponymName":"Star’","fcl":"P","name":"Star'","fcode":"PPL","geonameId":489271,"lat":"53.62362","adminName1":"Brjansk","population":4994},{"countryId":"2017370","adminCode1":"52","countryName":"Russia","fclName":"city, village,...","countryCode":"RU","lng":"32.1938","fcodeName":"populated place","toponymName":"Star’","fcl":"P","name":"Star’","fcode":"PPL","geonameId":7094965,"lat":"57.3263","adminName1":"Novgorod","population":0},{"countryId":"630336","adminCode1":"07","countryName":"Belarus","fclName":"city, village,...","countryCode":"BY","lng":"30.2323","fcodeName":"populated place","toponymName":"Star’","fcl":"P","name":"Star’","fcode":"PPL","geonameId":813175,"lat":"54.5603","adminName1":"Vitsyebskaya Voblastsʼ","population":0},{"countryId":"630336","adminCode1":"07","countryName":"Belarus","fclName":"city, village,...","countryCode":"BY","lng":"29.4266","fcodeName":"populated place","toponymName":"Star’","fcl":"P","name":"Star’","fcode":"PPL","geonameId":621540,"lat":"54.9054","adminName1":"Vitsyebskaya Voblastsʼ","population":0},{"countryId":"630336","adminCode1":"07","countryName":"Belarus","fclName":"city, village,...","countryCode":"BY","lng":"30.6249","fcodeName":"populated place","toponymName":"Star’","fcl":"P","name":"Star’","fcode":"PPL","geonameId":8280278,"lat":"54.9446","adminName1":"Vitsyebskaya Voblastsʼ","population":0},{"countryId":"2017370","adminCode1":"72","countryName":"Russia","fclName":"city, village,...","countryCode":"RU","lng":"41.49454","fcodeName":"populated place","toponymName":"Starogryaznoye","fcl":"P","name":"Starogryaznoye","fcode":"PPL","geonameId":488828,"lat":"53.25113","adminName1":"Tambov","population":0},{"countryId":"2017370","adminCode1":"78","countryName":"Russia","fclName":"city, village,...","countryCode":"RU","lng":"66.84142","fcodeName":"populated place","toponymName":"Starozaimka","fcl":"P","name":"Starozaimka","fcode":"PPL","geonameId":1490937,"lat":"56.51926","adminName1":"Tjumen","population":0},{"countryId":"2017370","adminCode1":"04","countryName":"Russia","fclName":"city, village,...","countryCode":"RU","lng":"85.18175","fcodeName":"populated place","toponymName":"Staraya Chemrovka","fcl":"P","name":"Staraya Chemrovka","fcode":"PPL","geonameId":1491043,"lat":"52.66018","adminName1":"Altai Krai","population":0},{"countryId":"732800","adminCode1":"44","countryName":"Bulgaria","fclName":"city, village,...","countryCode":"BG","lng":"25.21667","fcodeName":"populated place","toponymName":"Star Chitak","fcl":"P","name":"Star Chitak","fcode":"PPL","geonameId":726843,"lat":"41.66667","adminName1":"Kŭrdzhali","population":0},{"countryId":"690791","adminCode1":"07","countryName":"Ukraine","fclName":"city, village,...","countryCode":"UA","lng":"36.78852","fcodeName":"populated place","toponymName":"Staryy Saltiv","fcl":"P","name":"Staryy Saltiv","fcode":"PPL","geonameId":692703,"lat":"50.07619","adminName1":"Kharkiv","population":3776},{"countryId":"2017370","adminCode1":"85","countryName":"Russia","fclName":"city, village,...","countryCode":"RU","lng":"46.18286","fcodeName":"populated place","toponymName":"Staryy Pochinok","fcl":"P","name":"Staryy Pochinok","fcode":"PPL","geonameId":487924,"lat":"60.31166","adminName1":"Vologda","population":0},{"countryId":"2017370","adminCode1":"08","countryName":"Russia","fclName":"city, village,...","countryCode":"RU","lng":"55.76083","fcodeName":"populated place","toponymName":"Staryye Kamyshly","fcl":"P","name":"Staryye Kamyshly","fcode":"PPL","geonameId":488087,"lat":"54.94806","adminName1":"Bashkortostan","population":0},{"countryId":"2017370","adminCode1":"41","countryName":"Russia","fclName":"city, village,...","countryCode":"RU","lng":"37.9557","fcodeName":"populated place","toponymName":"Staroye Rogovoye","fcl":"P","name":"Staroye Rogovoye","fcode":"PPL","geonameId":488335,"lat":"51.4476","adminName1":"Kursk","population":0},{"countryId":"2017370","adminCode1":"52","countryName":"Russia","fclName":"city, village,...","countryCode":"RU","lng":"31.2308","fcodeName":"populated place","toponymName":"Staroye Rakomo","fcl":"P","name":"Staroye Rakomo","fcode":"PPL","geonameId":488340,"lat":"58.4479","adminName1":"Novgorod","population":0},{"countryId":"2017370","adminCode1":"77","countryName":"Russia","fclName":"city, village,...","countryCode":"RU","lng":"37.05096","fcodeName":"populated place","toponymName":"Staroye Gvozdino","fcl":"P","name":"Staroye Gvozdino","fcode":"PPL","geonameId":488445,"lat":"57.93629","adminName1":"Tverskaya","population":0},{"countryId":"2017370","adminCode1":"08","countryName":"Russia","fclName":"city, village,...","countryCode":"RU","lng":"56.11892","fcodeName":"populated place","toponymName":"Staryye Turbasly","fcl":"P","name":"Staroturbasly","fcode":"PPL","geonameId":488599,"lat":"54.94453","adminName1":"Bashkortostan","population":0},{"countryId":"2017370","adminCode1":"08","countryName":"Russia","fclName":"city, village,...","countryCode":"RU","lng":"55.26667","fcodeName":"populated place","toponymName":"Staryye Tukmakly","fcl":"P","name":"Starotukmakly","fcode":"PPL","geonameId":488602,"lat":"54.93333","adminName1":"Bashkortostan","population":0},{"countryId":"2017370","adminCode1":"65","countryName":"Russia","fclName":"city, village,...","countryCode":"RU","lng":"48.0221","fcodeName":"populated place","toponymName":"Staraya Racheyka","fcl":"P","name":"Staraya Racheyka","fcode":"PPL","geonameId":489096,"lat":"53.3781","adminName1":"Samara","population":0},{"countryId":"2017370","adminCode1":"84","countryName":"Russia","fclName":"city, village,...","countryCode":"RU","lng":"46.71151","fcodeName":"populated place","toponymName":"Staraya Ivantsovka","fcl":"P","name":"Staraya Ivantsovka","fcode":"PPL","geonameId":489205,"lat":"50.03876","adminName1":"Volgograd","population":0},{"countryId":"2017370","adminCode1":"86","countryName":"Russia","fclName":"city, village,...","countryCode":"RU","lng":"40.3842","fcodeName":"populated place","toponymName":"Staraya Chigla","fcl":"P","name":"Staraya Chigla","fcode":"PPL","geonameId":489232,"lat":"51.2866","adminName1":"Voronezj","population":0},{"countryId":"2017370","adminCode1":"60","countryName":"Russia","fclName":"city, village,...","countryCode":"RU","lng":"30.12039","fcodeName":"populated place","toponymName":"Staroye Selo","fcl":"P","name":"Staroye Selo","fcode":"PPL","geonameId":542001,"lat":"57.9051","adminName1":"Pskov","population":0},{"countryId":"2017370","adminCode1":"11","countryName":"Russia","fclName":"city, village,...","countryCode":"RU","lng":"104.9156","fcodeName":"populated place","toponymName":"Staryy Ukyrchelon","fcl":"P","name":"Staryy Ukyrchelon","fcode":"PPL","geonameId":2014499,"lat":"50.5451","adminName1":"Respublika Buryatiya","population":0},{"countryId":"2017370","adminCode1":"11","countryName":"Russia","fclName":"city, village,...","countryCode":"RU","lng":"108.51801","fcodeName":"populated place","toponymName":"Staraya Kurba","fcl":"P","name":"Staraya Kurba","fcode":"PPL","geonameId":2016085,"lat":"52.00616","adminName1":"Respublika Buryatiya","population":0},{"countryId":"2017370","adminCode1":"04","countryName":"Russia","fclName":"city, village,...","countryCode":"RU","lng":"85.9006","fcodeName":"populated place","toponymName":"Staryy Togul","fcl":"P","name":"Staryy Togul","fcode":"PPL","geonameId":1490913,"lat":"53.4291","adminName1":"Altai Krai","population":1500},{"countryId":"2017370","adminCode1":"78","countryName":"Russia","fclName":"city, village,...","countryCode":"RU","lng":"65.8713","fcodeName":"populated place","toponymName":"Staraya Shadrina","fcl":"P","name":"Staroye Shadrino","fcode":"PPL","geonameId":1490939,"lat":"56.1624","adminName1":"Tjumen","population":0},{"countryId":"690791","adminCode1":"07","countryName":"Ukraine","fclName":"city, village,...","countryCode":"UA","lng":"35.75904","fcodeName":"populated place","toponymName":"Staryy Merchyk","fcl":"P","name":"Staryy Merchyk","fcode":"PPL","geonameId":692709,"lat":"49.98147","adminName1":"Kharkiv","population":1709},{"countryId":"2017370","adminCode1":"57","countryName":"Russia","fclName":"city, village,...","countryCode":"RU","lng":"45.775","fcodeName":"populated place","toponymName":"Staryy Vershaut","fcl":"P","name":"Staryy Vershaut","fcode":"PPL","geonameId":487866,"lat":"52.53139","adminName1":"Penza","population":0},{"countryId":"2017370","adminCode1":"80","countryName":"Russia","fclName":"city, village,...","countryCode":"RU","lng":"52.33944","fcodeName":"populated place","toponymName":"Staryy Utchan","fcl":"P","name":"Staryy Utchan","fcode":"PPL","geonameId":487870,"lat":"56.16434","adminName1":"Udmurtiya","population":0},{"countryId":"2017370","adminCode1":"45","countryName":"Russia","fclName":"city, village,...","countryCode":"RU","lng":"48.78917","fcodeName":"populated place","toponymName":"Staryy Tor”yal","fcl":"P","name":"Staryy Tor”yal","fcode":"PPL","geonameId":487880,"lat":"56.96194","adminName1":"Mariy-El","population":0},{"countryId":"2017370","adminCode1":"73","countryName":"Russia","fclName":"city, village,...","countryCode":"RU","lng":"48.26127","fcodeName":"populated place","toponymName":"Staryy Studenets","fcl":"P","name":"Staryy Studenets","fcode":"PPL","geonameId":487889,"lat":"54.88232","adminName1":"Tatarstan","population":0},{"countryId":"2017370","adminCode1":"55","countryName":"Russia","fclName":"city, village,...","countryCode":"RU","lng":"56.4057","fcodeName":"populated place","toponymName":"Staryy Sokulak","fcl":"P","name":"Staryy Sokulak","fcode":"PPL","geonameId":487892,"lat":"52.05657","adminName1":"Orenburg","population":0},{"countryId":"2017370","adminCode1":"90","countryName":"Russia","fclName":"city, village,...","countryCode":"RU","lng":"55.20033","fcodeName":"populated place","toponymName":"Staryy Shagirt","fcl":"P","name":"Staryy Shagirt","fcode":"PPL","geonameId":487901,"lat":"56.45223","adminName1":"Perm","population":0},{"countryId":"2017370","adminCode1":"81","countryName":"Russia","fclName":"city, village,...","countryCode":"RU","lng":"47.06011","fcodeName":"populated place","toponymName":"Staryy Picheur","fcl":"P","name":"Staryy Picheur","fcode":"PPL","geonameId":487925,"lat":"52.87202","adminName1":"Ulyanovsk","population":0},{"countryId":"2017370","adminCode1":"71","countryName":"Russia","fclName":"city, village,...","countryCode":"RU","lng":"59.9543","fcodeName":"populated place","toponymName":"Staryy Perevoz","fcl":"P","name":"Staryy Perevoz","fcode":"PPL","geonameId":487927,"lat":"59.388","adminName1":"Sverdlovsk","population":0},{"countryId":"2017370","adminCode1":"08","countryName":"Russia","fclName":"city, village,...","countryCode":"RU","lng":"56.2821","fcodeName":"populated place","toponymName":"Staryy Mutabash","fcl":"P","name":"Staryy Mutebash","fcode":"PPL","geonameId":487932,"lat":"56.22243","adminName1":"Bashkortostan","population":0},{"countryId":"2017370","adminCode1":"81","countryName":"Russia","fclName":"city, village,...","countryCode":"RU","lng":"47.41323","fcodeName":"populated place","toponymName":"Staryy Mostyak","fcl":"P","name":"Staryy Mostyak","fcode":"PPL","geonameId":487933,"lat":"52.69856","adminName1":"Ulyanovsk","population":0},{"countryId":"2017370","adminCode1":"90","countryName":"Russia","fclName":"city, village,...","countryCode":"RU","lng":"54.26733","fcodeName":"populated place","toponymName":"Staryy Lyp","fcl":"P","name":"Staryy Lyp","fcode":"PPL","geonameId":487941,"lat":"57.37816","adminName1":"Perm","population":0},{"countryId":"2017370","adminCode1":"80","countryName":"Russia","fclName":"city, village,...","countryCode":"RU","lng":"53.7207","fcodeName":"populated place","toponymName":"Staryy Kych","fcl":"P","name":"Staryy Kych","fcode":"PPL","geonameId":487945,"lat":"57.5339","adminName1":"Udmurtiya","population":0},{"countryId":"2017370","adminCode1":"08","countryName":"Russia","fclName":"city, village,...","countryCode":"RU","lng":"55.4899","fcodeName":"populated place","toponymName":"Staryy Kurdym","fcl":"P","name":"Staryy Kurdym","fcode":"PPL","geonameId":487951,"lat":"56.254","adminName1":"Bashkortostan","population":0},{"countryId":"2017370","adminCode1":"57","countryName":"Russia","fclName":"city, village,...","countryCode":"RU","lng":"46.19278","fcodeName":"populated place","toponymName":"Staryy Kryazhim","fcl":"P","name":"Staryy Kryazhim","fcode":"PPL","geonameId":487956,"lat":"53.07421","adminName1":"Penza","population":0},{"countryId":"2017370","adminCode1":"57","countryName":"Russia","fclName":"city, village,...","countryCode":"RU","lng":"45.8189","fcodeName":"populated place","toponymName":"Staryy Karlygan","fcl":"P","name":"Staryy Karlygan","fcode":"PPL","geonameId":487974,"lat":"52.4696","adminName1":"Penza","population":0},{"countryId":"2017370","adminCode1":"33","countryName":"Russia","fclName":"city, village,...","countryCode":"RU","lng":"50.5603","fcodeName":"populated place","toponymName":"Staryy Iryuk","fcl":"P","name":"Staryy Iryuk","fcode":"PPL","geonameId":487983,"lat":"56.5585","adminName1":"Kirov","population":0},{"countryId":"2017370","adminCode1":"16","countryName":"Russia","fclName":"city, village,...","countryCode":"RU","lng":"47.99203","fcodeName":"populated place","toponymName":"Staryye Urmary","fcl":"P","name":"Staryye Urmary","fcode":"PPL","geonameId":488011,"lat":"55.68421","adminName1":"Chuvashia","population":0},{"countryId":"2017370","adminCode1":"46","countryName":"Russia","fclName":"city, village,...","countryCode":"RU","lng":"45.48107","fcodeName":"populated place","toponymName":"Staryye Turdaki","fcl":"P","name":"Staryye Turdaki","fcode":"PPL","geonameId":488018,"lat":"53.91563","adminName1":"Mordoviya","population":0},{"countryId":"2017370","adminCode1":"57","countryName":"Russia","fclName":"city, village,...","countryCode":"RU","lng":"45.69737","fcodeName":"populated place","toponymName":"Staryye Turdaki","fcl":"P","name":"Staryye Turdaki","fcode":"PPL","geonameId":488019,"lat":"53.02941","adminName1":"Penza","population":0},{"countryId":"2017370","adminCode1":"81","countryName":"Russia","fclName":"city, village,...","countryCode":"RU","lng":"47.4595","fcodeName":"populated place","toponymName":"Staryye Maklaushi","fcl":"P","name":"Staryye Maklaushi","fcode":"PPL","geonameId":488062,"lat":"54.4556","adminName1":"Ulyanovsk","population":0},{"countryId":"2017370","adminCode1":"08","countryName":"Russia","fclName":"city, village,...","countryCode":"RU","lng":"56.22428","fcodeName":"populated place","toponymName":"Staryye Kazanchi","fcl":"P","name":"Staryye Kazanchi","fcode":"PPL","geonameId":488080,"lat":"56.20565","adminName1":"Bashkortostan","population":0},{"countryId":"2017370","adminCode1":"16","countryName":"Russia","fclName":"city, village,...","countryCode":"RU","lng":"47.20327","fcodeName":"populated place","toponymName":"Staryye Chukaly","fcl":"P","name":"Staryye Chukaly","fcode":"PPL","geonameId":488105,"lat":"54.7128","adminName1":"Chuvashia","population":0},{"countryId":"2017370","adminCode1":"73","countryName":"Russia","fclName":"city, village,...","countryCode":"RU","lng":"47.5409","fcodeName":"populated place","toponymName":"Staryye Chukaly","fcl":"P","name":"Staryye Chukaly","fcode":"PPL","geonameId":488106,"lat":"54.6488","adminName1":"Tatarstan","population":0},{"countryId":"2017370","adminCode1":"81","countryName":"Russia","fclName":"city, village,...","countryCode":"RU","lng":"47.7367","fcodeName":"populated place","toponymName":"Staryye Algashi","fcl":"P","name":"Staryye Algashi","fcode":"PPL","geonameId":488130,"lat":"54.6577","adminName1":"Ulyanovsk","population":0},{"countryId":"2017370","adminCode1":"83","countryName":"Russia","fclName":"city, village,...","countryCode":"RU","lng":"40.18315","fcodeName":"populated place","toponymName":"Staryy Dvor","fcl":"P","name":"Staryy Dvor","fcode":"PPL","geonameId":488133,"lat":"56.28563","adminName1":"Vladimir","population":0},{"countryId":"2017370","adminCode1":"34","countryName":"Russia","fclName":"city, village,...","countryCode":"RU","lng":"50.17686","fcodeName":"populated place","toponymName":"Staryy Chukhlem","fcl":"P","name":"Staryy Chukhlem","fcode":"PPL","geonameId":488140,"lat":"61.23758","adminName1":"Komi Republic","population":0},{"countryId":"2017370","adminCode1":"57","countryName":"Russia","fclName":"city, village,...","countryCode":"RU","lng":"46.36169","fcodeName":"populated place","toponymName":"Staryy Chirchim","fcl":"P","name":"Staryy Chirchim","fcode":"PPL","geonameId":488141,"lat":"52.76747","adminName1":"Penza","population":0},{"countryId":"2017370","adminCode1":"90","countryName":"Russia","fclName":"city, village,...","countryCode":"RU","lng":"55.4279","fcodeName":"populated place","toponymName":"Staryy Chad","fcl":"P","name":"Staryy Chad","fcode":"PPL","geonameId":488143,"lat":"56.9269","adminName1":"Perm","population":0},{"countryId":"2017370","adminCode1":"80","countryName":"Russia","fclName":"city, village,...","countryCode":"RU","lng":"52.44066","fcodeName":"populated place","toponymName":"Staryy Bereznyak","fcl":"P","name":"Staryy Bereznyak","fcode":"PPL","geonameId":488159,"lat":"56.33239","adminName1":"Udmurtiya","population":0},{"countryId":"2017370","adminCode1":"81","countryName":"Russia","fclName":"city, village,...","countryCode":"RU","lng":"47.30758","fcodeName":"populated place","toponymName":"Staryy Atlash","fcl":"P","name":"Staryy Atlash","fcode":"PPL","geonameId":488165,"lat":"52.78719","adminName1":"Ulyanovsk","population":0},{"countryId":"2017370","adminCode1":"73","countryName":"Russia","fclName":"city, village,...","countryCode":"RU","lng":"49.66425","fcodeName":"populated place","toponymName":"Staryy Ashit","fcl":"P","name":"Staryy Ashit","fcode":"PPL","geonameId":488166,"lat":"56.34685","adminName1":"Tatarstan","population":0},{"countryId":"2017370","adminCode1":"65","countryName":"Russia","fclName":"city, village,...","countryCode":"RU","lng":"51.96943","fcodeName":"populated place","toponymName":"Staryy Amanak","fcl":"P","name":"Staryy Amanak","fcode":"PPL","geonameId":488169,"lat":"53.70596","adminName1":"Samara","population":0},{"countryId":"2017370","adminCode1":"57","countryName":"Russia","fclName":"city, village,...","countryCode":"RU","lng":"45.238","fcodeName":"populated place","toponymName":"Staroye Zakharkino","fcl":"P","name":"Staroye Zakharkino","fcode":"PPL","geonameId":488223,"lat":"52.90111","adminName1":"Penza","population":0},{"countryId":"2017370","adminCode1":"46","countryName":"Russia","fclName":"city, village,...","countryCode":"RU","lng":"44.53154","fcodeName":"populated place","toponymName":"Staraya Terizmorga","fcl":"P","name":"Staroye Terizmorgo","fcode":"PPL","geonameId":488269,"lat":"54.26032","adminName1":"Mordoviya","population":0},{"countryId":"2017370","adminCode1":"85","countryName":"Russia","fclName":"city, village,...","countryCode":"RU","lng":"36.1793","fcodeName":"populated place","toponymName":"Staroye Kvasovo","fcl":"P","name":"Staroye Kvasovo","fcode":"PPL","geonameId":488396,"lat":"58.7711","adminName1":"Vologda","population":0},{"countryId":"2017370","adminCode1":"77","countryName":"Russia","fclName":"city, village,...","countryCode":"RU","lng":"35.15925","fcodeName":"populated place","toponymName":"Staroye Kurovo","fcl":"P","name":"Staroye Kurovo","fcode":"PPL","geonameId":488399,"lat":"57.63684","adminName1":"Tverskaya","population":0},{"countryId":"2017370","adminCode1":"46","countryName":"Russia","fclName":"city, village,...","countryCode":"RU","lng":"43.95111","fcodeName":"populated place","toponymName":"Staroye Drakino","fcl":"P","name":"Staroye Drakino","fcode":"PPL","geonameId":488467,"lat":"53.895","adminName1":"Mordoviya","population":0},{"countryId":"2017370","adminCode1":"73","countryName":"Russia","fclName":"city, village,...","countryCode":"RU","lng":"49.72911","fcodeName":"populated place","toponymName":"Staroye Churilino","fcl":"P","name":"Staroye Churilino","fcode":"PPL","geonameId":488472,"lat":"56.02702","adminName1":"Tatarstan","population":0},{"countryId":"2017370","adminCode1":"81","countryName":"Russia","fclName":"city, village,...","countryCode":"RU","lng":"46.96996","fcodeName":"populated place","toponymName":"Staroye Chirkovo","fcl":"P","name":"Staroye Chirkovo","fcode":"PPL","geonameId":488474,"lat":"52.89686","adminName1":"Ulyanovsk","population":0},{"countryId":"2017370","adminCode1":"46","countryName":"Russia","fclName":"city, village,...","countryCode":"RU","lng":"42.69783","fcodeName":"populated place","toponymName":"Staroye Badikovo","fcl":"P","name":"Staroye Badikovo","fcode":"PPL","geonameId":488504,"lat":"53.84005","adminName1":"Mordoviya","population":0},{"countryId":"2017370","adminCode1":"08","countryName":"Russia","fclName":"city, village,...","countryCode":"RU","lng":"55.2872","fcodeName":"populated place","toponymName":"Staryy Varyash","fcl":"P","name":"Starovaryash","fcode":"PPL","geonameId":488592,"lat":"56.0856","adminName1":"Bashkortostan","population":0},{"countryId":"2017370","adminCode1":"08","countryName":"Russia","fclName":"city, village,...","countryCode":"RU","lng":"55.83333","fcodeName":"populated place","toponymName":"Staraya Uralka","fcl":"P","name":"Starouralka","fcode":"PPL","geonameId":488597,"lat":"52.73333","adminName1":"Bashkortostan","population":0},{"countryId":"2017370","adminCode1":"72","countryName":"Russia","fclName":"city, village,...","countryCode":"RU","lng":"40.3268","fcodeName":"populated place","toponymName":"Staroye Tarbeyevo","fcl":"P","name":"Starotarbeyevo","fcode":"PPL","geonameId":488614,"lat":"52.8541","adminName1":"Tambov","population":0},{"countryId":"2017370","adminCode1":"46","countryName":"Russia","fclName":"city, village,...","countryCode":"RU","lng":"44.47282","fcodeName":"populated place","toponymName":"Staroye Shaygovo","fcl":"P","name":"Staroshaygovo","fcode":"PPL","geonameId":488638,"lat":"54.30763","adminName1":"Mordoviya","population":0},{"countryId":"2017370","adminCode1":"08","countryName":"Russia","fclName":"city, village,...","countryCode":"RU","lng":"54.75","fcodeName":"populated place","toponymName":"Staryye Sanny","fcl":"P","name":"Starosanny","fcode":"PPL","geonameId":488677,"lat":"54.66667","adminName1":"Bashkortostan","population":0},{"countryId":"2017370","adminCode1":"08","countryName":"Russia","fclName":"city, village,...","countryCode":"RU","lng":"54.24031","fcodeName":"populated place","toponymName":"Staraya Mushta","fcl":"P","name":"Staraya Mushta","fcode":"PPL","geonameId":488736,"lat":"55.80256","adminName1":"Bashkortostan","population":0},{"countryId":"2017370","adminCode1":"72","countryName":"Russia","fclName":"city, village,...","countryCode":"RU","lng":"40.5276","fcodeName":"populated place","toponymName":"Staroye Khmelevoye","fcl":"P","name":"Staro-Khmelevoye","fcode":"PPL","geonameId":488798,"lat":"52.7964","adminName1":"Tambov","population":0},{"countryId":"2017370","adminCode1":"08","countryName":"Russia","fclName":"city, village,...","countryCode":"RU","lng":"55.39366","fcodeName":"populated place","toponymName":"Staryy Kalkash","fcl":"P","name":"Starokalkash","fcode":"PPL","geonameId":488813,"lat":"53.48395","adminName1":"Bashkortostan","population":0},{"countryId":"2017370","adminCode1":"08","countryName":"Russia","fclName":"city, village,...","countryCode":"RU","lng":"56.88593","fcodeName":"populated place","toponymName":"Staryye Bagazy","fcl":"P","name":"Staryye Bagazy","fcode":"PPL","geonameId":488885,"lat":"55.88415","adminName1":"Bashkortostan","population":0},{"countryId":"2017370","adminCode1":"08","countryName":"Russia","fclName":"city, village,...","countryCode":"RU","lng":"56.74173","fcodeName":"populated place","toponymName":"Staryy Akbulyak","fcl":"P","name":"Staryy Akbulyak","fcode":"PPL","geonameId":488904,"lat":"55.89249","adminName1":"Bashkortostan","population":0},{"countryId":"2017370","adminCode1":"67","countryName":"Russia","fclName":"city, village,...","countryCode":"RU","lng":"46.5185","fcodeName":"populated place","toponymName":"Staraya Zhukovka","fcl":"P","name":"Staraya Zhukovka","fcode":"PPL","geonameId":488999,"lat":"52.20002","adminName1":"Saratov","population":0},{"countryId":"2017370","adminCode1":"33","countryName":"Russia","fclName":"city, village,...","countryCode":"RU","lng":"50.50565","fcodeName":"populated place","toponymName":"Staraya Tushka","fcl":"P","name":"Staraya Tushka","fcode":"PPL","geonameId":489033,"lat":"56.74419","adminName1":"Kirov","population":0},{"countryId":"2017370","adminCode1":"57","countryName":"Russia","fclName":"city, village,...","countryCode":"RU","lng":"43.46955","fcodeName":"populated place","toponymName":"Staraya Tolkovka","fcl":"P","name":"Staraya Tolkovka","fcode":"PPL","geonameId":489046,"lat":"53.43887","adminName1":"Penza","population":0},{"countryId":"2017370","adminCode1":"51","countryName":"Russia","fclName":"city, village,...","countryCode":"RU","lng":"46.48801","fcodeName":"populated place","toponymName":"Staraya Rudka","fcl":"P","name":"Staraya Rudka","fcode":"PPL","geonameId":489090,"lat":"56.96119","adminName1":"Nizjnij Novgorod","population":0},{"countryId":"2017370","adminCode1":"67","countryName":"Russia","fclName":"city, village,...","countryCode":"RU","lng":"49.1863","fcodeName":"populated place","toponymName":"Staraya Porubezhka","fcl":"P","name":"Staraya Porubezhka","fcode":"PPL","geonameId":489101,"lat":"52.0589","adminName1":"Saratov","population":0},{"countryId":"2017370","adminCode1":"86","countryName":"Russia","fclName":"city, village,...","countryCode":"RU","lng":"41.1507","fcodeName":"populated place","toponymName":"Staraya Kriusha","fcl":"P","name":"Staraya Kriusha","fcode":"PPL","geonameId":489165,"lat":"50.1997","adminName1":"Voronezj","population":0},{"countryId":"2017370","adminCode1":"80","countryName":"Russia","fclName":"city, village,...","countryCode":"RU","lng":"51.40688","fcodeName":"populated place","toponymName":"Staraya Kazanka","fcl":"P","name":"Staraya Kazanka","fcode":"PPL","geonameId":489191,"lat":"56.61162","adminName1":"Udmurtiya","population":0},{"countryId":"2017370","adminCode1":"86","countryName":"Russia","fclName":"city, village,...","countryCode":"RU","lng":"39.98449","fcodeName":"populated place","toponymName":"Staraya Kalitva","fcl":"P","name":"Staraya Kalitva","fcode":"PPL","geonameId":489202,"lat":"50.13853","adminName1":"Voronezj","population":0},{"countryId":"2017370","adminCode1":"80","countryName":"Russia","fclName":"city, village,...","countryCode":"RU","lng":"51.97565","fcodeName":"populated place","toponymName":"Staraya Chuncha","fcl":"P","name":"Staraya Chuncha","fcode":"PPL","geonameId":489229,"lat":"56.98613","adminName1":"Udmurtiya","population":0},{"countryId":"2017370","adminCode1":"46","countryName":"Russia","fclName":"city, village,...","countryCode":"RU","lng":"44.2139","fcodeName":"populated place","toponymName":"Staraya Avgura","fcl":"P","name":"Staraya Avgura","fcode":"PPL","geonameId":489256,"lat":"54.29514","adminName1":"Mordoviya","population":0},{"countryId":"2017370","adminCode1":"93","countryName":"Russia","fclName":"city, village,...","countryCode":"RU","lng":"115.55","fcodeName":"populated place","toponymName":"Staryy Chindant","fcl":"P","name":"Staryy Chindant","fcode":"PPL","geonameId":2016054,"lat":"50.55","adminName1":"Zabaykalsky","population":0},{"countryId":"2017370","adminCode1":"93","countryName":"Russia","fclName":"city, village,...","countryCode":"RU","lng":"108.1802","fcodeName":"populated place","toponymName":"Staraya Zardama","fcl":"P","name":"Staraya Zardama","fcode":"PPL","geonameId":2016081,"lat":"50.7547","adminName1":"Zabaykalsky","population":0},{"countryId":"2017370","adminCode1":"29","countryName":"Russia","fclName":"city, village,...","countryCode":"RU","lng":"88.57028","fcodeName":"populated place","toponymName":"Staryy Tyazhin","fcl":"P","name":"Staryy Tyazhin","fcode":"PPL","geonameId":1490911,"lat":"56.13746","adminName1":"Kemerovo","population":0},{"countryId":"2017370","adminCode1":"78","countryName":"Russia","fclName":"city, village,...","countryCode":"RU","lng":"66.22834","fcodeName":"populated place","toponymName":"Staryy Kavdyk","fcl":"P","name":"Staryy Kavdyk","fcode":"PPL","geonameId":1490923,"lat":"56.76968","adminName1":"Tjumen","population":0},{"countryId":"2017370","adminCode1":"32","countryName":"Russia","fclName":"city, village,...","countryCode":"RU","lng":"66.8","fcodeName":"populated place","toponymName":"Staryy Katysh","fcl":"P","name":"Staryy Katysh","fcode":"PPL","geonameId":1490924,"lat":"59.45","adminName1":"Khanty-Mansiyskiy Avtonomnyy Okrug","population":0},{"countryId":"2017370","adminCode1":"04","countryName":"Russia","fclName":"city, village,...","countryCode":"RU","lng":"86.3905","fcodeName":"populated place","toponymName":"Staraya Azhinka","fcl":"P","name":"Staraya Azhinka","fcode":"PPL","geonameId":1491049,"lat":"52.6388","adminName1":"Altai Krai","population":0},{"countryId":"1522867","adminCode1":"00","countryName":"Kazakhstan","fclName":"city, village,...","countryCode":"KZ","lng":"72.51888","fcodeName":"populated place","toponymName":"Staryy Koytas","fcl":"P","name":"Staryy Koytas","fcode":"PPL","geonameId":1533571,"lat":"52.89801","adminName1":"","population":0},{"countryId":"2017370","adminCode1":"73","countryName":"Russia","fclName":"city, village,...","countryCode":"RU","lng":"50.3253","fcodeName":"populated place","toponymName":"Staraya Salaus’","fcl":"P","name":"Staraya Salaus'","fcode":"PPL","geonameId":499295,"lat":"56.3656","adminName1":"Tatarstan","population":0},{"countryId":"2017370","adminCode1":"11","countryName":"Russia","fclName":"city, village,...","countryCode":"RU","lng":"108.12902","fcodeName":"populated place","toponymName":"Staraya Bryan’","fcl":"P","name":"Staraya Bryan'","fcode":"PPL","geonameId":2016088,"lat":"51.58082","adminName1":"Respublika Buryatiya","population":0},{"countryId":"2017370","adminCode1":"20","countryName":"Russia","fclName":"city, village,...","countryCode":"RU","lng":"98.0643","fcodeName":"populated place","toponymName":"Staryy Akul’shet","fcl":"P","name":"Staryy Akul'shet","fcode":"PPL","geonameId":1490934,"lat":"56.0138","adminName1":"Irkutsk","population":0},{"countryId":"2017370","adminCode1":"08","countryName":"Russia","fclName":"city, village,...","countryCode":"RU","lng":"54.7251","fcodeName":"populated place","toponymName":"Staryy Or’yebash","fcl":"P","name":"Staryy Or'yebash","fcode":"PPL","geonameId":487930,"lat":"56.0895","adminName1":"Bashkortostan","population":0},{"countryId":"2017370","adminCode1":"08","countryName":"Russia","fclName":"city, village,...","countryCode":"RU","lng":"54.78333","fcodeName":"populated place","toponymName":"Staraya Vasil’yevka","fcl":"P","name":"Starovasil'yevka","fcode":"PPL","geonameId":488590,"lat":"53.88333","adminName1":"Bashkortostan","population":0},{"countryId":"2017370","adminCode1":"21","countryName":"Russia","fclName":"city, village,...","countryCode":"RU","lng":"41.85456","fcodeName":"populated place","toponymName":"Staraya Gol’chikha","fcl":"P","name":"Staraya Gol'chikha","fcode":"PPL","geonameId":489217,"lat":"57.19812","adminName1":"Ivanovo","population":0},{"countryId":"2017370","adminCode1":"42","countryName":"Russia","fclName":"city, village,...","countryCode":"RU","lng":"32.29413","fcodeName":"populated place","toponymName":"Staraya Ladoga","fcl":"P","name":"Staraya Ladoga","fcode":"PPL","geonameId":489158,"lat":"59.99872","adminName1":"Leningrad","population":2000}]}