{"totalResultsCount":185,"geonames":[{"countryId":"2017370","adminCode1":"10","countryName":"Russia","fclName":"city, village,...","countryCode":"RU","lng":"34.15183","fcodeName":"populated place","toponymName":"Star’","fcl":"P","name":"Star'","fcode":"PPL","geonameId":489271,"lat":"53.62362","adminName1":"Brjansk","population":4994},{"countryId":"2017370","adminCode1":"52","countryName":"Russia","fclName":"city, village,...","countryCode":"RU","lng":"32.1938","fcodeName":"populated place","toponymName":"Star’","fcl":"P","name":"Star’","fcode":"PPL","geonameId":7094965,"lat":"57.3263","adminName1":"Novgorod","population":0},{"countryId":"630336","adminCode1":"07","countryName":"Belarus","fclName":"city, village,...","countryCode":"BY","lng":"30.2323","fcodeName":"populated place","toponymName":"Star’","fcl":"P","name":"Star’","fcode":"PPL","geonameId":813175,"lat":"54.5603","adminName1":"Vitebsk","population":0},{"countryId":"630336","adminCode1":"07","countryName":"Belarus","fclName":"city, village,...","countryCode":"BY","lng":"29.4266","fcodeName":"populated place","toponymName":"Star’","fcl":"P","name":"Star’","fcode":"PPL","geonameId":621540,"lat":"54.9054","adminName1":"Vitebsk","population":0},{"countryId":"630336","adminCode1":"07","countryName":"Belarus","fclName":"city, village,...","countryCode":"BY","lng":"30.6249","fcodeName":"populated place","toponymName":"Star’","fcl":"P","name":"Star’","fcode":"PPL","geonameId":8280278,"lat":"54.9446","adminName1":"Vitebsk","population":0},{"countryId":"732800","adminCode1":"44","countryName":"Bulgaria","fclName":"city, village,...","countryCode":"BG","lng":"25.21667","fcodeName":"populated place","toponymName":"Star Chitak","fcl":"P","name":"Star Chitak","fcode":"PPL","geonameId":726843,"lat":"41.66667","adminName1":"Kŭrdzhali","population":0},{"countryId":"2017370","adminCode1":"72","countryName":"Russia","fclName":"city, village,...","countryCode":"RU","lng":"41.49454","fcodeName":"populated place","toponymName":"Starogryaznoye","fcl":"P","name":"Starogryaznoye","fcode":"PPL","geonameId":488828,"lat":"53.25113","adminName1":"Tambov","population":0},{"countryId":"2017370","adminCode1":"04","countryName":"Russia","fclName":"city, village,...","countryCode":"RU","lng":"85.18175","fcodeName":"populated place","toponymName":"Staraya Chemrovka","fcl":"P","name":"Staraya Chemrovka","fcode":"PPL","geonameId":1491043,"lat":"52.66018","adminName1":"Altai Krai","population":0},{"countryId":"2017370","adminCode1":"78","countryName":"Russia","fclName":"city, village,...","countryCode":"RU","lng":"66.84142","fcodeName":"populated place","toponymName":"Starozaimka","fcl":"P","name":"Starozaimka","fcode":"PPL","geonameId":1490937,"lat":"56.51926","adminName1":"Tjumen","population":0},{"countryId":"690791","adminCode1":"07","countryName":"Ukraine","fclName":"city, village,...","countryCode":"UA","lng":"36.78852","fcodeName":"populated place","toponymName":"Staryy Saltiv","fcl":"P","name":"Staryy Saltiv","fcode":"PPL","geonameId":692703,"lat":"50.07619","adminName1":"Kharkiv","population":3776},{"countryId":"2017370","adminCode1":"85","countryName":"Russia","fclName":"city, village,...","countryCode":"RU","lng":"46.18286","fcodeName":"populated place","toponymName":"Staryy Pochinok","fcl":"P","name":"Staryy Pochinok","fcode":"PPL","geonameId":487924,"lat":"60.31166","adminName1":"Vologda","population":0},{"countryId":"2017370","adminCode1":"08","countryName":"Russia","fclName":"city, village,...","countryCode":"RU","lng":"55.76083","fcodeName":"populated place","toponymName":"Staryye Kamyshly","fcl":"P","name":"Staryye Kamyshly","fcode":"PPL","geonameId":488087,"lat":"54.94806","adminName1":"Bashkortostan","population":0},{"countryId":"2017370","adminCode1":"41","countryName":"Russia","fclName":"city, village,...","countryCode":"RU","lng":"37.9557","fcodeName":"populated place","toponymName":"Staroye Rogovoye","fcl":"P","name":"Staroye Rogovoye","fcode":"PPL","geonameId":488335,"lat":"51.4476","adminName1":"Kursk","population":0},{"countryId":"2017370","adminCode1":"45","countryName":"Russia","fclName":"city, village,...","countryCode":"RU","lng":"49.10667","fcodeName":"populated place","toponymName":"Staroye Mazikovo","fcl":"P","name":"Staroye Mazikovo","fcode":"PPL","geonameId":488386,"lat":"56.39889","adminName1":"Mariy-El","population":0},{"countryId":"2017370","adminCode1":"56","countryName":"Russia","fclName":"city, village,...","countryCode":"RU","lng":"36.16758","fcodeName":"populated place","toponymName":"Staroye Gorokhovo","fcl":"P","name":"Staroye Gorokhovo","fcode":"PPL","geonameId":488450,"lat":"52.55016","adminName1":"Orjol","population":0},{"countryId":"2017370","adminCode1":"51","countryName":"Russia","fclName":"city, village,...","countryCode":"RU","lng":"45.26119","fcodeName":"populated place","toponymName":"Staroye Almatovo","fcl":"P","name":"Staroye Almatovo","fcode":"PPL","geonameId":488520,"lat":"55.12886","adminName1":"Nizjnij Novgorod","population":0},{"countryId":"2017370","adminCode1":"08","countryName":"Russia","fclName":"city, village,...","countryCode":"RU","lng":"55.26667","fcodeName":"populated place","toponymName":"Staryye Tukmakly","fcl":"P","name":"Starotukmakly","fcode":"PPL","geonameId":488602,"lat":"54.93333","adminName1":"Bashkortostan","population":0},{"countryId":"2017370","adminCode1":"65","countryName":"Russia","fclName":"city, village,...","countryCode":"RU","lng":"48.0221","fcodeName":"populated place","toponymName":"Staraya Racheyka","fcl":"P","name":"Staraya Racheyka","fcode":"PPL","geonameId":489096,"lat":"53.3781","adminName1":"Samara","population":0},{"countryId":"2017370","adminCode1":"84","countryName":"Russia","fclName":"city, village,...","countryCode":"RU","lng":"46.71151","fcodeName":"populated place","toponymName":"Staraya Ivantsovka","fcl":"P","name":"Staraya Ivantsovka","fcode":"PPL","geonameId":489205,"lat":"50.03876","adminName1":"Volgograd","population":0},{"countryId":"2017370","adminCode1":"86","countryName":"Russia","fclName":"city, village,...","countryCode":"RU","lng":"40.3842","fcodeName":"populated place","toponymName":"Staraya Chigla","fcl":"P","name":"Staraya Chigla","fcode":"PPL","geonameId":489232,"lat":"51.2866","adminName1":"Voronezj","population":0},{"countryId":"2017370","adminCode1":"71","countryName":"Russia","fclName":"city, village,...","countryCode":"RU","lng":"60.37472","fcodeName":"populated place","toponymName":"Staraya Sama","fcl":"P","name":"Staraya Sama","fcode":"PPL","geonameId":1493156,"lat":"60.20333","adminName1":"Sverdlovsk","population":0},{"countryId":"2017370","adminCode1":"53","countryName":"Russia","fclName":"city, village,...","countryCode":"RU","lng":"76.85986","fcodeName":"populated place","toponymName":"Staryy Mayzas","fcl":"P","name":"Staryy Mayzass","fcode":"PPL","geonameId":1490919,"lat":"56.59159","adminName1":"Novosibirsk","population":0},{"countryId":"2017370","adminCode1":"78","countryName":"Russia","fclName":"city, village,...","countryCode":"RU","lng":"65.8713","fcodeName":"populated place","toponymName":"Staraya Shadrina","fcl":"P","name":"Staroye Shadrino","fcode":"PPL","geonameId":1490939,"lat":"56.1624","adminName1":"Tjumen","population":0},{"countryId":"2017370","adminCode1":"11","countryName":"Russia","fclName":"city, village,...","countryCode":"RU","lng":"104.9156","fcodeName":"populated place","toponymName":"Staryy Ukyrchelon","fcl":"P","name":"Staryy Ukyrchelon","fcode":"PPL","geonameId":2014499,"lat":"50.5451","adminName1":"Respublika Buryatiya","population":0},{"countryId":"2017370","adminCode1":"93","countryName":"Russia","fclName":"city, village,...","countryCode":"RU","lng":"114.3","fcodeName":"populated place","toponymName":"Staryy Durulguy","fcl":"P","name":"Staryy Durulguy","fcode":"PPL","geonameId":2016051,"lat":"50.46667","adminName1":"Zabaykalsky","population":0},{"countryId":"2017370","adminCode1":"11","countryName":"Russia","fclName":"city, village,...","countryCode":"RU","lng":"108.51801","fcodeName":"populated place","toponymName":"Staraya Kurba","fcl":"P","name":"Staraya Kurba","fcode":"PPL","geonameId":2016085,"lat":"52.00616","adminName1":"Respublika Buryatiya","population":0},{"countryId":"2017370","adminCode1":"77","countryName":"Russia","fclName":"city, village,...","countryCode":"RU","lng":"37.05096","fcodeName":"populated place","toponymName":"Staroye Gvozdino","fcl":"P","name":"Staroye Gvozdino","fcode":"PPL","geonameId":488445,"lat":"57.93629","adminName1":"Tverskaya","population":0},{"countryId":"2017370","adminCode1":"08","countryName":"Russia","fclName":"city, village,...","countryCode":"RU","lng":"56.11892","fcodeName":"populated place","toponymName":"Staryye Turbasly","fcl":"P","name":"Staroturbasly","fcode":"PPL","geonameId":488599,"lat":"54.94453","adminName1":"Bashkortostan","population":0},{"countryId":"690791","adminCode1":"07","countryName":"Ukraine","fclName":"city, village,...","countryCode":"UA","lng":"35.75904","fcodeName":"populated place","toponymName":"Staryy Merchyk","fcl":"P","name":"Staryy Merchyk","fcode":"PPL","geonameId":692709,"lat":"49.98147","adminName1":"Kharkiv","population":1709},{"countryId":"2017370","adminCode1":"57","countryName":"Russia","fclName":"city, village,...","countryCode":"RU","lng":"45.775","fcodeName":"populated place","toponymName":"Staryy Vershaut","fcl":"P","name":"Staryy Vershaut","fcode":"PPL","geonameId":487866,"lat":"52.53139","adminName1":"Penza","population":0},{"countryId":"2017370","adminCode1":"80","countryName":"Russia","fclName":"city, village,...","countryCode":"RU","lng":"52.33944","fcodeName":"populated place","toponymName":"Staryy Utchan","fcl":"P","name":"Staryy Utchan","fcode":"PPL","geonameId":487870,"lat":"56.16434","adminName1":"Udmurtiya","population":0},{"countryId":"2017370","adminCode1":"45","countryName":"Russia","fclName":"city, village,...","countryCode":"RU","lng":"48.78917","fcodeName":"populated place","toponymName":"Staryy Tor”yal","fcl":"P","name":"Staryy Tor”yal","fcode":"PPL","geonameId":487880,"lat":"56.96194","adminName1":"Mariy-El","population":0},{"countryId":"2017370","adminCode1":"73","countryName":"Russia","fclName":"city, village,...","countryCode":"RU","lng":"48.26127","fcodeName":"populated place","toponymName":"Staryy Studenets","fcl":"P","name":"Staryy Studenets","fcode":"PPL","geonameId":487889,"lat":"54.88232","adminName1":"Tatarstan","population":0},{"countryId":"2017370","adminCode1":"90","countryName":"Russia","fclName":"city, village,...","countryCode":"RU","lng":"55.20033","fcodeName":"populated place","toponymName":"Staryy Shagirt","fcl":"P","name":"Staryy Shagirt","fcode":"PPL","geonameId":487901,"lat":"56.45223","adminName1":"Perm","population":0},{"countryId":"2017370","adminCode1":"81","countryName":"Russia","fclName":"city, village,...","countryCode":"RU","lng":"47.06011","fcodeName":"populated place","toponymName":"Staryy Picheur","fcl":"P","name":"Staryy Picheur","fcode":"PPL","geonameId":487925,"lat":"52.87202","adminName1":"Ulyanovsk","population":0},{"countryId":"2017370","adminCode1":"71","countryName":"Russia","fclName":"city, village,...","countryCode":"RU","lng":"59.9543","fcodeName":"populated place","toponymName":"Staryy Perevoz","fcl":"P","name":"Staryy Perevoz","fcode":"PPL","geonameId":487927,"lat":"59.388","adminName1":"Sverdlovsk","population":0},{"countryId":"2017370","adminCode1":"08","countryName":"Russia","fclName":"city, village,...","countryCode":"RU","lng":"56.2821","fcodeName":"populated place","toponymName":"Staryy Mutabash","fcl":"P","name":"Staryy Mutebash","fcode":"PPL","geonameId":487932,"lat":"56.22243","adminName1":"Bashkortostan","population":0},{"countryId":"2017370","adminCode1":"80","countryName":"Russia","fclName":"city, village,...","countryCode":"RU","lng":"53.7207","fcodeName":"populated place","toponymName":"Staryy Kych","fcl":"P","name":"Staryy Kych","fcode":"PPL","geonameId":487945,"lat":"57.5339","adminName1":"Udmurtiya","population":0},{"countryId":"2017370","adminCode1":"86","countryName":"Russia","fclName":"city, village,...","countryCode":"RU","lng":"40.53472","fcodeName":"populated place","toponymName":"Staryy Kurlak","fcl":"P","name":"Staryy Kurlak","fcode":"PPL","geonameId":487950,"lat":"51.41444","adminName1":"Voronezj","population":0},{"countryId":"2017370","adminCode1":"57","countryName":"Russia","fclName":"city, village,...","countryCode":"RU","lng":"46.19278","fcodeName":"populated place","toponymName":"Staryy Kryazhim","fcl":"P","name":"Staryy Kryazhim","fcode":"PPL","geonameId":487956,"lat":"53.07421","adminName1":"Penza","population":0},{"countryId":"2017370","adminCode1":"57","countryName":"Russia","fclName":"city, village,...","countryCode":"RU","lng":"45.8189","fcodeName":"populated place","toponymName":"Staryy Karlygan","fcl":"P","name":"Staryy Karlygan","fcode":"PPL","geonameId":487974,"lat":"52.4696","adminName1":"Penza","population":0},{"countryId":"2017370","adminCode1":"33","countryName":"Russia","fclName":"city, village,...","countryCode":"RU","lng":"50.5603","fcodeName":"populated place","toponymName":"Staryy Iryuk","fcl":"P","name":"Staryy Iryuk","fcode":"PPL","geonameId":487983,"lat":"56.5585","adminName1":"Kirov","population":0},{"countryId":"2017370","adminCode1":"16","countryName":"Russia","fclName":"city, village,...","countryCode":"RU","lng":"47.99203","fcodeName":"populated place","toponymName":"Staryye Urmary","fcl":"P","name":"Staryye Urmary","fcode":"PPL","geonameId":488011,"lat":"55.68421","adminName1":"Chuvashia","population":0},{"countryId":"2017370","adminCode1":"81","countryName":"Russia","fclName":"city, village,...","countryCode":"RU","lng":"47.4595","fcodeName":"populated place","toponymName":"Staryye Maklaushi","fcl":"P","name":"Staryye Maklaushi","fcode":"PPL","geonameId":488062,"lat":"54.4556","adminName1":"Ulyanovsk","population":0},{"countryId":"2017370","adminCode1":"08","countryName":"Russia","fclName":"city, village,...","countryCode":"RU","lng":"56.22428","fcodeName":"populated place","toponymName":"Staryye Kazanchi","fcl":"P","name":"Staryye Kazanchi","fcode":"PPL","geonameId":488080,"lat":"56.20565","adminName1":"Bashkortostan","population":0},{"countryId":"2017370","adminCode1":"73","countryName":"Russia","fclName":"city, village,...","countryCode":"RU","lng":"47.52202","fcodeName":"populated place","toponymName":"Staryye Kakerli","fcl":"P","name":"Staryye Kakerli","fcode":"PPL","geonameId":488090,"lat":"54.83392","adminName1":"Tatarstan","population":0},{"countryId":"2017370","adminCode1":"16","countryName":"Russia","fclName":"city, village,...","countryCode":"RU","lng":"47.20327","fcodeName":"populated place","toponymName":"Staryye Chukaly","fcl":"P","name":"Staryye Chukaly","fcode":"PPL","geonameId":488105,"lat":"54.7128","adminName1":"Chuvashia","population":0},{"countryId":"2017370","adminCode1":"73","countryName":"Russia","fclName":"city, village,...","countryCode":"RU","lng":"47.5409","fcodeName":"populated place","toponymName":"Staryye Chukaly","fcl":"P","name":"Staryye Chukaly","fcode":"PPL","geonameId":488106,"lat":"54.6488","adminName1":"Tatarstan","population":0},{"countryId":"2017370","adminCode1":"71","countryName":"Russia","fclName":"city, village,...","countryCode":"RU","lng":"58.59196","fcodeName":"populated place","toponymName":"Staryye Arti","fcl":"P","name":"Staryye Arti","fcode":"PPL","geonameId":488129,"lat":"56.31935","adminName1":"Sverdlovsk","population":0},{"countryId":"2017370","adminCode1":"81","countryName":"Russia","fclName":"city, village,...","countryCode":"RU","lng":"47.7367","fcodeName":"populated place","toponymName":"Staryye Algashi","fcl":"P","name":"Staryye Algashi","fcode":"PPL","geonameId":488130,"lat":"54.6577","adminName1":"Ulyanovsk","population":0},{"countryId":"2017370","adminCode1":"34","countryName":"Russia","fclName":"city, village,...","countryCode":"RU","lng":"50.17686","fcodeName":"populated place","toponymName":"Staryy Chukhlem","fcl":"P","name":"Staryy Chukhlem","fcode":"PPL","geonameId":488140,"lat":"61.23758","adminName1":"Komi Republic","population":0},{"countryId":"2017370","adminCode1":"57","countryName":"Russia","fclName":"city, village,...","countryCode":"RU","lng":"46.36169","fcodeName":"populated place","toponymName":"Staryy Chirchim","fcl":"P","name":"Staryy Chirchim","fcode":"PPL","geonameId":488141,"lat":"52.76747","adminName1":"Penza","population":0},{"countryId":"2017370","adminCode1":"90","countryName":"Russia","fclName":"city, village,...","countryCode":"RU","lng":"55.4279","fcodeName":"populated place","toponymName":"Staryy Chad","fcl":"P","name":"Staryy Chad","fcode":"PPL","geonameId":488143,"lat":"56.9269","adminName1":"Perm","population":0},{"countryId":"2017370","adminCode1":"80","countryName":"Russia","fclName":"city, village,...","countryCode":"RU","lng":"52.44066","fcodeName":"populated place","toponymName":"Staryy Bereznyak","fcl":"P","name":"Staryy Bereznyak","fcode":"PPL","geonameId":488159,"lat":"56.33239","adminName1":"Udmurtiya","population":0},{"countryId":"2017370","adminCode1":"81","countryName":"Russia","fclName":"city, village,...","countryCode":"RU","lng":"47.30758","fcodeName":"populated place","toponymName":"Staryy Atlash","fcl":"P","name":"Staryy Atlash","fcode":"PPL","geonameId":488165,"lat":"52.78719","adminName1":"Ulyanovsk","population":0},{"countryId":"2017370","adminCode1":"73","countryName":"Russia","fclName":"city, village,...","countryCode":"RU","lng":"49.66425","fcodeName":"populated place","toponymName":"Staryy Ashit","fcl":"P","name":"Staryy Ashit","fcode":"PPL","geonameId":488166,"lat":"56.34685","adminName1":"Tatarstan","population":0},{"countryId":"2017370","adminCode1":"90","countryName":"Russia","fclName":"city, village,...","countryCode":"RU","lng":"55.2788","fcodeName":"populated place","toponymName":"Staraya Zalesnaya","fcl":"P","name":"Staraya Zalesnaya","fcode":"PPL","geonameId":488212,"lat":"57.2057","adminName1":"Perm","population":0},{"countryId":"2017370","adminCode1":"57","countryName":"Russia","fclName":"city, village,...","countryCode":"RU","lng":"45.238","fcodeName":"populated place","toponymName":"Staroye Zakharkino","fcl":"P","name":"Staroye Zakharkino","fcode":"PPL","geonameId":488223,"lat":"52.90111","adminName1":"Penza","population":0},{"countryId":"2017370","adminCode1":"77","countryName":"Russia","fclName":"city, village,...","countryCode":"RU","lng":"32.79501","fcodeName":"populated place","toponymName":"Staroye Selo","fcl":"P","name":"Staroye Selo","fcode":"PPL","geonameId":488312,"lat":"57.27105","adminName1":"Tverskaya","population":0},{"countryId":"2017370","adminCode1":"83","countryName":"Russia","fclName":"city, village,...","countryCode":"RU","lng":"40.90838","fcodeName":"populated place","toponymName":"Staroye Opokino","fcl":"P","name":"Staroye Opokino","fcode":"PPL","geonameId":488369,"lat":"55.73242","adminName1":"Vladimir","population":0},{"countryId":"2017370","adminCode1":"77","countryName":"Russia","fclName":"city, village,...","countryCode":"RU","lng":"35.15925","fcodeName":"populated place","toponymName":"Staroye Kurovo","fcl":"P","name":"Staroye Kurovo","fcode":"PPL","geonameId":488399,"lat":"57.63684","adminName1":"Tverskaya","population":0},{"countryId":"2017370","adminCode1":"73","countryName":"Russia","fclName":"city, village,...","countryCode":"RU","lng":"49.72911","fcodeName":"populated place","toponymName":"Staroye Churilino","fcl":"P","name":"Staroye Churilino","fcode":"PPL","geonameId":488472,"lat":"56.02702","adminName1":"Tatarstan","population":0},{"countryId":"2017370","adminCode1":"81","countryName":"Russia","fclName":"city, village,...","countryCode":"RU","lng":"46.96996","fcodeName":"populated place","toponymName":"Staroye Chirkovo","fcl":"P","name":"Staroye Chirkovo","fcode":"PPL","geonameId":488474,"lat":"52.89686","adminName1":"Ulyanovsk","population":0},{"countryId":"2017370","adminCode1":"52","countryName":"Russia","fclName":"city, village,...","countryCode":"RU","lng":"34.28562","fcodeName":"populated place","toponymName":"Staroye Bryzgovo","fcl":"P","name":"Staroye Bryzgovo","fcode":"PPL","geonameId":488483,"lat":"58.36085","adminName1":"Novgorod","population":0},{"countryId":"2017370","adminCode1":"46","countryName":"Russia","fclName":"city, village,...","countryCode":"RU","lng":"46.20975","fcodeName":"populated place","toponymName":"Staroye Ardatovo","fcl":"P","name":"Staroye Ardatovo","fcode":"PPL","geonameId":488512,"lat":"54.99661","adminName1":"Mordoviya","population":0},{"countryId":"2017370","adminCode1":"08","countryName":"Russia","fclName":"city, village,...","countryCode":"RU","lng":"55.2872","fcodeName":"populated place","toponymName":"Staryy Varyash","fcl":"P","name":"Starovaryash","fcode":"PPL","geonameId":488592,"lat":"56.0856","adminName1":"Bashkortostan","population":0},{"countryId":"2017370","adminCode1":"08","countryName":"Russia","fclName":"city, village,...","countryCode":"RU","lng":"55.83333","fcodeName":"populated place","toponymName":"Staraya Uralka","fcl":"P","name":"Starouralka","fcode":"PPL","geonameId":488597,"lat":"52.73333","adminName1":"Bashkortostan","population":0},{"countryId":"2017370","adminCode1":"72","countryName":"Russia","fclName":"city, village,...","countryCode":"RU","lng":"40.3268","fcodeName":"populated place","toponymName":"Staroye Tarbeyevo","fcl":"P","name":"Starotarbeyevo","fcode":"PPL","geonameId":488614,"lat":"52.8541","adminName1":"Tambov","population":0},{"countryId":"2017370","adminCode1":"46","countryName":"Russia","fclName":"city, village,...","countryCode":"RU","lng":"44.47282","fcodeName":"populated place","toponymName":"Staroye Shaygovo","fcl":"P","name":"Staroshaygovo","fcode":"PPL","geonameId":488638,"lat":"54.30763","adminName1":"Mordoviya","population":0},{"countryId":"2017370","adminCode1":"08","countryName":"Russia","fclName":"city, village,...","countryCode":"RU","lng":"54.24031","fcodeName":"populated place","toponymName":"Staraya Mushta","fcl":"P","name":"Staraya Mushta","fcode":"PPL","geonameId":488736,"lat":"55.80256","adminName1":"Bashkortostan","population":0},{"countryId":"2017370","adminCode1":"72","countryName":"Russia","fclName":"city, village,...","countryCode":"RU","lng":"40.5276","fcodeName":"populated place","toponymName":"Staroye Khmelevoye","fcl":"P","name":"Staro-Khmelevoye","fcode":"PPL","geonameId":488798,"lat":"52.7964","adminName1":"Tambov","population":0},{"countryId":"2017370","adminCode1":"08","countryName":"Russia","fclName":"city, village,...","countryCode":"RU","lng":"55.39366","fcodeName":"populated place","toponymName":"Staryy Kalkash","fcl":"P","name":"Starokalkash","fcode":"PPL","geonameId":488813,"lat":"53.48395","adminName1":"Bashkortostan","population":0},{"countryId":"2017370","adminCode1":"08","countryName":"Russia","fclName":"city, village,...","countryCode":"RU","lng":"56.74173","fcodeName":"populated place","toponymName":"Staryy Akbulyak","fcl":"P","name":"Staryy Akbulyak","fcode":"PPL","geonameId":488904,"lat":"55.89249","adminName1":"Bashkortostan","population":0},{"countryId":"2017370","adminCode1":"67","countryName":"Russia","fclName":"city, village,...","countryCode":"RU","lng":"46.5185","fcodeName":"populated place","toponymName":"Staraya Zhukovka","fcl":"P","name":"Staraya Zhukovka","fcode":"PPL","geonameId":488999,"lat":"52.20002","adminName1":"Saratov","population":0},{"countryId":"2017370","adminCode1":"33","countryName":"Russia","fclName":"city, village,...","countryCode":"RU","lng":"50.50565","fcodeName":"populated place","toponymName":"Staraya Tushka","fcl":"P","name":"Staraya Tushka","fcode":"PPL","geonameId":489033,"lat":"56.74419","adminName1":"Kirov","population":0},{"countryId":"2017370","adminCode1":"57","countryName":"Russia","fclName":"city, village,...","countryCode":"RU","lng":"43.46955","fcodeName":"populated place","toponymName":"Staraya Tolkovka","fcl":"P","name":"Staraya Tolkovka","fcode":"PPL","geonameId":489046,"lat":"53.43887","adminName1":"Penza","population":0},{"countryId":"2017370","adminCode1":"51","countryName":"Russia","fclName":"city, village,...","countryCode":"RU","lng":"46.48801","fcodeName":"populated place","toponymName":"Staraya Rudka","fcl":"P","name":"Staraya Rudka","fcode":"PPL","geonameId":489090,"lat":"56.96119","adminName1":"Nizjnij Novgorod","population":0},{"countryId":"2017370","adminCode1":"67","countryName":"Russia","fclName":"city, village,...","countryCode":"RU","lng":"49.1863","fcodeName":"populated place","toponymName":"Staraya Porubezhka","fcl":"P","name":"Staraya Porubezhka","fcode":"PPL","geonameId":489101,"lat":"52.0589","adminName1":"Saratov","population":0},{"countryId":"2017370","adminCode1":"08","countryName":"Russia","fclName":"city, village,...","countryCode":"RU","lng":"55.85","fcodeName":"populated place","toponymName":"Staraya Otrada","fcl":"P","name":"Staraya Otrada","fcode":"PPL","geonameId":489118,"lat":"52.58333","adminName1":"Bashkortostan","population":0},{"countryId":"2017370","adminCode1":"80","countryName":"Russia","fclName":"city, village,...","countryCode":"RU","lng":"51.24843","fcodeName":"populated place","toponymName":"Staraya Omga","fcl":"P","name":"Staraya Omga","fcode":"PPL","geonameId":489121,"lat":"56.57493","adminName1":"Udmurtiya","population":0},{"countryId":"2017370","adminCode1":"86","countryName":"Russia","fclName":"city, village,...","countryCode":"RU","lng":"41.1507","fcodeName":"populated place","toponymName":"Staraya Kriusha","fcl":"P","name":"Staraya Kriusha","fcode":"PPL","geonameId":489165,"lat":"50.1997","adminName1":"Voronezj","population":0},{"countryId":"2017370","adminCode1":"80","countryName":"Russia","fclName":"city, village,...","countryCode":"RU","lng":"51.97565","fcodeName":"populated place","toponymName":"Staraya Chuncha","fcl":"P","name":"Staraya Chuncha","fcode":"PPL","geonameId":489229,"lat":"56.98613","adminName1":"Udmurtiya","population":0},{"countryId":"2017370","adminCode1":"29","countryName":"Russia","fclName":"city, village,...","countryCode":"RU","lng":"88.57028","fcodeName":"populated place","toponymName":"Staryy Tyazhin","fcl":"P","name":"Staryy Tyazhin","fcode":"PPL","geonameId":1490911,"lat":"56.13746","adminName1":"Kemerovo","population":0},{"countryId":"2017370","adminCode1":"78","countryName":"Russia","fclName":"city, village,...","countryCode":"RU","lng":"66.22834","fcodeName":"populated place","toponymName":"Staryy Kavdyk","fcl":"P","name":"Staryy Kavdyk","fcode":"PPL","geonameId":1490923,"lat":"56.76968","adminName1":"Tjumen","population":0},{"countryId":"2017370","adminCode1":"32","countryName":"Russia","fclName":"city, village,...","countryCode":"RU","lng":"66.8","fcodeName":"populated place","toponymName":"Staryy Katysh","fcl":"P","name":"Staryy Katysh","fcode":"PPL","geonameId":1490924,"lat":"59.45","adminName1":"Khanty-Mansiyskiy Avtonomnyy Okrug","population":0},{"countryId":"2017370","adminCode1":"04","countryName":"Russia","fclName":"city, village,...","countryCode":"RU","lng":"85.4819","fcodeName":"populated place","toponymName":"Staraya Taraba","fcl":"P","name":"Starotaraba","fcode":"PPL","geonameId":1490949,"lat":"53.4017","adminName1":"Altai Krai","population":0},{"countryId":"2017370","adminCode1":"53","countryName":"Russia","fclName":"city, village,...","countryCode":"RU","lng":"78.90713","fcodeName":"populated place","toponymName":"Staryy Karapuz","fcl":"P","name":"Staryy Karapuz","fcode":"PPL","geonameId":1490988,"lat":"55.06943","adminName1":"Novosibirsk","population":0},{"countryId":"2017370","adminCode1":"75","countryName":"Russia","fclName":"city, village,...","countryCode":"RU","lng":"79.54813","fcodeName":"populated place","toponymName":"Staraya Berëzovka","fcl":"P","name":"Staraya Berëzovka","fcode":"PPL","geonameId":1491046,"lat":"58.98389","adminName1":"Tomsk","population":0},{"countryId":"2017370","adminCode1":"04","countryName":"Russia","fclName":"city, village,...","countryCode":"RU","lng":"86.3905","fcodeName":"populated place","toponymName":"Staraya Azhinka","fcl":"P","name":"Staraya Azhinka","fcode":"PPL","geonameId":1491049,"lat":"52.6388","adminName1":"Altai Krai","population":0},{"countryId":"2017370","adminCode1":"20","countryName":"Russia","fclName":"city, village,...","countryCode":"RU","lng":"105.78722","fcodeName":"populated place","toponymName":"Staryy Khogot","fcl":"P","name":"Staryy Khogot","fcode":"PPL","geonameId":2016047,"lat":"53.29167","adminName1":"Irkutsk","population":0},{"countryId":"2017370","adminCode1":"93","countryName":"Russia","fclName":"city, village,...","countryCode":"RU","lng":"115.55","fcodeName":"populated place","toponymName":"Staryy Chindant","fcl":"P","name":"Staryy Chindant","fcode":"PPL","geonameId":2016054,"lat":"50.55","adminName1":"Zabaykalsky","population":0},{"countryId":"2017370","adminCode1":"11","countryName":"Russia","fclName":"city, village,...","countryCode":"RU","lng":"107.46667","fcodeName":"populated place","toponymName":"Staroye Tataurovo","fcl":"P","name":"Staroye Tataurovo","fcode":"PPL","geonameId":2016059,"lat":"52.1","adminName1":"Respublika Buryatiya","population":0},{"countryId":"2017370","adminCode1":"80","countryName":"Russia","fclName":"city, village,...","countryCode":"RU","lng":"51.35465","fcodeName":"populated place","toponymName":"Staryy Kuzluk","fcl":"P","name":"Staryy Kuzluk","fcode":"PPL","geonameId":856833,"lat":"57.29873","adminName1":"Udmurtiya","population":0},{"countryId":"1522867","adminCode1":"00","countryName":"Kazakhstan","fclName":"city, village,...","countryCode":"KZ","lng":"72.51888","fcodeName":"populated place","toponymName":"Staryy Koytas","fcl":"P","name":"Staryy Koytas","fcode":"PPL","geonameId":1533571,"lat":"52.89801","adminName1":"","population":0},{"countryId":"2017370","adminCode1":"73","countryName":"Russia","fclName":"city, village,...","countryCode":"RU","lng":"50.3253","fcodeName":"populated place","toponymName":"Staraya Salaus’","fcl":"P","name":"Staraya Salaus'","fcode":"PPL","geonameId":499295,"lat":"56.3656","adminName1":"Tatarstan","population":0},{"countryId":"2017370","adminCode1":"20","countryName":"Russia","fclName":"city, village,...","countryCode":"RU","lng":"98.0643","fcodeName":"populated place","toponymName":"Staryy Akul’shet","fcl":"P","name":"Staryy Akul'shet","fcode":"PPL","geonameId":1490934,"lat":"56.0138","adminName1":"Irkutsk","population":0},{"countryId":"2017370","adminCode1":"11","countryName":"Russia","fclName":"city, village,...","countryCode":"RU","lng":"108.12902","fcodeName":"populated place","toponymName":"Staraya Bryan’","fcl":"P","name":"Staraya Bryan'","fcode":"PPL","geonameId":2016088,"lat":"51.58082","adminName1":"Respublika Buryatiya","population":0},{"countryId":"2017370","adminCode1":"08","countryName":"Russia","fclName":"city, village,...","countryCode":"RU","lng":"54.78333","fcodeName":"populated place","toponymName":"Staraya Vasil’yevka","fcl":"P","name":"Starovasil'yevka","fcode":"PPL","geonameId":488590,"lat":"53.88333","adminName1":"Bashkortostan","population":0},{"countryId":"2017370","adminCode1":"91","countryName":"Russia","fclName":"city, village,...","countryCode":"RU","lng":"91.33379","fcodeName":"populated place","toponymName":"Staraya Kozul’ka","fcl":"P","name":"Staraya Kozul'ka","fcode":"PPL","geonameId":1490983,"lat":"56.2071","adminName1":"Krasnoyarskiy","population":0},{"countryId":"2017370","adminCode1":"42","countryName":"Russia","fclName":"city, village,...","countryCode":"RU","lng":"32.29413","fcodeName":"populated place","toponymName":"Staraya Ladoga","fcl":"P","name":"Staraya Ladoga","fcode":"PPL","geonameId":489158,"lat":"59.99872","adminName1":"Leningrad","population":2000}]}