{"totalResultsCount":7,"geonames":[{"adminCode1":"65","lng":"52.0422","geonameId":468489,"toponymName":"Yazykovo","countryId":"2017370","fcl":"P","population":0,"countryCode":"RU","name":"Yazykovo","fclName":"city, village,...","countryName":"Russia","fcodeName":"populated place","adminName1":"Samara","lat":"53.2743","fcode":"PPL"},{"adminCode1":"81","lng":"47.3891","geonameId":468486,"toponymName":"Yazykovo","countryId":"2017370","fcl":"P","population":4918,"countryCode":"RU","name":"Yazykovo","fclName":"city, village,...","countryName":"Russia","fcodeName":"populated place","adminName1":"Ulyanovsk","lat":"54.2922","fcode":"PPL"},{"adminCode1":"81","lng":"47.2988","geonameId":7458251,"toponymName":"Yazykovo","countryId":"2017370","fcl":"P","population":0,"countryCode":"RU","name":"Yazykovo","fclName":"city, village,...","countryName":"Russia","fcodeName":"populated place","adminName1":"Ulyanovsk","lat":"53.3865","fcode":"PPL"},{"adminCode1":"51","lng":"46.29562","geonameId":468481,"toponymName":"Yazykovo","countryId":"2017370","fcl":"P","population":0,"countryCode":"RU","name":"Yazykovo","fclName":"city, village,...","countryName":"Russia","fcodeName":"populated place","adminName1":"Nizjnij Novgorod","lat":"55.41713","fcode":"PPL"},{"adminCode1":"46","lng":"44.953","geonameId":468485,"toponymName":"Yazykovo","countryId":"2017370","fcl":"P","population":0,"countryCode":"RU","name":"Yazykovo","fclName":"city, village,...","countryName":"Russia","fcodeName":"populated place","adminName1":"Mordoviya","lat":"54.46074","fcode":"PPL"},{"adminCode1":"81","lng":"48.4612","geonameId":468487,"toponymName":"Yazykovo","countryId":"2017370","fcl":"P","population":0,"countryCode":"RU","name":"Yazykovo","fclName":"city, village,...","countryName":"Russia","fcodeName":"populated place","adminName1":"Ulyanovsk","lat":"53.6757","fcode":"PPL"},{"adminCode1":"73","lng":"49.8824","geonameId":827937,"toponymName":"Yazykovo","countryId":"2017370","fcl":"P","population":0,"countryCode":"RU","name":"Yazykovo","fclName":"city, village,...","countryName":"Russia","fcodeName":"populated place","adminName1":"Tatarstan","lat":"55.0736","fcode":"PPL"}]}