{
   "results" : [
      {
         "address_components" : [
            {
               "long_name" : "Andreevka",
               "short_name" : "Andreevka",
               "types" : [ "locality", "political" ]
            },
            {
               "long_name" : "Solnechnogorsky District",
               "short_name" : "Solnechnogorsky District",
               "types" : [ "administrative_area_level_2", "political" ]
            },
            {
               "long_name" : "Moskovskaya oblast",
               "short_name" : "МО",
               "types" : [ "administrative_area_level_1", "political" ]
            },
            {
               "long_name" : "Russia",
               "short_name" : "RU",
               "types" : [ "country", "political" ]
            }
         ],
         "formatted_address" : "Andreevka, Moskovskaya oblast, Russia",
         "geometry" : {
            "bounds" : {
               "northeast" : {
                  "lat" : 55.9924559,
                  "lng" : 37.148447
               },
               "southwest" : {
                  "lat" : 55.972023,
                  "lng" : 37.1157737
               }
            },
            "location" : {
               "lat" : 55.979722,
               "lng" : 37.135278
            },
            "location_type" : "APPROXIMATE",
            "viewport" : {
               "northeast" : {
                  "lat" : 55.9924559,
                  "lng" : 37.148447
               },
               "southwest" : {
                  "lat" : 55.972023,
                  "lng" : 37.1157737
               }
            }
         },
         "types" : [ "locality", "political" ]
      },
      {
         "address_components" : [
            {
               "long_name" : "Andriivka",
               "short_name" : "Andriivka",
               "types" : [ "locality", "political" ]
            },
            {
               "long_name" : "Balakliis'kyi district",
               "short_name" : "Balakliis'kyi district",
               "types" : [ "administrative_area_level_2", "political" ]
            },
            {
               "long_name" : "Kharkiv Oblast",
               "short_name" : "Kharkiv Oblast",
               "types" : [ "administrative_area_level_1", "political" ]
            },
            {
               "long_name" : "Ukraine",
               "short_name" : "UA",
               "types" : [ "country", "political" ]
            }
         ],
         "formatted_address" : "Andriivka, Kharkiv Oblast, Ukraine",
         "geometry" : {
            "bounds" : {
               "northeast" : {
                  "lat" : 49.55980400000001,
                  "lng" : 36.664856
               },
               "southwest" : {
                  "lat" : 49.5099059,
                  "lng" : 36.5781601
               }
            },
            "location" : {
               "lat" : 49.5389796,
               "lng" : 36.6242619
            },
            "location_type" : "APPROXIMATE",
            "viewport" : {
               "northeast" : {
                  "lat" : 49.55980400000001,
                  "lng" : 36.664856
               },
               "southwest" : {
                  "lat" : 49.5099059,
                  "lng" : 36.5781601
               }
            }
         },
         "types" : [ "locality", "political" ]
      },
      {
         "address_components" : [
            {
               "long_name" : "Andriivka",
               "short_name" : "Andriivka",
               "types" : [ "locality", "political" ]
            },
            {
               "long_name" : "Berdyans'kyi district",
               "short_name" : "Berdyans'kyi district",
               "types" : [ "administrative_area_level_2", "political" ]
            },
            {
               "long_name" : "Zaporiz'ka oblast",
               "short_name" : "Zaporiz'ka oblast",
               "types" : [ "administrative_area_level_1", "political" ]
            },
            {
               "long_name" : "Ukraine",
               "short_name" : "UA",
               "types" : [ "country", "political" ]
            }
         ],
         "formatted_address" : "Andriivka, Zaporiz'ka oblast, Ukraine",
         "geometry" : {
            "bounds" : {
               "northeast" : {
                  "lat" : 47.123901,
                  "lng" : 36.620418
               },
               "southwest" : {
                  "lat" : 47.07726210000001,
                  "lng" : 36.5480462
               }
            },
            "location" : {
               "lat" : 47.100556,
               "lng" : 36.584167
            },
            "location_type" : "APPROXIMATE",
            "viewport" : {
               "northeast" : {
                  "lat" : 47.123901,
                  "lng" : 36.620418
               },
               "southwest" : {
                  "lat" : 47.07726210000001,
                  "lng" : 36.5480462
               }
            }
         },
         "types" : [ "locality", "political" ]
      },
      {
         "address_components" : [
            {
               "long_name" : "Andreevka",
               "short_name" : "Andreevka",
               "types" : [ "locality", "political" ]
            },
            {
               "long_name" : "Khasansky District",
               "short_name" : "Khasansky District",
               "types" : [ "administrative_area_level_2", "political" ]
            },
            {
               "long_name" : "Primorsky Krai",
               "short_name" : "Primorsky Krai",
               "types" : [ "administrative_area_level_1", "political" ]
            },
            {
               "long_name" : "Russia",
               "short_name" : "RU",
               "types" : [ "country", "political" ]
            },
            {
               "long_name" : "692707",
               "short_name" : "692707",
               "types" : [ "postal_code" ]
            }
         ],
         "formatted_address" : "Andreevka, Primorsky Krai, Russia, 692707",
         "geometry" : {
            "bounds" : {
               "northeast" : {
                  "lat" : 42.654942,
                  "lng" : 131.1378451
               },
               "southwest" : {
                  "lat" : 42.63778610000001,
                  "lng" : 131.1223292
               }
            },
            "location" : {
               "lat" : 42.6461359,
               "lng" : 131.1323115
            },
            "location_type" : "APPROXIMATE",
            "viewport" : {
               "northeast" : {
                  "lat" : 42.654942,
                  "lng" : 131.1378451
               },
               "southwest" : {
                  "lat" : 42.63778610000001,
                  "lng" : 131.1223292
               }
            }
         },
         "types" : [ "locality", "political" ]
      },
      {
         "address_components" : [
            {
               "long_name" : "Andriivka",
               "short_name" : "Andriivka",
               "types" : [ "locality", "political" ]
            },
            {
               "long_name" : "Sevastopol' city",
               "short_name" : "Sevastopol' city",
               "types" : [ "administrative_area_level_2", "political" ]
            },
            {
               "long_name" : "Sevastopol' city",
               "short_name" : "Sevastopol' city",
               "types" : [ "administrative_area_level_1", "political" ]
            }
         ],
         "formatted_address" : "Andriivka",
         "geometry" : {
            "bounds" : {
               "northeast" : {
                  "lat" : 44.8231559,
                  "lng" : 33.573403
               },
               "southwest" : {
                  "lat" : 44.80962710000001,
                  "lng" : 33.5508298
               }
            },
            "location" : {
               "lat" : 44.8176512,
               "lng" : 33.561083
            },
            "location_type" : "APPROXIMATE",
            "viewport" : {
               "northeast" : {
                  "lat" : 44.8231559,
                  "lng" : 33.573403
               },
               "southwest" : {
                  "lat" : 44.80962710000001,
                  "lng" : 33.5508298
               }
            }
         },
         "types" : [ "locality", "political" ]
      },
      {
         "address_components" : [
            {
               "long_name" : "Andreevka",
               "short_name" : "Andreevka",
               "types" : [ "locality", "political" ]
            },
            {
               "long_name" : "North Kazakhstan Province",
               "short_name" : "North Kazakhstan Province",
               "types" : [ "administrative_area_level_1", "political" ]
            },
            {
               "long_name" : "Kazakhstan",
               "short_name" : "KZ",
               "types" : [ "country", "political" ]
            },
            {
               "long_name" : "150000",
               "short_name" : "150000",
               "types" : [ "postal_code" ]
            }
         ],
         "formatted_address" : "Andreevka 150000, Kazakhstan",
         "geometry" : {
            "bounds" : {
               "northeast" : {
                  "lat" : 53.0045838,
                  "lng" : 67.40983480000001
               },
               "southwest" : {
                  "lat" : 52.9948469,
                  "lng" : 67.35850809999999
               }
            },
            "location" : {
               "lat" : 52.99816550000001,
               "lng" : 67.3940978
            },
            "location_type" : "APPROXIMATE",
            "viewport" : {
               "northeast" : {
                  "lat" : 53.0045838,
                  "lng" : 67.40983480000001
               },
               "southwest" : {
                  "lat" : 52.9948469,
                  "lng" : 67.35850809999999
               }
            }
         },
         "types" : [ "locality", "political" ]
      },
      {
         "address_components" : [
            {
               "long_name" : "Andriivka",
               "short_name" : "Andriivka",
               "types" : [ "locality", "political" ]
            },
            {
               "long_name" : "Volnovas'kyi district",
               "short_name" : "Volnovas'kyi district",
               "types" : [ "administrative_area_level_2", "political" ]
            },
            {
               "long_name" : "Donetsk Oblast",
               "short_name" : "Donetsk Oblast",
               "types" : [ "administrative_area_level_1", "political" ]
            },
            {
               "long_name" : "Ukraine",
               "short_name" : "UA",
               "types" : [ "country", "political" ]
            }
         ],
         "formatted_address" : "Andriivka, Donetsk Oblast, Ukraine",
         "geometry" : {
            "bounds" : {
               "northeast" : {
                  "lat" : 47.862059,
                  "lng" : 37.805436
               },
               "southwest" : {
                  "lat" : 47.8407251,
                  "lng" : 37.77152290000001
               }
            },
            "location" : {
               "lat" : 47.851389,
               "lng" : 37.788611
            },
            "location_type" : "APPROXIMATE",
            "viewport" : {
               "northeast" : {
                  "lat" : 47.862059,
                  "lng" : 37.805436
               },
               "southwest" : {
                  "lat" : 47.8407251,
                  "lng" : 37.77152290000001
               }
            }
         },
         "types" : [ "locality", "political" ]
      },
      {
         "address_components" : [
            {
               "long_name" : "ulitsa Andreevka",
               "short_name" : "ul. Andreevka",
               "types" : [ "route" ]
            },
            {
               "long_name" : "Russia",
               "short_name" : "RU",
               "types" : [ "country", "political" ]
            }
         ],
         "formatted_address" : "ulitsa Andreevka, Russia",
         "geometry" : {
            "bounds" : {
               "northeast" : {
                  "lat" : 55.979724,
                  "lng" : 37.1493142
               },
               "southwest" : {
                  "lat" : 55.9700018,
                  "lng" : 37.1356293
               }
            },
            "location" : {
               "lat" : 55.9752524,
               "lng" : 37.1489355
            },
            "location_type" : "GEOMETRIC_CENTER",
            "viewport" : {
               "northeast" : {
                  "lat" : 55.979724,
                  "lng" : 37.1493142
               },
               "southwest" : {
                  "lat" : 55.9700018,
                  "lng" : 37.1356293
               }
            }
         },
         "types" : [ "route" ]
      },
      {
         "address_components" : [
            {
               "long_name" : "Andriivka",
               "short_name" : "Andriivka",
               "types" : [ "locality", "political" ]
            },
            {
               "long_name" : "Tel'manivs'kyi district",
               "short_name" : "Tel'manivs'kyi district",
               "types" : [ "administrative_area_level_2", "political" ]
            },
            {
               "long_name" : "Donetsk Oblast",
               "short_name" : "Donetsk Oblast",
               "types" : [ "administrative_area_level_1", "political" ]
            },
            {
               "long_name" : "Ukraine",
               "short_name" : "UA",
               "types" : [ "country", "political" ]
            }
         ],
         "formatted_address" : "Andriivka, Donetsk Oblast, Ukraine",
         "geometry" : {
            "bounds" : {
               "northeast" : {
                  "lat" : 47.467184,
                  "lng" : 37.6697433
               },
               "southwest" : {
                  "lat" : 47.45060489999999,
                  "lng" : 37.6392929
               }
            },
            "location" : {
               "lat" : 47.458889,
               "lng" : 37.654444
            },
            "location_type" : "APPROXIMATE",
            "viewport" : {
               "northeast" : {
                  "lat" : 47.467184,
                  "lng" : 37.6697433
               },
               "southwest" : {
                  "lat" : 47.45060489999999,
                  "lng" : 37.6392929
               }
            }
         },
         "types" : [ "locality", "political" ]
      },
      {
         "address_components" : [
            {
               "long_name" : "Andriivka",
               "short_name" : "Andriivka",
               "types" : [ "locality", "political" ]
            },
            {
               "long_name" : "Snizhnyans'ka city council",
               "short_name" : "Snizhnyans'ka city council",
               "types" : [ "administrative_area_level_3", "political" ]
            },
            {
               "long_name" : "Donetsk Oblast",
               "short_name" : "Donetsk Oblast",
               "types" : [ "administrative_area_level_1", "political" ]
            },
            {
               "long_name" : "Ukraine",
               "short_name" : "UA",
               "types" : [ "country", "political" ]
            }
         ],
         "formatted_address" : "Andriivka, Donetsk Oblast, Ukraine",
         "geometry" : {
            "bounds" : {
               "northeast" : {
                  "lat" : 48.135467,
                  "lng" : 38.786684
               },
               "southwest" : {
                  "lat" : 48.0930719,
                  "lng" : 38.6913959
               }
            },
            "location" : {
               "lat" : 48.120278,
               "lng" : 38.6975
            },
            "location_type" : "APPROXIMATE",
            "viewport" : {
               "northeast" : {
                  "lat" : 48.135467,
                  "lng" : 38.786684
               },
               "southwest" : {
                  "lat" : 48.0930719,
                  "lng" : 38.6913959
               }
            }
         },
         "types" : [ "locality", "political" ]
      },
      {
         "address_components" : [
            {
               "long_name" : "Andriivka",
               "short_name" : "Andriivka",
               "types" : [ "locality", "political" ]
            },
            {
               "long_name" : "Velykonovosilkivs'kyi district",
               "short_name" : "Velykonovosilkivs'kyi district",
               "types" : [ "administrative_area_level_2", "political" ]
            },
            {
               "long_name" : "Donetsk Oblast",
               "short_name" : "Donetsk Oblast",
               "types" : [ "administrative_area_level_1", "political" ]
            },
            {
               "long_name" : "Ukraine",
               "short_name" : "UA",
               "types" : [ "country", "political" ]
            }
         ],
         "formatted_address" : "Andriivka, Donetsk Oblast, Ukraine",
         "geometry" : {
            "bounds" : {
               "northeast" : {
                  "lat" : 48.03519499999999,
                  "lng" : 37.0974661
               },
               "southwest" : {
                  "lat" : 48.009902,
                  "lng" : 37.016196
               }
            },
            "location" : {
               "lat" : 48.0225,
               "lng" : 37.056944
            },
            "location_type" : "APPROXIMATE",
            "viewport" : {
               "northeast" : {
                  "lat" : 48.03519499999999,
                  "lng" : 37.0974661
               },
               "southwest" : {
                  "lat" : 48.009902,
                  "lng" : 37.016196
               }
            }
         },
         "types" : [ "locality", "political" ]
      },
      {
         "address_components" : [
            {
               "long_name" : "Andreevka",
               "short_name" : "Andreevka",
               "types" : [ "locality", "political" ]
            },
            {
               "long_name" : "Cherdaklinsky District",
               "short_name" : "Cherdaklinsky District",
               "types" : [ "administrative_area_level_2", "political" ]
            },
            {
               "long_name" : "Ulyanovsk Oblast",
               "short_name" : "Ulyanovsk Oblast",
               "types" : [ "administrative_area_level_1", "political" ]
            },
            {
               "long_name" : "Russia",
               "short_name" : "RU",
               "types" : [ "country", "political" ]
            },
            {
               "long_name" : "433426",
               "short_name" : "433426",
               "types" : [ "postal_code" ]
            }
         ],
         "formatted_address" : "Andreevka, Ulyanovsk Oblast, Russia, 433426",
         "geometry" : {
            "bounds" : {
               "northeast" : {
                  "lat" : 54.156052,
                  "lng" : 48.853867
               },
               "southwest" : {
                  "lat" : 54.141376,
                  "lng" : 48.81627
               }
            },
            "location" : {
               "lat" : 54.1481451,
               "lng" : 48.8408817
            },
            "location_type" : "APPROXIMATE",
            "viewport" : {
               "northeast" : {
                  "lat" : 54.156052,
                  "lng" : 48.853867
               },
               "southwest" : {
                  "lat" : 54.141376,
                  "lng" : 48.81627
               }
            }
         },
         "types" : [ "locality", "political" ]
      },
      {
         "address_components" : [
            {
               "long_name" : "Andriivka",
               "short_name" : "Andriivka",
               "types" : [ "locality", "political" ]
            },
            {
               "long_name" : "Makarivs'kyi district",
               "short_name" : "Makarivs'kyi district",
               "types" : [ "administrative_area_level_2", "political" ]
            },
            {
               "long_name" : "Kyivs'ka oblast",
               "short_name" : "Kyivs'ka oblast",
               "types" : [ "administrative_area_level_1", "political" ]
            },
            {
               "long_name" : "Ukraine",
               "short_name" : "UA",
               "types" : [ "country", "political" ]
            }
         ],
         "formatted_address" : "Andriivka, Kyivs'ka oblast, Ukraine",
         "geometry" : {
            "bounds" : {
               "northeast" : {
                  "lat" : 50.562746,
                  "lng" : 29.861398
               },
               "southwest" : {
                  "lat" : 50.540264,
                  "lng" : 29.81169379999999
               }
            },
            "location" : {
               "lat" : 50.551389,
               "lng" : 29.83666699999999
            },
            "location_type" : "APPROXIMATE",
            "viewport" : {
               "northeast" : {
                  "lat" : 50.562746,
                  "lng" : 29.861398
               },
               "southwest" : {
                  "lat" : 50.540264,
                  "lng" : 29.81169379999999
               }
            }
         },
         "types" : [ "locality", "political" ]
      },
      {
         "address_components" : [
            {
               "long_name" : "Andreevka",
               "short_name" : "Andreevka",
               "types" : [ "train_station", "transit_station", "establishment" ]
            },
            {
               "long_name" : "Arkadaksky District",
               "short_name" : "Arkadaksky District",
               "types" : [ "administrative_area_level_2", "political" ]
            },
            {
               "long_name" : "Saratovskaya oblast",
               "short_name" : "Saratovskaya oblast",
               "types" : [ "administrative_area_level_1", "political" ]
            },
            {
               "long_name" : "Russia",
               "short_name" : "RU",
               "types" : [ "country", "political" ]
            },
            {
               "long_name" : "412231",
               "short_name" : "412231",
               "types" : [ "postal_code" ]
            }
         ],
         "formatted_address" : "Andreevka, Saratov Oblast, Russia, 412231",
         "geometry" : {
            "location" : {
               "lat" : 52.04406,
               "lng" : 43.566649
            },
            "location_type" : "APPROXIMATE",
            "viewport" : {
               "northeast" : {
                  "lat" : 52.0454089802915,
                  "lng" : 43.5679979802915
               },
               "southwest" : {
                  "lat" : 52.04271101970851,
                  "lng" : 43.5653000197085
               }
            }
         },
         "types" : [ "train_station", "transit_station", "establishment" ]
      },
      {
         "address_components" : [
            {
               "long_name" : "Andriivka",
               "short_name" : "Andriivka",
               "types" : [ "locality", "political" ]
            },
            {
               "long_name" : "Chernihivs'kyi district",
               "short_name" : "Chernihivs'kyi district",
               "types" : [ "administrative_area_level_2", "political" ]
            },
            {
               "long_name" : "Chernihivs'ka oblast",
               "short_name" : "Chernihivs'ka oblast",
               "types" : [ "administrative_area_level_1", "political" ]
            },
            {
               "long_name" : "Ukraine",
               "short_name" : "UA",
               "types" : [ "country", "political" ]
            }
         ],
         "formatted_address" : "Andriivka, Chernihivs'ka oblast, Ukraine",
         "geometry" : {
            "bounds" : {
               "northeast" : {
                  "lat" : 51.41919300000001,
                  "lng" : 31.063543
               },
               "southwest" : {
                  "lat" : 51.38499299999999,
                  "lng" : 30.994981
               }
            },
            "location" : {
               "lat" : 51.40222199999999,
               "lng" : 31.017222
            },
            "location_type" : "APPROXIMATE",
            "viewport" : {
               "northeast" : {
                  "lat" : 51.41919300000001,
                  "lng" : 31.063543
               },
               "southwest" : {
                  "lat" : 51.38499299999999,
                  "lng" : 30.994981
               }
            }
         },
         "types" : [ "locality", "political" ]
      },
      {
         "address_components" : [
            {
               "long_name" : "Интернациональная улица",
               "short_name" : "Интернациональная улица",
               "types" : [ "route" ]
            },
            {
               "long_name" : "Azaryčy",
               "short_name" : "Azaryčy",
               "types" : [ "locality", "political" ]
            },
            {
               "long_name" : "Kalinkavichy District",
               "short_name" : "Kalinkavichy District",
               "types" : [ "administrative_area_level_2", "political" ]
            },
            {
               "long_name" : "Homiel Province",
               "short_name" : "Homiel Province",
               "types" : [ "administrative_area_level_1", "political" ]
            },
            {
               "long_name" : "Belarus",
               "short_name" : "BY",
               "types" : [ "country", "political" ]
            }
         ],
         "formatted_address" : "Интернациональная улица, Azaryčy, Belarus",
         "geometry" : {
            "bounds" : {
               "northeast" : {
                  "lat" : 52.467155,
                  "lng" : 29.262836
               },
               "southwest" : {
                  "lat" : 52.4620107,
                  "lng" : 29.2513776
               }
            },
            "location" : {
               "lat" : 52.4648346,
               "lng" : 29.2587161
            },
            "location_type" : "GEOMETRIC_CENTER",
            "viewport" : {
               "northeast" : {
                  "lat" : 52.467155,
                  "lng" : 29.262836
               },
               "southwest" : {
                  "lat" : 52.4620107,
                  "lng" : 29.2513776
               }
            }
         },
         "types" : [ "route" ]
      },
      {
         "address_components" : [
            {
               "long_name" : "Кабанбай",
               "short_name" : "Кабанбай",
               "types" : [ "locality", "political" ]
            },
            {
               "long_name" : "Alakol District",
               "short_name" : "Alakol District",
               "types" : [ "administrative_area_level_2", "political" ]
            },
            {
               "long_name" : "Almaty Province",
               "short_name" : "Almaty Province",
               "types" : [ "administrative_area_level_1", "political" ]
            },
            {
               "long_name" : "Kazakhstan",
               "short_name" : "KZ",
               "types" : [ "country", "political" ]
            }
         ],
         "formatted_address" : "Кабанбай, Kazakhstan",
         "geometry" : {
            "bounds" : {
               "northeast" : {
                  "lat" : 45.8522387,
                  "lng" : 80.66350949999999
               },
               "southwest" : {
                  "lat" : 45.8124097,
                  "lng" : 80.598793
               }
            },
            "location" : {
               "lat" : 45.8295811,
               "lng" : 80.63243989999999
            },
            "location_type" : "APPROXIMATE",
            "viewport" : {
               "northeast" : {
                  "lat" : 45.8522387,
                  "lng" : 80.66350949999999
               },
               "southwest" : {
                  "lat" : 45.8124097,
                  "lng" : 80.598793
               }
            }
         },
         "types" : [ "locality", "political" ]
      },
      {
         "address_components" : [
            {
               "long_name" : "Andriivka",
               "short_name" : "Andriivka",
               "types" : [ "locality", "political" ]
            },
            {
               "long_name" : "Slov'yans'kyi district",
               "short_name" : "Slov'yans'kyi district",
               "types" : [ "administrative_area_level_2", "political" ]
            },
            {
               "long_name" : "Donetsk Oblast",
               "short_name" : "Donetsk Oblast",
               "types" : [ "administrative_area_level_1", "political" ]
            },
            {
               "long_name" : "Ukraine",
               "short_name" : "UA",
               "types" : [ "country", "political" ]
            }
         ],
         "formatted_address" : "Andriivka, Donetsk Oblast, Ukraine",
         "geometry" : {
            "bounds" : {
               "northeast" : {
                  "lat" : 48.629686,
                  "lng" : 37.297795
               },
               "southwest" : {
                  "lat" : 48.603943,
                  "lng" : 37.268873
               }
            },
            "location" : {
               "lat" : 48.616944,
               "lng" : 37.283333
            },
            "location_type" : "APPROXIMATE",
            "viewport" : {
               "northeast" : {
                  "lat" : 48.629686,
                  "lng" : 37.297795
               },
               "southwest" : {
                  "lat" : 48.603943,
                  "lng" : 37.268873
               }
            }
         },
         "types" : [ "locality", "political" ]
      },
      {
         "address_components" : [
            {
               "long_name" : "Andriivka",
               "short_name" : "Andriivka",
               "types" : [ "locality", "political" ]
            },
            {
               "long_name" : "Shyrokivs'kyi district",
               "short_name" : "Shyrokivs'kyi district",
               "types" : [ "administrative_area_level_2", "political" ]
            },
            {
               "long_name" : "Dnipropetrovsk Oblast",
               "short_name" : "Dnipropetrovsk Oblast",
               "types" : [ "administrative_area_level_1", "political" ]
            },
            {
               "long_name" : "Ukraine",
               "short_name" : "UA",
               "types" : [ "country", "political" ]
            }
         ],
         "formatted_address" : "Andriivka, Dnipropetrovsk Oblast, Ukraine",
         "geometry" : {
            "bounds" : {
               "northeast" : {
                  "lat" : 47.609813,
                  "lng" : 33.228756
               },
               "southwest" : {
                  "lat" : 47.585328,
                  "lng" : 33.198723
               }
            },
            "location" : {
               "lat" : 47.59927099999999,
               "lng" : 33.21373
            },
            "location_type" : "APPROXIMATE",
            "viewport" : {
               "northeast" : {
                  "lat" : 47.609813,
                  "lng" : 33.228756
               },
               "southwest" : {
                  "lat" : 47.585328,
                  "lng" : 33.198723
               }
            }
         },
         "types" : [ "locality", "political" ]
      },
      {
         "address_components" : [
            {
               "long_name" : "Andreevka",
               "short_name" : "Andreevka",
               "types" : [ "locality", "political" ]
            },
            {
               "long_name" : "Nizhnedevitsky District",
               "short_name" : "Nizhnedevitsky District",
               "types" : [ "administrative_area_level_2", "political" ]
            },
            {
               "long_name" : "Voronezhskaya oblast",
               "short_name" : "Voronezhskaya oblast",
               "types" : [ "administrative_area_level_1", "political" ]
            },
            {
               "long_name" : "Russia",
               "short_name" : "RU",
               "types" : [ "country", "political" ]
            }
         ],
         "formatted_address" : "Andreevka, Voronezh Oblast, Russia",
         "geometry" : {
            "bounds" : {
               "northeast" : {
                  "lat" : 51.7003709,
                  "lng" : 38.56369
               },
               "southwest" : {
                  "lat" : 51.660778,
                  "lng" : 38.4733258
               }
            },
            "location" : {
               "lat" : 51.6814058,
               "lng" : 38.5260053
            },
            "location_type" : "APPROXIMATE",
            "viewport" : {
               "northeast" : {
                  "lat" : 51.7003709,
                  "lng" : 38.56369
               },
               "southwest" : {
                  "lat" : 51.660778,
                  "lng" : 38.4733258
               }
            }
         },
         "types" : [ "locality", "political" ]
      },
      {
         "address_components" : [
            {
               "long_name" : "Andriivka",
               "short_name" : "Andriivka",
               "types" : [ "locality", "political" ]
            },
            {
               "long_name" : "Slov'yans'kyi district",
               "short_name" : "Slov'yans'kyi district",
               "types" : [ "administrative_area_level_2", "political" ]
            },
            {
               "long_name" : "Donetsk Oblast",
               "short_name" : "Donetsk Oblast",
               "types" : [ "administrative_area_level_1", "political" ]
            },
            {
               "long_name" : "Ukraine",
               "short_name" : "UA",
               "types" : [ "country", "political" ]
            }
         ],
         "formatted_address" : "Andriivka, Donetsk Oblast, Ukraine",
         "geometry" : {
            "bounds" : {
               "northeast" : {
                  "lat" : 48.8325,
                  "lng" : 37.57870399999999
               },
               "southwest" : {
                  "lat" : 48.8096519,
                  "lng" : 37.5097621
               }
            },
            "location" : {
               "lat" : 48.82111099999999,
               "lng" : 37.5325
            },
            "location_type" : "APPROXIMATE",
            "viewport" : {
               "northeast" : {
                  "lat" : 48.8325,
                  "lng" : 37.57870399999999
               },
               "southwest" : {
                  "lat" : 48.8096519,
                  "lng" : 37.5097621
               }
            }
         },
         "types" : [ "locality", "political" ]
      },
      {
         "address_components" : [
            {
               "long_name" : "Andreevka",
               "short_name" : "Andreevka",
               "types" : [ "locality", "political" ]
            },
            {
               "long_name" : "Aurgazinsky District",
               "short_name" : "Aurgazinsky District",
               "types" : [ "administrative_area_level_2", "political" ]
            },
            {
               "long_name" : "Bashkortostan",
               "short_name" : "Bashkortostan",
               "types" : [ "administrative_area_level_1", "political" ]
            },
            {
               "long_name" : "Russia",
               "short_name" : "RU",
               "types" : [ "country", "political" ]
            }
         ],
         "formatted_address" : "Andreevka, Bashkortostan, Russia",
         "geometry" : {
            "bounds" : {
               "northeast" : {
                  "lat" : 54.244071,
                  "lng" : 55.7114509
               },
               "southwest" : {
                  "lat" : 54.228343,
                  "lng" : 55.700239
               }
            },
            "location" : {
               "lat" : 54.235556,
               "lng" : 55.7075
            },
            "location_type" : "APPROXIMATE",
            "viewport" : {
               "northeast" : {
                  "lat" : 54.244071,
                  "lng" : 55.7114509
               },
               "southwest" : {
                  "lat" : 54.228343,
                  "lng" : 55.700239
               }
            }
         },
         "types" : [ "locality", "political" ]
      },
      {
         "address_components" : [
            {
               "long_name" : "Andriivka",
               "short_name" : "Andriivka",
               "types" : [ "locality", "political" ]
            },
            {
               "long_name" : "Bus'kyi district",
               "short_name" : "Bus'kyi district",
               "types" : [ "administrative_area_level_2", "political" ]
            },
            {
               "long_name" : "Lviv Oblast",
               "short_name" : "Lviv Oblast",
               "types" : [ "administrative_area_level_1", "political" ]
            },
            {
               "long_name" : "Ukraine",
               "short_name" : "UA",
               "types" : [ "country", "political" ]
            }
         ],
         "formatted_address" : "Andriivka, Lviv Oblast, Ukraine",
         "geometry" : {
            "bounds" : {
               "northeast" : {
                  "lat" : 49.894472,
                  "lng" : 24.6485389
               },
               "southwest" : {
                  "lat" : 49.878755,
                  "lng" : 24.6192501
               }
            },
            "location" : {
               "lat" : 49.886667,
               "lng" : 24.633889
            },
            "location_type" : "APPROXIMATE",
            "viewport" : {
               "northeast" : {
                  "lat" : 49.894472,
                  "lng" : 24.6485389
               },
               "southwest" : {
                  "lat" : 49.878755,
                  "lng" : 24.6192501
               }
            }
         },
         "types" : [ "locality", "political" ]
      },
      {
         "address_components" : [
            {
               "long_name" : "Andriivka",
               "short_name" : "Andriivka",
               "types" : [ "locality", "political" ]
            },
            {
               "long_name" : "Bashtans'kyi district",
               "short_name" : "Bashtans'kyi district",
               "types" : [ "administrative_area_level_2", "political" ]
            },
            {
               "long_name" : "Mykolaivs'ka oblast",
               "short_name" : "Mykolaivs'ka oblast",
               "types" : [ "administrative_area_level_1", "political" ]
            },
            {
               "long_name" : "Ukraine",
               "short_name" : "UA",
               "types" : [ "country", "political" ]
            }
         ],
         "formatted_address" : "Andriivka, Mykolaivs'ka oblast, Ukraine",
         "geometry" : {
            "bounds" : {
               "northeast" : {
                  "lat" : 47.507832,
                  "lng" : 32.5098649
               },
               "southwest" : {
                  "lat" : 47.50097599999999,
                  "lng" : 32.5032461
               }
            },
            "location" : {
               "lat" : 47.504444,
               "lng" : 32.506667
            },
            "location_type" : "APPROXIMATE",
            "viewport" : {
               "northeast" : {
                  "lat" : 47.507832,
                  "lng" : 32.5098649
               },
               "southwest" : {
                  "lat" : 47.50097599999999,
                  "lng" : 32.5032461
               }
            }
         },
         "types" : [ "locality", "political" ]
      },
      {
         "address_components" : [
            {
               "long_name" : "Andriivka",
               "short_name" : "Andriivka",
               "types" : [ "locality", "political" ]
            },
            {
               "long_name" : "Chemerovets'kyi district",
               "short_name" : "Chemerovets'kyi district",
               "types" : [ "administrative_area_level_2", "political" ]
            },
            {
               "long_name" : "Khmel'nyts'ka oblast",
               "short_name" : "Khmel'nyts'ka oblast",
               "types" : [ "administrative_area_level_1", "political" ]
            },
            {
               "long_name" : "Ukraine",
               "short_name" : "UA",
               "types" : [ "country", "political" ]
            }
         ],
         "formatted_address" : "Andriivka, Khmel'nyts'ka oblast, Ukraine",
         "geometry" : {
            "bounds" : {
               "northeast" : {
                  "lat" : 48.970263,
                  "lng" : 26.3175382
               },
               "southwest" : {
                  "lat" : 48.95107489999999,
                  "lng" : 26.2867702
               }
            },
            "location" : {
               "lat" : 48.960556,
               "lng" : 26.302222
            },
            "location_type" : "APPROXIMATE",
            "viewport" : {
               "northeast" : {
                  "lat" : 48.970263,
                  "lng" : 26.3175382
               },
               "southwest" : {
                  "lat" : 48.95107489999999,
                  "lng" : 26.2867702
               }
            }
         },
         "types" : [ "locality", "political" ]
      },
      {
         "address_components" : [
            {
               "long_name" : "Andriivka",
               "short_name" : "Andriivka",
               "types" : [ "locality", "political" ]
            },
            {
               "long_name" : "Krynychans'kyi district",
               "short_name" : "Krynychans'kyi district",
               "types" : [ "administrative_area_level_2", "political" ]
            },
            {
               "long_name" : "Dnipropetrovsk Oblast",
               "short_name" : "Dnipropetrovsk Oblast",
               "types" : [ "administrative_area_level_1", "political" ]
            },
            {
               "long_name" : "Ukraine",
               "short_name" : "UA",
               "types" : [ "country", "political" ]
            }
         ],
         "formatted_address" : "Andriivka, Dnipropetrovsk Oblast, Ukraine",
         "geometry" : {
            "bounds" : {
               "northeast" : {
                  "lat" : 48.267936,
                  "lng" : 33.9416809
               },
               "southwest" : {
                  "lat" : 48.2555161,
                  "lng" : 33.8952189
               }
            },
            "location" : {
               "lat" : 48.260995,
               "lng" : 33.92086
            },
            "location_type" : "APPROXIMATE",
            "viewport" : {
               "northeast" : {
                  "lat" : 48.267936,
                  "lng" : 33.9416809
               },
               "southwest" : {
                  "lat" : 48.2555161,
                  "lng" : 33.8952189
               }
            }
         },
         "types" : [ "locality", "political" ]
      },
      {
         "address_components" : [
            {
               "long_name" : "Andreevka",
               "short_name" : "Andreevka",
               "types" : [ "locality", "political" ]
            },
            {
               "long_name" : "Kurkinsky District",
               "short_name" : "Kurkinsky District",
               "types" : [ "administrative_area_level_2", "political" ]
            },
            {
               "long_name" : "Tul'skaya oblast",
               "short_name" : "Tul'skaya oblast",
               "types" : [ "administrative_area_level_1", "political" ]
            },
            {
               "long_name" : "Russia",
               "short_name" : "RU",
               "types" : [ "country", "political" ]
            },
            {
               "long_name" : "301947",
               "short_name" : "301947",
               "types" : [ "postal_code" ]
            }
         ],
         "formatted_address" : "Andreevka, Tula Oblast, Russia, 301947",
         "geometry" : {
            "bounds" : {
               "northeast" : {
                  "lat" : 53.5003389,
                  "lng" : 38.7155289
               },
               "southwest" : {
                  "lat" : 53.4806889,
                  "lng" : 38.688995
               }
            },
            "location" : {
               "lat" : 53.49218699999999,
               "lng" : 38.7039561
            },
            "location_type" : "APPROXIMATE",
            "viewport" : {
               "northeast" : {
                  "lat" : 53.5003389,
                  "lng" : 38.7155289
               },
               "southwest" : {
                  "lat" : 53.4806889,
                  "lng" : 38.688995
               }
            }
         },
         "types" : [ "locality", "political" ]
      },
      {
         "address_components" : [
            {
               "long_name" : "Andriivka",
               "short_name" : "Andriivka",
               "types" : [ "locality", "political" ]
            },
            {
               "long_name" : "Synel'nykivs'kyi district",
               "short_name" : "Synel'nykivs'kyi district",
               "types" : [ "administrative_area_level_2", "political" ]
            },
            {
               "long_name" : "Dnipropetrovsk Oblast",
               "short_name" : "Dnipropetrovsk Oblast",
               "types" : [ "administrative_area_level_1", "political" ]
            },
            {
               "long_name" : "Ukraine",
               "short_name" : "UA",
               "types" : [ "country", "political" ]
            }
         ],
         "formatted_address" : "Andriivka, Dnipropetrovsk Oblast, Ukraine",
         "geometry" : {
            "bounds" : {
               "northeast" : {
                  "lat" : 48.2425179,
                  "lng" : 35.7255711
               },
               "southwest" : {
                  "lat" : 48.224016,
                  "lng" : 35.6879309
               }
            },
            "location" : {
               "lat" : 48.2331902,
               "lng" : 35.7135093
            },
            "location_type" : "APPROXIMATE",
            "viewport" : {
               "northeast" : {
                  "lat" : 48.2425179,
                  "lng" : 35.7255711
               },
               "southwest" : {
                  "lat" : 48.224016,
                  "lng" : 35.6879309
               }
            }
         },
         "types" : [ "locality", "political" ]
      },
      {
         "address_components" : [
            {
               "long_name" : "Andriivka",
               "short_name" : "Andriivka",
               "types" : [ "locality", "political" ]
            },
            {
               "long_name" : "Chernyakhivs'kyi district",
               "short_name" : "Chernyakhivs'kyi district",
               "types" : [ "administrative_area_level_2", "political" ]
            },
            {
               "long_name" : "Zhytomyrs'ka oblast",
               "short_name" : "Zhytomyrs'ka oblast",
               "types" : [ "administrative_area_level_1", "political" ]
            },
            {
               "long_name" : "Ukraine",
               "short_name" : "UA",
               "types" : [ "country", "political" ]
            }
         ],
         "formatted_address" : "Andriivka, Zhytomyrs'ka oblast, Ukraine",
         "geometry" : {
            "bounds" : {
               "northeast" : {
                  "lat" : 50.51650799999999,
                  "lng" : 28.6989571
               },
               "southwest" : {
                  "lat" : 50.496121,
                  "lng" : 28.6490599
               }
            },
            "location" : {
               "lat" : 50.506389,
               "lng" : 28.673889
            },
            "location_type" : "APPROXIMATE",
            "viewport" : {
               "northeast" : {
                  "lat" : 50.51650799999999,
                  "lng" : 28.6989571
               },
               "southwest" : {
                  "lat" : 50.496121,
                  "lng" : 28.6490599
               }
            }
         },
         "types" : [ "locality", "political" ]
      },
      {
         "address_components" : [
            {
               "long_name" : "Andreevka",
               "short_name" : "Andreevka",
               "types" : [ "locality", "political" ]
            },
            {
               "long_name" : "Bogatovsky District",
               "short_name" : "Bogatovsky District",
               "types" : [ "administrative_area_level_2", "political" ]
            },
            {
               "long_name" : "Samarskaya oblast",
               "short_name" : "Samarskaya oblast",
               "types" : [ "administrative_area_level_1", "political" ]
            },
            {
               "long_name" : "Russia",
               "short_name" : "RU",
               "types" : [ "country", "political" ]
            },
            {
               "long_name" : "446632",
               "short_name" : "446632",
               "types" : [ "postal_code" ]
            }
         ],
         "formatted_address" : "Andreevka, Samara Oblast, Russia, 446632",
         "geometry" : {
            "bounds" : {
               "northeast" : {
                  "lat" : 53.0291769,
                  "lng" : 51.358692
               },
               "southwest" : {
                  "lat" : 52.996072,
                  "lng" : 51.3145021
               }
            },
            "location" : {
               "lat" : 53.01605319999999,
               "lng" : 51.347589
            },
            "location_type" : "APPROXIMATE",
            "viewport" : {
               "northeast" : {
                  "lat" : 53.0291769,
                  "lng" : 51.358692
               },
               "southwest" : {
                  "lat" : 52.996072,
                  "lng" : 51.3145021
               }
            }
         },
         "types" : [ "locality", "political" ]
      }
   ],
   "status" : "OK"
}
