{
   "results" : [
      {
         "address_components" : [
            {
               "long_name" : "Arkhangelskoye",
               "short_name" : "Arkhangelskoye",
               "types" : [ "locality", "political" ]
            },
            {
               "long_name" : "Krasnogorsky District, Moscow Oblast",
               "short_name" : "Krasnogorsky District, Moscow Oblast",
               "types" : [ "administrative_area_level_2", "political" ]
            },
            {
               "long_name" : "Moskovskaya oblast",
               "short_name" : "МО",
               "types" : [ "administrative_area_level_1", "political" ]
            },
            {
               "long_name" : "Russia",
               "short_name" : "RU",
               "types" : [ "country", "political" ]
            }
         ],
         "formatted_address" : "Arkhangelskoye, Moskovskaya oblast, Russia",
         "geometry" : {
            "bounds" : {
               "northeast" : {
                  "lat" : 55.799205,
                  "lng" : 37.3146838
               },
               "southwest" : {
                  "lat" : 55.779735,
                  "lng" : 37.2761332
               }
            },
            "location" : {
               "lat" : 55.7882944,
               "lng" : 37.2961886
            },
            "location_type" : "APPROXIMATE",
            "viewport" : {
               "northeast" : {
                  "lat" : 55.799205,
                  "lng" : 37.3146838
               },
               "southwest" : {
                  "lat" : 55.779735,
                  "lng" : 37.2761332
               }
            }
         },
         "types" : [ "locality", "political" ]
      },
      {
         "address_components" : [
            {
               "long_name" : "Arkhangelskoye",
               "short_name" : "Arkhangelskoye",
               "types" : [ "locality", "political" ]
            },
            {
               "long_name" : "Sursky District",
               "short_name" : "Sursky District",
               "types" : [ "administrative_area_level_2", "political" ]
            },
            {
               "long_name" : "Ulyanovsk Oblast",
               "short_name" : "Ulyanovsk Oblast",
               "types" : [ "administrative_area_level_1", "political" ]
            },
            {
               "long_name" : "Russia",
               "short_name" : "RU",
               "types" : [ "country", "political" ]
            },
            {
               "long_name" : "433262",
               "short_name" : "433262",
               "types" : [ "postal_code" ]
            }
         ],
         "formatted_address" : "Arkhangelskoye, Ulyanovsk Oblast, Russia, 433262",
         "geometry" : {
            "bounds" : {
               "northeast" : {
                  "lat" : 54.5361328,
                  "lng" : 47.3129657
               },
               "southwest" : {
                  "lat" : 54.5316702,
                  "lng" : 47.3095325
               }
            },
            "location" : {
               "lat" : 54.5338308,
               "lng" : 47.3110368
            },
            "location_type" : "APPROXIMATE",
            "viewport" : {
               "northeast" : {
                  "lat" : 54.5361328,
                  "lng" : 47.3129657
               },
               "southwest" : {
                  "lat" : 54.5316702,
                  "lng" : 47.3095325
               }
            }
         },
         "types" : [ "locality", "political" ]
      },
      {
         "address_components" : [
            {
               "long_name" : "shosse Arkhangelskoye",
               "short_name" : "sh. Arkhangelskoye",
               "types" : [ "route" ]
            },
            {
               "long_name" : "Severodvinsk",
               "short_name" : "Severodvinsk",
               "types" : [ "locality", "political" ]
            },
            {
               "long_name" : "gorod Severodvinsk",
               "short_name" : "g. Severodvinsk",
               "types" : [ "administrative_area_level_2", "political" ]
            },
            {
               "long_name" : "Arkhangel'skaya oblast",
               "short_name" : "Arkhangel'skaya oblast",
               "types" : [ "administrative_area_level_1", "political" ]
            },
            {
               "long_name" : "Russia",
               "short_name" : "RU",
               "types" : [ "country", "political" ]
            }
         ],
         "formatted_address" : "shosse Arkhangelskoye, Severodvinsk, Arkhangelsk Oblast, Russia",
         "geometry" : {
            "bounds" : {
               "northeast" : {
                  "lat" : 64.583862,
                  "lng" : 39.9314311
               },
               "southwest" : {
                  "lat" : 64.556223,
                  "lng" : 39.7772842
               }
            },
            "location" : {
               "lat" : 64.576758,
               "lng" : 39.847172
            },
            "location_type" : "GEOMETRIC_CENTER",
            "viewport" : {
               "northeast" : {
                  "lat" : 64.583862,
                  "lng" : 39.9314311
               },
               "southwest" : {
                  "lat" : 64.556223,
                  "lng" : 39.7772842
               }
            }
         },
         "types" : [ "route" ]
      },
      {
         "address_components" : [
            {
               "long_name" : "Arkhangelskoye",
               "short_name" : "Arkhangelskoye",
               "types" : [ "locality", "political" ]
            },
            {
               "long_name" : "Arkhangelsky District",
               "short_name" : "Arkhangelsky District",
               "types" : [ "administrative_area_level_2", "political" ]
            },
            {
               "long_name" : "Bashkortostan",
               "short_name" : "Bashkortostan",
               "types" : [ "administrative_area_level_1", "political" ]
            },
            {
               "long_name" : "Russia",
               "short_name" : "RU",
               "types" : [ "country", "political" ]
            }
         ],
         "formatted_address" : "Arkhangelskoye, Bashkortostan, Russia",
         "geometry" : {
            "bounds" : {
               "northeast" : {
                  "lat" : 54.41701200000001,
                  "lng" : 56.8064829
               },
               "southwest" : {
                  "lat" : 54.39579,
                  "lng" : 56.749741
               }
            },
            "location" : {
               "lat" : 54.403889,
               "lng" : 56.779722
            },
            "location_type" : "APPROXIMATE",
            "viewport" : {
               "northeast" : {
                  "lat" : 54.41701200000001,
                  "lng" : 56.8064829
               },
               "southwest" : {
                  "lat" : 54.39579,
                  "lng" : 56.749741
               }
            }
         },
         "types" : [ "locality", "political" ]
      },
      {
         "address_components" : [
            {
               "long_name" : "Arkhangelskoye",
               "short_name" : "Arkhangelskoye",
               "types" : [ "locality", "political" ]
            },
            {
               "long_name" : "Cherdaklinsky District",
               "short_name" : "Cherdaklinsky District",
               "types" : [ "administrative_area_level_2", "political" ]
            },
            {
               "long_name" : "Ulyanovsk Oblast",
               "short_name" : "Ulyanovsk Oblast",
               "types" : [ "administrative_area_level_1", "political" ]
            },
            {
               "long_name" : "Russia",
               "short_name" : "RU",
               "types" : [ "country", "political" ]
            },
            {
               "long_name" : "433409",
               "short_name" : "433409",
               "types" : [ "postal_code" ]
            }
         ],
         "formatted_address" : "Arkhangelskoye, Ulyanovsk Oblast, Russia, 433409",
         "geometry" : {
            "bounds" : {
               "northeast" : {
                  "lat" : 54.440427,
                  "lng" : 48.6738979
               },
               "southwest" : {
                  "lat" : 54.419127,
                  "lng" : 48.634742
               }
            },
            "location" : {
               "lat" : 54.4290744,
               "lng" : 48.6566954
            },
            "location_type" : "APPROXIMATE",
            "viewport" : {
               "northeast" : {
                  "lat" : 54.440427,
                  "lng" : 48.6738979
               },
               "southwest" : {
                  "lat" : 54.419127,
                  "lng" : 48.634742
               }
            }
         },
         "types" : [ "locality", "political" ]
      },
      {
         "address_components" : [
            {
               "long_name" : "Arkhangelskoye",
               "short_name" : "Arkhangelskoye",
               "types" : [ "locality", "political" ]
            },
            {
               "long_name" : "Budyonnovsky District",
               "short_name" : "Budyonnovsky District",
               "types" : [ "administrative_area_level_2", "political" ]
            },
            {
               "long_name" : "Stavropol Krai",
               "short_name" : "Stavropol Krai",
               "types" : [ "administrative_area_level_1", "political" ]
            },
            {
               "long_name" : "Russia",
               "short_name" : "RU",
               "types" : [ "country", "political" ]
            }
         ],
         "formatted_address" : "Arkhangelskoye, Stavropol Krai, Russia",
         "geometry" : {
            "bounds" : {
               "northeast" : {
                  "lat" : 44.639793,
                  "lng" : 44.108552
               },
               "southwest" : {
                  "lat" : 44.595865,
                  "lng" : 44.07140500000001
               }
            },
            "location" : {
               "lat" : 44.618611,
               "lng" : 44.093056
            },
            "location_type" : "APPROXIMATE",
            "viewport" : {
               "northeast" : {
                  "lat" : 44.639793,
                  "lng" : 44.108552
               },
               "southwest" : {
                  "lat" : 44.595865,
                  "lng" : 44.07140500000001
               }
            }
         },
         "types" : [ "locality", "political" ]
      },
      {
         "address_components" : [
            {
               "long_name" : "Arkhangelskoye",
               "short_name" : "Arkhangelskoye",
               "types" : [ "locality", "political" ]
            },
            {
               "long_name" : "Zadonsky District",
               "short_name" : "Zadonsky District",
               "types" : [ "administrative_area_level_2", "political" ]
            },
            {
               "long_name" : "Lipetskaya oblast",
               "short_name" : "Lipetskaya oblast",
               "types" : [ "administrative_area_level_1", "political" ]
            },
            {
               "long_name" : "Russia",
               "short_name" : "RU",
               "types" : [ "country", "political" ]
            },
            {
               "long_name" : "399225",
               "short_name" : "399225",
               "types" : [ "postal_code" ]
            }
         ],
         "formatted_address" : "Arkhangelskoye, Lipetsk Oblast, Russia, 399225",
         "geometry" : {
            "bounds" : {
               "northeast" : {
                  "lat" : 52.207584,
                  "lng" : 38.7189339
               },
               "southwest" : {
                  "lat" : 52.196165,
                  "lng" : 38.690016
               }
            },
            "location" : {
               "lat" : 52.203889,
               "lng" : 38.6975
            },
            "location_type" : "APPROXIMATE",
            "viewport" : {
               "northeast" : {
                  "lat" : 52.207584,
                  "lng" : 38.7189339
               },
               "southwest" : {
                  "lat" : 52.196165,
                  "lng" : 38.690016
               }
            }
         },
         "types" : [ "locality", "political" ]
      },
      {
         "address_components" : [
            {
               "long_name" : "Arkhangelskoye",
               "short_name" : "Arkhangelskoye",
               "types" : [ "locality", "political" ]
            },
            {
               "long_name" : "Nemsky District",
               "short_name" : "Nemsky District",
               "types" : [ "administrative_area_level_2", "political" ]
            },
            {
               "long_name" : "Kirovskaya oblast",
               "short_name" : "Kirovskaya oblast",
               "types" : [ "administrative_area_level_1", "political" ]
            },
            {
               "long_name" : "Russia",
               "short_name" : "RU",
               "types" : [ "country", "political" ]
            }
         ],
         "formatted_address" : "Arkhangelskoye, Kirov Oblast, Russia",
         "geometry" : {
            "bounds" : {
               "northeast" : {
                  "lat" : 57.64409209999999,
                  "lng" : 50.22742780000001
               },
               "southwest" : {
                  "lat" : 57.6245528,
                  "lng" : 50.1660307
               }
            },
            "location" : {
               "lat" : 57.63250099999999,
               "lng" : 50.1924284
            },
            "location_type" : "APPROXIMATE",
            "viewport" : {
               "northeast" : {
                  "lat" : 57.64409209999999,
                  "lng" : 50.22742780000001
               },
               "southwest" : {
                  "lat" : 57.6245528,
                  "lng" : 50.1660307
               }
            }
         },
         "types" : [ "locality", "political" ]
      },
      {
         "address_components" : [
            {
               "long_name" : "Arkhangelskoye",
               "short_name" : "Arkhangelskoye",
               "types" : [ "locality", "political" ]
            },
            {
               "long_name" : "Sokolsky District, Vologda Oblast",
               "short_name" : "Sokolsky District, Vologda Oblast",
               "types" : [ "administrative_area_level_2", "political" ]
            },
            {
               "long_name" : "Vologodskaya",
               "short_name" : "Vologodskaya",
               "types" : [ "administrative_area_level_1", "political" ]
            },
            {
               "long_name" : "Russia",
               "short_name" : "RU",
               "types" : [ "country", "political" ]
            },
            {
               "long_name" : "162103",
               "short_name" : "162103",
               "types" : [ "postal_code" ]
            }
         ],
         "formatted_address" : "Arkhangelskoye, Vologda Oblast, Russia, 162103",
         "geometry" : {
            "bounds" : {
               "northeast" : {
                  "lat" : 59.55109709999999,
                  "lng" : 39.9657589
               },
               "southwest" : {
                  "lat" : 59.53557799999999,
                  "lng" : 39.9488792
               }
            },
            "location" : {
               "lat" : 59.54305599999999,
               "lng" : 39.956944
            },
            "location_type" : "APPROXIMATE",
            "viewport" : {
               "northeast" : {
                  "lat" : 59.55109709999999,
                  "lng" : 39.9657589
               },
               "southwest" : {
                  "lat" : 59.53557799999999,
                  "lng" : 39.9488792
               }
            }
         },
         "types" : [ "locality", "political" ]
      },
      {
         "address_components" : [
            {
               "long_name" : "Arkhangelskoye",
               "short_name" : "Arkhangelskoye",
               "types" : [ "locality", "political" ]
            },
            {
               "long_name" : "Verkhnekhavsky District",
               "short_name" : "Verkhnekhavsky District",
               "types" : [ "administrative_area_level_2", "political" ]
            },
            {
               "long_name" : "Voronezhskaya oblast",
               "short_name" : "Voronezhskaya oblast",
               "types" : [ "administrative_area_level_1", "political" ]
            },
            {
               "long_name" : "Russia",
               "short_name" : "RU",
               "types" : [ "country", "political" ]
            },
            {
               "long_name" : "396126",
               "short_name" : "396126",
               "types" : [ "postal_code" ]
            }
         ],
         "formatted_address" : "Arkhangelskoye, Voronezh Oblast, Russia, 396126",
         "geometry" : {
            "bounds" : {
               "northeast" : {
                  "lat" : 51.883157,
                  "lng" : 40.1193469
               },
               "southwest" : {
                  "lat" : 51.864386,
                  "lng" : 40.0929889
               }
            },
            "location" : {
               "lat" : 51.871111,
               "lng" : 40.103611
            },
            "location_type" : "APPROXIMATE",
            "viewport" : {
               "northeast" : {
                  "lat" : 51.883157,
                  "lng" : 40.1193469
               },
               "southwest" : {
                  "lat" : 51.864386,
                  "lng" : 40.0929889
               }
            }
         },
         "types" : [ "locality", "political" ]
      },
      {
         "address_components" : [
            {
               "long_name" : "Arkhangelskoye",
               "short_name" : "Arkhangelskoye",
               "types" : [ "locality", "political" ]
            },
            {
               "long_name" : "Shatkovsky District",
               "short_name" : "Shatkovsky District",
               "types" : [ "administrative_area_level_2", "political" ]
            },
            {
               "long_name" : "Nizhegorodskaya oblast",
               "short_name" : "Nizhegorodskaya oblast",
               "types" : [ "administrative_area_level_1", "political" ]
            },
            {
               "long_name" : "Russia",
               "short_name" : "RU",
               "types" : [ "country", "political" ]
            }
         ],
         "formatted_address" : "Arkhangelskoye, Nizhny Novgorod Oblast, Russia",
         "geometry" : {
            "bounds" : {
               "northeast" : {
                  "lat" : 55.23689299999999,
                  "lng" : 44.1201199
               },
               "southwest" : {
                  "lat" : 55.206877,
                  "lng" : 44.0854771
               }
            },
            "location" : {
               "lat" : 55.219722,
               "lng" : 44.105833
            },
            "location_type" : "APPROXIMATE",
            "viewport" : {
               "northeast" : {
                  "lat" : 55.23689299999999,
                  "lng" : 44.1201199
               },
               "southwest" : {
                  "lat" : 55.206877,
                  "lng" : 44.0854771
               }
            }
         },
         "types" : [ "locality", "political" ]
      },
      {
         "address_components" : [
            {
               "long_name" : "Arkhanhel's'ke",
               "short_name" : "Arkhanhel's'ke",
               "types" : [ "locality", "political" ]
            },
            {
               "long_name" : "Vysokopil's'kyi district",
               "short_name" : "Vysokopil's'kyi district",
               "types" : [ "administrative_area_level_2", "political" ]
            },
            {
               "long_name" : "Khersons'ka oblast",
               "short_name" : "Khersons'ka oblast",
               "types" : [ "administrative_area_level_1", "political" ]
            },
            {
               "long_name" : "Ukraine",
               "short_name" : "UA",
               "types" : [ "country", "political" ]
            }
         ],
         "formatted_address" : "Arkhanhel's'ke, Khersons'ka oblast, Ukraine",
         "geometry" : {
            "bounds" : {
               "northeast" : {
                  "lat" : 47.447528,
                  "lng" : 33.4279151
               },
               "southwest" : {
                  "lat" : 47.412482,
                  "lng" : 33.3851708
               }
            },
            "location" : {
               "lat" : 47.43,
               "lng" : 33.406667
            },
            "location_type" : "APPROXIMATE",
            "viewport" : {
               "northeast" : {
                  "lat" : 47.447528,
                  "lng" : 33.4279151
               },
               "southwest" : {
                  "lat" : 47.412482,
                  "lng" : 33.3851708
               }
            }
         },
         "types" : [ "locality", "political" ]
      },
      {
         "address_components" : [
            {
               "long_name" : "Arkhangelskoye",
               "short_name" : "Arkhangelskoye",
               "types" : [ "locality", "political" ]
            },
            {
               "long_name" : "Starooskolskiy rayon",
               "short_name" : "Starooskolskiy r-n",
               "types" : [ "administrative_area_level_2", "political" ]
            },
            {
               "long_name" : "Belgorodskaya oblast",
               "short_name" : "Belgorodskaya oblast",
               "types" : [ "administrative_area_level_1", "political" ]
            },
            {
               "long_name" : "Russia",
               "short_name" : "RU",
               "types" : [ "country", "political" ]
            }
         ],
         "formatted_address" : "Arkhangelskoye, Belgorod Oblast, Russia",
         "geometry" : {
            "bounds" : {
               "northeast" : {
                  "lat" : 51.267574,
                  "lng" : 38.13440610000001
               },
               "southwest" : {
                  "lat" : 51.2417019,
                  "lng" : 38.0803029
               }
            },
            "location" : {
               "lat" : 51.2550989,
               "lng" : 38.1080056
            },
            "location_type" : "APPROXIMATE",
            "viewport" : {
               "northeast" : {
                  "lat" : 51.267574,
                  "lng" : 38.13440610000001
               },
               "southwest" : {
                  "lat" : 51.2417019,
                  "lng" : 38.0803029
               }
            }
         },
         "types" : [ "locality", "political" ]
      },
      {
         "address_components" : [
            {
               "long_name" : "Arkhangelskoye",
               "short_name" : "Arkhangelskoye",
               "types" : [ "locality", "political" ]
            },
            {
               "long_name" : "Yasnogorsky District",
               "short_name" : "Yasnogorsky District",
               "types" : [ "administrative_area_level_2", "political" ]
            },
            {
               "long_name" : "Tul'skaya oblast",
               "short_name" : "Tul'skaya oblast",
               "types" : [ "administrative_area_level_1", "political" ]
            },
            {
               "long_name" : "Russia",
               "short_name" : "RU",
               "types" : [ "country", "political" ]
            },
            {
               "long_name" : "301036",
               "short_name" : "301036",
               "types" : [ "postal_code" ]
            }
         ],
         "formatted_address" : "Arkhangelskoye, Tula Oblast, Russia, 301036",
         "geometry" : {
            "bounds" : {
               "northeast" : {
                  "lat" : 54.46345600000001,
                  "lng" : 37.625575
               },
               "southwest" : {
                  "lat" : 54.452169,
                  "lng" : 37.608783
               }
            },
            "location" : {
               "lat" : 54.4556057,
               "lng" : 37.6184934
            },
            "location_type" : "APPROXIMATE",
            "viewport" : {
               "northeast" : {
                  "lat" : 54.46345600000001,
                  "lng" : 37.625575
               },
               "southwest" : {
                  "lat" : 54.452169,
                  "lng" : 37.608783
               }
            }
         },
         "types" : [ "locality", "political" ]
      },
      {
         "address_components" : [
            {
               "long_name" : "Arkhangelskoye",
               "short_name" : "Arkhangelskoye",
               "types" : [ "locality", "political" ]
            },
            {
               "long_name" : "Ramonsky District",
               "short_name" : "Ramonsky District",
               "types" : [ "administrative_area_level_2", "political" ]
            },
            {
               "long_name" : "Voronezhskaya oblast",
               "short_name" : "Voronezhskaya oblast",
               "types" : [ "administrative_area_level_1", "political" ]
            },
            {
               "long_name" : "Russia",
               "short_name" : "RU",
               "types" : [ "country", "political" ]
            }
         ],
         "formatted_address" : "Arkhangelskoye, Voronezh Oblast, Russia",
         "geometry" : {
            "bounds" : {
               "northeast" : {
                  "lat" : 52.014114,
                  "lng" : 38.957117
               },
               "southwest" : {
                  "lat" : 51.98347589999999,
                  "lng" : 38.8901829
               }
            },
            "location" : {
               "lat" : 52.0084693,
               "lng" : 38.91320210000001
            },
            "location_type" : "APPROXIMATE",
            "viewport" : {
               "northeast" : {
                  "lat" : 52.014114,
                  "lng" : 38.957117
               },
               "southwest" : {
                  "lat" : 51.98347589999999,
                  "lng" : 38.8901829
               }
            }
         },
         "types" : [ "locality", "political" ]
      },
      {
         "address_components" : [
            {
               "long_name" : "Arkhangelskoye",
               "short_name" : "Arkhangelskoye",
               "types" : [ "locality", "political" ]
            },
            {
               "long_name" : "Gubkinskiy rayon",
               "short_name" : "Gubkinskiy r-n",
               "types" : [ "administrative_area_level_2", "political" ]
            },
            {
               "long_name" : "Belgorodskaya oblast",
               "short_name" : "Belgorodskaya oblast",
               "types" : [ "administrative_area_level_1", "political" ]
            },
            {
               "long_name" : "Russia",
               "short_name" : "RU",
               "types" : [ "country", "political" ]
            },
            {
               "long_name" : "309153",
               "short_name" : "309153",
               "types" : [ "postal_code" ]
            }
         ],
         "formatted_address" : "Arkhangelskoye, Belgorod Oblast, Russia, 309153",
         "geometry" : {
            "bounds" : {
               "northeast" : {
                  "lat" : 51.29551799999999,
                  "lng" : 37.1851569
               },
               "southwest" : {
                  "lat" : 51.264678,
                  "lng" : 37.154948
               }
            },
            "location" : {
               "lat" : 51.2901293,
               "lng" : 37.1710984
            },
            "location_type" : "APPROXIMATE",
            "viewport" : {
               "northeast" : {
                  "lat" : 51.29551799999999,
                  "lng" : 37.1851569
               },
               "southwest" : {
                  "lat" : 51.264678,
                  "lng" : 37.154948
               }
            }
         },
         "types" : [ "locality", "political" ]
      },
      {
         "address_components" : [
            {
               "long_name" : "Arkhangelskoye",
               "short_name" : "Arkhangelskoye",
               "types" : [ "locality", "political" ]
            },
            {
               "long_name" : "Yeletsky District",
               "short_name" : "Yeletsky District",
               "types" : [ "administrative_area_level_2", "political" ]
            },
            {
               "long_name" : "Lipetskaya oblast",
               "short_name" : "Lipetskaya oblast",
               "types" : [ "administrative_area_level_1", "political" ]
            },
            {
               "long_name" : "Russia",
               "short_name" : "RU",
               "types" : [ "country", "political" ]
            },
            {
               "long_name" : "399751",
               "short_name" : "399751",
               "types" : [ "postal_code" ]
            }
         ],
         "formatted_address" : "Arkhangelskoye, Lipetsk Oblast, Russia, 399751",
         "geometry" : {
            "bounds" : {
               "northeast" : {
                  "lat" : 52.5711699,
                  "lng" : 38.6262641
               },
               "southwest" : {
                  "lat" : 52.55463409999999,
                  "lng" : 38.59372
               }
            },
            "location" : {
               "lat" : 52.5643542,
               "lng" : 38.6124405
            },
            "location_type" : "APPROXIMATE",
            "viewport" : {
               "northeast" : {
                  "lat" : 52.5711699,
                  "lng" : 38.6262641
               },
               "southwest" : {
                  "lat" : 52.55463409999999,
                  "lng" : 38.59372
               }
            }
         },
         "types" : [ "locality", "political" ]
      },
      {
         "address_components" : [
            {
               "long_name" : "Archangelskoye",
               "short_name" : "Archangelskoye",
               "types" : [ "locality", "political" ]
            },
            {
               "long_name" : "Denisov District",
               "short_name" : "Denisov District",
               "types" : [ "administrative_area_level_2", "political" ]
            },
            {
               "long_name" : "Kostanay Province",
               "short_name" : "Kostanay Province",
               "types" : [ "administrative_area_level_1", "political" ]
            },
            {
               "long_name" : "Kazakhstan",
               "short_name" : "KZ",
               "types" : [ "country", "political" ]
            },
            {
               "long_name" : "110000",
               "short_name" : "110000",
               "types" : [ "postal_code" ]
            }
         ],
         "formatted_address" : "Archangelskoye 110000, Kazakhstan",
         "geometry" : {
            "bounds" : {
               "northeast" : {
                  "lat" : 52.8704508,
                  "lng" : 61.8794632
               },
               "southwest" : {
                  "lat" : 52.85223629999999,
                  "lng" : 61.8382646
               }
            },
            "location" : {
               "lat" : 52.8618315,
               "lng" : 61.8564538
            },
            "location_type" : "APPROXIMATE",
            "viewport" : {
               "northeast" : {
                  "lat" : 52.8704508,
                  "lng" : 61.8794632
               },
               "southwest" : {
                  "lat" : 52.85223629999999,
                  "lng" : 61.8382646
               }
            }
         },
         "types" : [ "locality", "political" ]
      },
      {
         "address_components" : [
            {
               "long_name" : "Arkhangelskoye",
               "short_name" : "Arkhangelskoye",
               "types" : [ "locality", "political" ]
            },
            {
               "long_name" : "Kamensky District, Tula Oblast",
               "short_name" : "Kamensky District, Tula Oblast",
               "types" : [ "administrative_area_level_2", "political" ]
            },
            {
               "long_name" : "Tul'skaya oblast",
               "short_name" : "Tul'skaya oblast",
               "types" : [ "administrative_area_level_1", "political" ]
            },
            {
               "long_name" : "Russia",
               "short_name" : "RU",
               "types" : [ "country", "political" ]
            },
            {
               "long_name" : "301990",
               "short_name" : "301990",
               "types" : [ "postal_code" ]
            }
         ],
         "formatted_address" : "Arkhangelskoye, Tula Oblast, Russia, 301990",
         "geometry" : {
            "bounds" : {
               "northeast" : {
                  "lat" : 53.271627,
                  "lng" : 37.7123411
               },
               "southwest" : {
                  "lat" : 53.251781,
                  "lng" : 37.688037
               }
            },
            "location" : {
               "lat" : 53.265556,
               "lng" : 37.701389
            },
            "location_type" : "APPROXIMATE",
            "viewport" : {
               "northeast" : {
                  "lat" : 53.271627,
                  "lng" : 37.7123411
               },
               "southwest" : {
                  "lat" : 53.251781,
                  "lng" : 37.688037
               }
            }
         },
         "types" : [ "locality", "political" ]
      },
      {
         "address_components" : [
            {
               "long_name" : "Arkhangelskoye",
               "short_name" : "Arkhangelskoye",
               "types" : [ "locality", "political" ]
            },
            {
               "long_name" : "Leninsky District, Tula Oblast",
               "short_name" : "Leninsky District, Tula Oblast",
               "types" : [ "administrative_area_level_2", "political" ]
            },
            {
               "long_name" : "Tul'skaya oblast",
               "short_name" : "Tul'skaya oblast",
               "types" : [ "administrative_area_level_1", "political" ]
            },
            {
               "long_name" : "Russia",
               "short_name" : "RU",
               "types" : [ "country", "political" ]
            },
            {
               "long_name" : "301117",
               "short_name" : "301117",
               "types" : [ "postal_code" ]
            }
         ],
         "formatted_address" : "Arkhangelskoye, Tula Oblast, Russia, 301117",
         "geometry" : {
            "bounds" : {
               "northeast" : {
                  "lat" : 54.298654,
                  "lng" : 37.67186
               },
               "southwest" : {
                  "lat" : 54.2898011,
                  "lng" : 37.6559701
               }
            },
            "location" : {
               "lat" : 54.2932691,
               "lng" : 37.660235
            },
            "location_type" : "APPROXIMATE",
            "viewport" : {
               "northeast" : {
                  "lat" : 54.298654,
                  "lng" : 37.67186
               },
               "southwest" : {
                  "lat" : 54.2898011,
                  "lng" : 37.6559701
               }
            }
         },
         "types" : [ "locality", "political" ]
      },
      {
         "address_components" : [
            {
               "long_name" : "Arkhanhel's'ke",
               "short_name" : "Arkhanhel's'ke",
               "types" : [ "locality", "political" ]
            },
            {
               "long_name" : "Yasynuvats'kyi district",
               "short_name" : "Yasynuvats'kyi district",
               "types" : [ "administrative_area_level_2", "political" ]
            },
            {
               "long_name" : "Donetsk Oblast",
               "short_name" : "Donetsk Oblast",
               "types" : [ "administrative_area_level_1", "political" ]
            },
            {
               "long_name" : "Ukraine",
               "short_name" : "UA",
               "types" : [ "country", "political" ]
            }
         ],
         "formatted_address" : "Arkhanhel's'ke, Donetsk Oblast, Ukraine",
         "geometry" : {
            "bounds" : {
               "northeast" : {
                  "lat" : 48.2735221,
                  "lng" : 37.656155
               },
               "southwest" : {
                  "lat" : 48.26006,
                  "lng" : 37.6329089
               }
            },
            "location" : {
               "lat" : 48.266667,
               "lng" : 37.644444
            },
            "location_type" : "APPROXIMATE",
            "viewport" : {
               "northeast" : {
                  "lat" : 48.2735221,
                  "lng" : 37.656155
               },
               "southwest" : {
                  "lat" : 48.26006,
                  "lng" : 37.6329089
               }
            }
         },
         "types" : [ "locality", "political" ]
      },
      {
         "address_components" : [
            {
               "long_name" : "Arkhanhel's'ke",
               "short_name" : "Arkhanhel's'ke",
               "types" : [ "locality", "political" ]
            },
            {
               "long_name" : "Bashtans'kyi district",
               "short_name" : "Bashtans'kyi district",
               "types" : [ "administrative_area_level_2", "political" ]
            },
            {
               "long_name" : "Mykolaivs'ka oblast",
               "short_name" : "Mykolaivs'ka oblast",
               "types" : [ "administrative_area_level_1", "political" ]
            },
            {
               "long_name" : "Ukraine",
               "short_name" : "UA",
               "types" : [ "country", "political" ]
            }
         ],
         "formatted_address" : "Arkhanhel's'ke, Mykolaivs'ka oblast, Ukraine",
         "geometry" : {
            "bounds" : {
               "northeast" : {
                  "lat" : 47.4713,
                  "lng" : 32.1352842
               },
               "southwest" : {
                  "lat" : 47.458232,
                  "lng" : 32.1168301
               }
            },
            "location" : {
               "lat" : 47.46472199999999,
               "lng" : 32.126111
            },
            "location_type" : "APPROXIMATE",
            "viewport" : {
               "northeast" : {
                  "lat" : 47.4713,
                  "lng" : 32.1352842
               },
               "southwest" : {
                  "lat" : 47.458232,
                  "lng" : 32.1168301
               }
            }
         },
         "types" : [ "locality", "political" ]
      },
      {
         "address_components" : [
            {
               "long_name" : "Arkhangelskoye",
               "short_name" : "Arkhangelskoye",
               "types" : [ "locality", "political" ]
            },
            {
               "long_name" : "Isetskiy rayon",
               "short_name" : "Isetskiy r-n",
               "types" : [ "administrative_area_level_2", "political" ]
            },
            {
               "long_name" : "Tyumenskaya oblast",
               "short_name" : "Tyumenskaya oblast",
               "types" : [ "administrative_area_level_1", "political" ]
            },
            {
               "long_name" : "Russia",
               "short_name" : "RU",
               "types" : [ "country", "political" ]
            }
         ],
         "formatted_address" : "Arkhangelskoye, Tyumen Oblast, Russia",
         "geometry" : {
            "bounds" : {
               "northeast" : {
                  "lat" : 56.534921,
                  "lng" : 65.67781099999999
               },
               "southwest" : {
                  "lat" : 56.52083700000001,
                  "lng" : 65.651996
               }
            },
            "location" : {
               "lat" : 56.5276357,
               "lng" : 65.6638263
            },
            "location_type" : "APPROXIMATE",
            "viewport" : {
               "northeast" : {
                  "lat" : 56.534921,
                  "lng" : 65.67781099999999
               },
               "southwest" : {
                  "lat" : 56.52083700000001,
                  "lng" : 65.651996
               }
            }
         },
         "types" : [ "locality", "political" ]
      },
      {
         "address_components" : [
            {
               "long_name" : "Arkhangelskoye",
               "short_name" : "Arkhangelskoye",
               "types" : [ "locality", "political" ]
            },
            {
               "long_name" : "Krasnogorsky District, Moscow Oblast",
               "short_name" : "Krasnogorsky District, Moscow Oblast",
               "types" : [ "administrative_area_level_2", "political" ]
            },
            {
               "long_name" : "Moskovskaya oblast",
               "short_name" : "МО",
               "types" : [ "administrative_area_level_1", "political" ]
            },
            {
               "long_name" : "Russia",
               "short_name" : "RU",
               "types" : [ "country", "political" ]
            },
            {
               "long_name" : "143420",
               "short_name" : "143420",
               "types" : [ "postal_code" ]
            }
         ],
         "formatted_address" : "Arkhangelskoye, Moskovskaya oblast, Russia, 143420",
         "geometry" : {
            "bounds" : {
               "northeast" : {
                  "lat" : 55.78472,
                  "lng" : 37.3115809
               },
               "southwest" : {
                  "lat" : 55.77531099999999,
                  "lng" : 37.2900658
               }
            },
            "location" : {
               "lat" : 55.7807275,
               "lng" : 37.3015161
            },
            "location_type" : "APPROXIMATE",
            "viewport" : {
               "northeast" : {
                  "lat" : 55.78472,
                  "lng" : 37.3115809
               },
               "southwest" : {
                  "lat" : 55.77531099999999,
                  "lng" : 37.2900658
               }
            }
         },
         "types" : [ "locality", "political" ]
      },
      {
         "address_components" : [
            {
               "long_name" : "Arkhangelskoye",
               "short_name" : "Arkhangelskoye",
               "types" : [ "locality", "political" ]
            },
            {
               "long_name" : "Shebekinsky District",
               "short_name" : "Shebekinsky District",
               "types" : [ "administrative_area_level_2", "political" ]
            },
            {
               "long_name" : "Belgorodskaya oblast",
               "short_name" : "Belgorodskaya oblast",
               "types" : [ "administrative_area_level_1", "political" ]
            },
            {
               "long_name" : "Russia",
               "short_name" : "RU",
               "types" : [ "country", "political" ]
            },
            {
               "long_name" : "309256",
               "short_name" : "309256",
               "types" : [ "postal_code" ]
            }
         ],
         "formatted_address" : "Arkhangelskoye, Belgorod Oblast, Russia, 309256",
         "geometry" : {
            "bounds" : {
               "northeast" : {
                  "lat" : 50.3672899,
                  "lng" : 36.8029259
               },
               "southwest" : {
                  "lat" : 50.3429301,
                  "lng" : 36.7593609
               }
            },
            "location" : {
               "lat" : 50.353333,
               "lng" : 36.7875
            },
            "location_type" : "APPROXIMATE",
            "viewport" : {
               "northeast" : {
                  "lat" : 50.3672899,
                  "lng" : 36.8029259
               },
               "southwest" : {
                  "lat" : 50.3429301,
                  "lng" : 36.7593609
               }
            }
         },
         "types" : [ "locality", "political" ]
      },
      {
         "address_components" : [
            {
               "long_name" : "Arkhangelskoye",
               "short_name" : "Arkhangelskoye",
               "types" : [ "locality", "political" ]
            },
            {
               "long_name" : "Uritsky District",
               "short_name" : "Uritsky District",
               "types" : [ "administrative_area_level_2", "political" ]
            },
            {
               "long_name" : "Oryol Oblast",
               "short_name" : "Oryol Oblast",
               "types" : [ "administrative_area_level_1", "political" ]
            },
            {
               "long_name" : "Russia",
               "short_name" : "RU",
               "types" : [ "country", "political" ]
            },
            {
               "long_name" : "303924",
               "short_name" : "303924",
               "types" : [ "postal_code" ]
            }
         ],
         "formatted_address" : "Arkhangelskoye, Oryol Oblast, Russia, 303924",
         "geometry" : {
            "bounds" : {
               "northeast" : {
                  "lat" : 53.0245209,
                  "lng" : 35.6006299
               },
               "southwest" : {
                  "lat" : 53.01638999999999,
                  "lng" : 35.5821709
               }
            },
            "location" : {
               "lat" : 53.0198626,
               "lng" : 35.591921
            },
            "location_type" : "APPROXIMATE",
            "viewport" : {
               "northeast" : {
                  "lat" : 53.0245209,
                  "lng" : 35.6006299
               },
               "southwest" : {
                  "lat" : 53.01638999999999,
                  "lng" : 35.5821709
               }
            }
         },
         "types" : [ "locality", "political" ]
      },
      {
         "address_components" : [
            {
               "long_name" : "Arkhangelskoye",
               "short_name" : "Arkhangelskoye",
               "types" : [ "locality", "political" ]
            },
            {
               "long_name" : "Naro-Fominsky District",
               "short_name" : "Naro-Fominsky District",
               "types" : [ "administrative_area_level_2", "political" ]
            },
            {
               "long_name" : "Moskovskaya oblast",
               "short_name" : "МО",
               "types" : [ "administrative_area_level_1", "political" ]
            },
            {
               "long_name" : "Russia",
               "short_name" : "RU",
               "types" : [ "country", "political" ]
            },
            {
               "long_name" : "143323",
               "short_name" : "143323",
               "types" : [ "postal_code" ]
            }
         ],
         "formatted_address" : "Arkhangelskoye, Moskovskaya oblast, Russia, 143323",
         "geometry" : {
            "bounds" : {
               "northeast" : {
                  "lat" : 55.323711,
                  "lng" : 35.9741129
               },
               "southwest" : {
                  "lat" : 55.317787,
                  "lng" : 35.955894
               }
            },
            "location" : {
               "lat" : 55.3210056,
               "lng" : 35.9650681
            },
            "location_type" : "APPROXIMATE",
            "viewport" : {
               "northeast" : {
                  "lat" : 55.323711,
                  "lng" : 35.9741129
               },
               "southwest" : {
                  "lat" : 55.317787,
                  "lng" : 35.955894
               }
            }
         },
         "types" : [ "locality", "political" ]
      },
      {
         "address_components" : [
            {
               "long_name" : "Arkhangelskoye",
               "short_name" : "Arkhangelskoye",
               "types" : [ "locality", "political" ]
            },
            {
               "long_name" : "Gorodishchensky District, Penza Oblast",
               "short_name" : "Gorodishchensky District, Penza Oblast",
               "types" : [ "administrative_area_level_2", "political" ]
            },
            {
               "long_name" : "Penzenskaya oblast",
               "short_name" : "Penzenskaya oblast",
               "types" : [ "administrative_area_level_1", "political" ]
            },
            {
               "long_name" : "Russia",
               "short_name" : "RU",
               "types" : [ "country", "political" ]
            },
            {
               "long_name" : "442321",
               "short_name" : "442321",
               "types" : [ "postal_code" ]
            }
         ],
         "formatted_address" : "Arkhangelskoye, Penza Oblast, Russia, 442321",
         "geometry" : {
            "bounds" : {
               "northeast" : {
                  "lat" : 53.1911498,
                  "lng" : 45.8765296
               },
               "southwest" : {
                  "lat" : 53.1642196,
                  "lng" : 45.8446963
               }
            },
            "location" : {
               "lat" : 53.1824631,
               "lng" : 45.8573406
            },
            "location_type" : "APPROXIMATE",
            "viewport" : {
               "northeast" : {
                  "lat" : 53.1911498,
                  "lng" : 45.8765296
               },
               "southwest" : {
                  "lat" : 53.1642196,
                  "lng" : 45.8446963
               }
            }
         },
         "types" : [ "locality", "political" ]
      },
      {
         "address_components" : [
            {
               "long_name" : "Arkhangelskoye",
               "short_name" : "Arkhangelskoye",
               "types" : [ "locality", "political" ]
            },
            {
               "long_name" : "Anninsky District",
               "short_name" : "Anninsky District",
               "types" : [ "administrative_area_level_2", "political" ]
            },
            {
               "long_name" : "Voronezhskaya oblast",
               "short_name" : "Voronezhskaya oblast",
               "types" : [ "administrative_area_level_1", "political" ]
            },
            {
               "long_name" : "Russia",
               "short_name" : "RU",
               "types" : [ "country", "political" ]
            }
         ],
         "formatted_address" : "Arkhangelskoye, Voronezh Oblast, Russia",
         "geometry" : {
            "bounds" : {
               "northeast" : {
                  "lat" : 51.475827,
                  "lng" : 40.9590451
               },
               "southwest" : {
                  "lat" : 51.432875,
                  "lng" : 40.901862
               }
            },
            "location" : {
               "lat" : 51.450278,
               "lng" : 40.932222
            },
            "location_type" : "APPROXIMATE",
            "viewport" : {
               "northeast" : {
                  "lat" : 51.475827,
                  "lng" : 40.9590451
               },
               "southwest" : {
                  "lat" : 51.432875,
                  "lng" : 40.901862
               }
            }
         },
         "types" : [ "locality", "political" ]
      },
      {
         "address_components" : [
            {
               "long_name" : "Arkhangelskoye",
               "short_name" : "Arkhangelskoye",
               "types" : [ "locality", "political" ]
            },
            {
               "long_name" : "Khokholsky District",
               "short_name" : "Khokholsky District",
               "types" : [ "administrative_area_level_2", "political" ]
            },
            {
               "long_name" : "Voronezhskaya oblast",
               "short_name" : "Voronezhskaya oblast",
               "types" : [ "administrative_area_level_1", "political" ]
            },
            {
               "long_name" : "Russia",
               "short_name" : "RU",
               "types" : [ "country", "political" ]
            }
         ],
         "formatted_address" : "Arkhangelskoye, Voronezh Oblast, Russia",
         "geometry" : {
            "bounds" : {
               "northeast" : {
                  "lat" : 51.289158,
                  "lng" : 39.1597201
               },
               "southwest" : {
                  "lat" : 51.23616699999999,
                  "lng" : 39.1114659
               }
            },
            "location" : {
               "lat" : 51.2625,
               "lng" : 39.1320164
            },
            "location_type" : "APPROXIMATE",
            "viewport" : {
               "northeast" : {
                  "lat" : 51.289158,
                  "lng" : 39.1597201
               },
               "southwest" : {
                  "lat" : 51.23616699999999,
                  "lng" : 39.1114659
               }
            }
         },
         "types" : [ "locality", "political" ]
      }
   ],
   "status" : "OK"
}
