{"totalResultsCount": 12158, "geonames": [{"name": "Tiraspol", "population": 157000, "countryName": "Moldova", "adminName1": "St\u00eenga Nistrului", "fclName": "city, village,...", "countryCode": "MD", "lng": "29.64333", "toponymName": "Tiraspol", "fcode": "PPLA", "fcodeName": "seat of a first-order administrative division", "countryId": "617790", "adminCode1": "58", "geonameId": 617239, "lat": "46.84028", "fcl": "P"}, {"name": "Bilhorod-Dnistrovs\u2019kyy", "population": 50201, "countryName": "Ukraine", "adminName1": "Odessa", "fclName": "city, village,...", "countryCode": "UA", "lng": "30.34938", "toponymName": "Bilhorod-Dnistrovs\u2019kyy", "fcode": "PPLA2", "fcodeName": "seat of a second-order administrative division", "countryId": "690791", "adminCode1": "17", "geonameId": 712160, "lat": "46.1952", "fcl": "P"}, {"name": "\u015etefan Vod\u0103", "population": 7700, "countryName": "Moldova", "adminName1": "\u015etefan-Vod\u0103", "fclName": "city, village,...", "countryCode": "MD", "lng": "29.66306", "toponymName": "\u015etefan Vod\u0103", "fcode": "PPLA", "fcodeName": "seat of a first-order administrative division", "countryId": "617790", "adminCode1": "88", "geonameId": 617284, "lat": "46.51528", "fcl": "P"}, {"name": "Slobozia", "population": 15356, "countryName": "Moldova", "adminName1": "St\u00eenga Nistrului", "fclName": "city, village,...", "countryCode": "MD", "lng": "29.70778", "toponymName": "Slobozia", "fcode": "PPL", "fcodeName": "populated place", "countryId": "617790", "adminCode1": "58", "geonameId": 617381, "lat": "46.72806", "fcl": "P"}, {"name": "Dnestrovsc", "population": 10426, "countryName": "Moldova", "adminName1": "St\u00eenga Nistrului", "fclName": "city, village,...", "countryCode": "MD", "lng": "29.91333", "toponymName": "Dnestrovsc", "fcode": "PPL", "fcodeName": "populated place", "countryId": "617790", "adminCode1": "58", "geonameId": 618387, "lat": "46.62222", "fcl": "P"}, {"name": "Ovidiopol", "population": 11818, "countryName": "Ukraine", "adminName1": "Odessa", "fclName": "city, village,...", "countryCode": "UA", "lng": "30.44127", "toponymName": "Ovidiopol\u2019", "fcode": "PPL", "fcodeName": "populated place", "countryId": "690791", "adminCode1": "17", "geonameId": 698138, "lat": "46.24998", "fcl": "P"}, {"name": "Bilyayivka", "population": 13762, "countryName": "Ukraine", "adminName1": "Odessa", "fclName": "city, village,...", "countryCode": "UA", "lng": "30.21678", "toponymName": "Bilyayivka", "fcode": "PPLA2", "fcodeName": "seat of a second-order administrative division", "countryId": "690791", "adminCode1": "17", "geonameId": 712488, "lat": "46.48319", "fcl": "P"}, {"name": "Starokozache", "population": 5108, "countryName": "Ukraine", "adminName1": "Odessa", "fclName": "city, village,...", "countryCode": "UA", "lng": "29.98528", "toponymName": "Starokozache", "fcode": "PPL", "fcodeName": "populated place", "countryId": "690791", "adminCode1": "17", "geonameId": 692819, "lat": "46.33722", "fcl": "P"}, {"name": "Rozdil\u2019na", "population": 17615, "countryName": "Ukraine", "adminName1": "Odessa", "fclName": "city, village,...", "countryCode": "UA", "lng": "30.07919", "toponymName": "Rozdil\u2019na", "fcode": "PPL", "fcodeName": "populated place", "countryId": "690791", "adminCode1": "17", "geonameId": 695344, "lat": "46.84334", "fcl": "P"}, {"name": "Pervomaisc", "population": 7300, "countryName": "Moldova", "adminName1": "St\u00eenga Nistrului", "fclName": "city, village,...", "countryCode": "MD", "lng": "29.95861", "toponymName": "Pervomaisc", "fcode": "PPL", "fcodeName": "populated place", "countryId": "617790", "adminCode1": "58", "geonameId": 617602, "lat": "46.73389", "fcl": "P"}, {"name": "Marianca de Jos", "population": 0, "countryName": "Moldova", "adminName1": "\u015etefan-Vod\u0103", "fclName": "city, village,...", "countryCode": "MD", "lng": "29.60139", "toponymName": "Marianca de Jos", "fcode": "PPL", "fcodeName": "populated place", "countryId": "617790", "adminCode1": "88", "geonameId": 617745, "lat": "46.52056", "fcl": "P"}, {"name": "Crasnoe", "population": 4200, "countryName": "Moldova", "adminName1": "St\u00eenga Nistrului", "fclName": "city, village,...", "countryCode": "MD", "lng": "29.80472", "toponymName": "Crasnoe", "fcode": "PPL", "fcodeName": "populated place", "countryId": "617790", "adminCode1": "58", "geonameId": 617973, "lat": "46.65139", "fcl": "P"}, {"name": "Chi\u0163cani", "population": 9000, "countryName": "Moldova", "adminName1": "C\u0103u\u015feni", "fclName": "city, village,...", "countryCode": "MD", "lng": "29.61682", "toponymName": "Chi\u0163cani", "fcode": "PPL", "fcodeName": "populated place", "countryId": "617790", "adminCode1": "67", "geonameId": 618067, "lat": "46.78296", "fcl": "P"}, {"name": "Teplodar", "population": 8502, "countryName": "Ukraine", "adminName1": "Odessa", "fclName": "city, village,...", "countryCode": "UA", "lng": "30.32521", "toponymName": "Teplodar", "fcode": "PPL", "fcodeName": "populated place", "countryId": "690791", "adminCode1": "17", "geonameId": 865087, "lat": "46.50585", "fcl": "P"}, {"name": "Plakhtiyivka", "population": 5038, "countryName": "Ukraine", "adminName1": "Odessa", "fclName": "city, village,...", "countryCode": "UA", "lng": "29.72169", "toponymName": "Plakhtiyivka", "fcode": "PPL", "fcodeName": "populated place", "countryId": "690791", "adminCode1": "17", "geonameId": 697126, "lat": "46.1006", "fcl": "P"}, {"name": "Lymanske", "population": 8600, "countryName": "Ukraine", "adminName1": "Odessa", "fclName": "city, village,...", "countryCode": "UA", "lng": "29.96722", "toponymName": "Lymanske", "fcode": "PPL", "fcodeName": "populated place", "countryId": "690791", "adminCode1": "17", "geonameId": 703061, "lat": "46.6557", "fcl": "P"}, {"name": "Karolino-Buhaz", "population": 2241, "countryName": "Ukraine", "adminName1": "Odessa", "fclName": "city, village,...", "countryCode": "UA", "lng": "30.52609", "toponymName": "Karolino-Buhaz", "fcode": "PPL", "fcodeName": "populated place", "countryId": "690791", "adminCode1": "17", "geonameId": 687556, "lat": "46.14492", "fcl": "P"}, {"name": "Zatoka", "population": 1391, "countryName": "Ukraine", "adminName1": "Odessa", "fclName": "city, village,...", "countryCode": "UA", "lng": "30.46538", "toponymName": "Zatoka", "fcode": "PPL", "fcodeName": "populated place", "countryId": "690791", "adminCode1": "17", "geonameId": 687557, "lat": "46.07251", "fcl": "P"}, {"name": "Velykoploske", "population": 3192, "countryName": "Ukraine", "adminName1": "Odessa", "fclName": "city, village,...", "countryCode": "UA", "lng": "29.67171", "toponymName": "Velykoploske", "fcode": "PPL", "fcodeName": "populated place", "countryId": "690791", "adminCode1": "17", "geonameId": 690035, "lat": "47.01254", "fcl": "P"}, {"name": "Shabo", "population": 6886, "countryName": "Ukraine", "adminName1": "Odessa", "fclName": "city, village,...", "countryCode": "UA", "lng": "30.38595", "toponymName": "Shabo", "fcode": "PPL", "fcodeName": "populated place", "countryId": "690791", "adminCode1": "17", "geonameId": 694392, "lat": "46.13262", "fcl": "P"}, {"name": "Volintiri", "population": 0, "countryName": "Moldova", "adminName1": "\u015etefan-Vod\u0103", "fclName": "city, village,...", "countryCode": "MD", "lng": "29.60583", "toponymName": "Volintiri", "fcode": "PPL", "fcodeName": "populated place", "countryId": "617790", "adminCode1": "88", "geonameId": 617107, "lat": "46.42667", "fcl": "P"}, {"name": "Vladimirovca", "population": 0, "countryName": "Moldova", "adminName1": "St\u00eenga Nistrului", "fclName": "city, village,...", "countryCode": "MD", "lng": "29.82472", "toponymName": "Vladimirovca", "fcode": "PPL", "fcodeName": "populated place", "countryId": "617790", "adminCode1": "58", "geonameId": 617114, "lat": "46.84444", "fcl": "P"}, {"name": "Prioziornoe", "population": 0, "countryName": "Moldova", "adminName1": "St\u00eenga Nistrului", "fclName": "city, village,...", "countryCode": "MD", "lng": "29.93333", "toponymName": "Prioziornoe", "fcode": "PPL", "fcodeName": "populated place", "countryId": "617790", "adminCode1": "58", "geonameId": 617146, "lat": "46.8", "fcl": "P"}, {"name": "Tudora", "population": 0, "countryName": "Moldova", "adminName1": "\u015etefan-Vod\u0103", "fclName": "city, village,...", "countryCode": "MD", "lng": "30.0425", "toponymName": "Tudora", "fcode": "PPL", "fcodeName": "populated place", "countryId": "617790", "adminCode1": "88", "geonameId": 617190, "lat": "46.435", "fcl": "P"}, {"name": "Talmaz", "population": 0, "countryName": "Moldova", "adminName1": "\u015etefan-Vod\u0103", "fclName": "city, village,...", "countryCode": "MD", "lng": "29.66472", "toponymName": "Talmaz", "fcode": "PPL", "fcodeName": "populated place", "countryId": "617790", "adminCode1": "88", "geonameId": 617272, "lat": "46.63583", "fcl": "P"}, {"name": "Sucleia", "population": 0, "countryName": "Moldova", "adminName1": "St\u00eenga Nistrului", "fclName": "city, village,...", "countryCode": "MD", "lng": "29.65972", "toponymName": "Sucleia", "fcode": "PPL", "fcodeName": "populated place", "countryId": "617790", "adminCode1": "58", "geonameId": 617291, "lat": "46.82111", "fcl": "P"}, {"name": "Slobozia", "population": 0, "countryName": "Moldova", "adminName1": "\u015etefan-Vod\u0103", "fclName": "city, village,...", "countryCode": "MD", "lng": "29.74028", "toponymName": "Slobozia", "fcode": "PPL", "fcodeName": "populated place", "countryId": "617790", "adminCode1": "88", "geonameId": 617387, "lat": "46.50806", "fcl": "P"}, {"name": "R\u0103sc\u0103ie\u0163i", "population": 0, "countryName": "Moldova", "adminName1": "\u015etefan-Vod\u0103", "fclName": "city, village,...", "countryCode": "MD", "lng": "29.77611", "toponymName": "R\u0103sc\u0103ie\u0163i", "fcode": "PPL", "fcodeName": "populated place", "countryId": "617790", "adminCode1": "88", "geonameId": 617525, "lat": "46.57444", "fcl": "P"}, {"name": "Purcari", "population": 0, "countryName": "Moldova", "adminName1": "\u015etefan-Vod\u0103", "fclName": "city, village,...", "countryCode": "MD", "lng": "29.86028", "toponymName": "Purcari", "fcode": "PPL", "fcodeName": "populated place", "countryId": "617790", "adminCode1": "88", "geonameId": 617542, "lat": "46.53694", "fcl": "P"}, {"name": "Palanca", "population": 0, "countryName": "Moldova", "adminName1": "\u015etefan-Vod\u0103", "fclName": "city, village,...", "countryCode": "MD", "lng": "30.09611", "toponymName": "Palanca", "fcode": "PPL", "fcodeName": "populated place", "countryId": "617790", "adminCode1": "88", "geonameId": 617633, "lat": "46.40861", "fcl": "P"}, {"name": "Ol\u0103ne\u015fti", "population": 0, "countryName": "Moldova", "adminName1": "\u015etefan-Vod\u0103", "fclName": "city, village,...", "countryCode": "MD", "lng": "29.91806", "toponymName": "Ol\u0103ne\u015fti", "fcode": "PPL", "fcodeName": "populated place", "countryId": "617790", "adminCode1": "88", "geonameId": 617648, "lat": "46.49556", "fcl": "P"}, {"name": "Nezavertailovca", "population": 0, "countryName": "Moldova", "adminName1": "St\u00eenga Nistrului", "fclName": "city, village,...", "countryCode": "MD", "lng": "29.93139", "toponymName": "Nezavertailovca", "fcode": "PPL", "fcodeName": "populated place", "countryId": "617790", "adminCode1": "58", "geonameId": 617763, "lat": "46.60778", "fcl": "P"}, {"name": "Corotna", "population": 0, "countryName": "Moldova", "adminName1": "St\u00eenga Nistrului", "fclName": "city, village,...", "countryCode": "MD", "lng": "29.85944", "toponymName": "Corotna", "fcode": "PPL", "fcodeName": "populated place", "countryId": "617790", "adminCode1": "58", "geonameId": 618016, "lat": "46.62917", "fcl": "P"}, {"name": "Crocmaz", "population": 0, "countryName": "Moldova", "adminName1": "\u015etefan-Vod\u0103", "fclName": "city, village,...", "countryCode": "MD", "lng": "29.9825", "toponymName": "Crocmaz", "fcode": "PPL", "fcodeName": "populated place", "countryId": "617790", "adminCode1": "88", "geonameId": 618022, "lat": "46.45194", "fcl": "P"}, {"name": "Copanca", "population": 0, "countryName": "Moldova", "adminName1": "C\u0103u\u015feni", "fclName": "city, village,...", "countryCode": "MD", "lng": "29.62056", "toponymName": "Copanca", "fcode": "PPL", "fcodeName": "populated place", "countryId": "617790", "adminCode1": "67", "geonameId": 618029, "lat": "46.71694", "fcl": "P"}, {"name": "Caraga\u015f", "population": 0, "countryName": "Moldova", "adminName1": "St\u00eenga Nistrului", "fclName": "city, village,...", "countryCode": "MD", "lng": "29.67972", "toponymName": "Caraga\u015f", "fcode": "PPL", "fcodeName": "populated place", "countryId": "617790", "adminCode1": "58", "geonameId": 618135, "lat": "46.77778", "fcl": "P"}, {"name": "Carahasani", "population": 0, "countryName": "Moldova", "adminName1": "\u015etefan-Vod\u0103", "fclName": "city, village,...", "countryCode": "MD", "lng": "29.81222", "toponymName": "Carahasani", "fcode": "PPL", "fcodeName": "populated place", "countryId": "617790", "adminCode1": "88", "geonameId": 618136, "lat": "46.4675", "fcl": "P"}, {"name": "C\u0103plani", "population": 0, "countryName": "Moldova", "adminName1": "\u015etefan-Vod\u0103", "fclName": "city, village,...", "countryCode": "MD", "lng": "29.87139", "toponymName": "C\u0103plani", "fcode": "PPL", "fcodeName": "populated place", "countryId": "617790", "adminCode1": "88", "geonameId": 618140, "lat": "46.38722", "fcl": "P"}, {"name": "Hlinaia", "population": 0, "countryName": "Moldova", "adminName1": "St\u00eenga Nistrului", "fclName": "city, village,...", "countryCode": "MD", "lng": "29.81389", "toponymName": "Hlinaia", "fcode": "PPL", "fcodeName": "populated place", "countryId": "617790", "adminCode1": "58", "geonameId": 618197, "lat": "46.63417", "fcl": "P"}, {"name": "Frunz\u0103", "population": 0, "countryName": "Moldova", "adminName1": "St\u00eenga Nistrului", "fclName": "city, village,...", "countryCode": "MD", "lng": "29.88028", "toponymName": "Frunz\u0103", "fcode": "PPL", "fcodeName": "populated place", "countryId": "617790", "adminCode1": "58", "geonameId": 618321, "lat": "46.82833", "fcl": "P"}, {"name": "Nove", "population": 0, "countryName": "Ukraine", "adminName1": "Odessa", "fclName": "city, village,...", "countryCode": "UA", "lng": "29.87122", "toponymName": "Nove", "fcode": "PPL", "fcodeName": "populated place", "countryId": "690791", "adminCode1": "17", "geonameId": 864129, "lat": "46.88754", "fcl": "P"}, {"name": "Cremenciug", "population": 0, "countryName": "Moldova", "adminName1": "C\u0103u\u015feni", "fclName": "city, village,...", "countryCode": "MD", "lng": "29.67389", "toponymName": "Cremenciug", "fcode": "PPL", "fcodeName": "populated place", "countryId": "617790", "adminCode1": "67", "geonameId": 824140, "lat": "46.70861", "fcl": "P"}, {"name": "Ocheretovka", "population": 0, "countryName": "Ukraine", "adminName1": "Odessa", "fclName": "city, village,...", "countryCode": "UA", "lng": "29.98083", "toponymName": "Ocheretovka", "fcode": "PPL", "fcodeName": "populated place", "countryId": "690791", "adminCode1": "17", "geonameId": 698751, "lat": "46.70861", "fcl": "P"}, {"name": "Mykolayivka-Novorosiys\u2019ka", "population": 0, "countryName": "Ukraine", "adminName1": "Odessa", "fclName": "city, village,...", "countryCode": "UA", "lng": "29.90417", "toponymName": "Mykolayivka-Novorosiys\u2019ka", "fcode": "PPL", "fcodeName": "populated place", "countryId": "690791", "adminCode1": "17", "geonameId": 700092, "lat": "46.13444", "fcl": "P"}, {"name": "Pshenychne", "population": 0, "countryName": "Ukraine", "adminName1": "Odessa", "fclName": "city, village,...", "countryCode": "UA", "lng": "29.63243", "toponymName": "Pshenychne", "fcode": "PPL", "fcodeName": "populated place", "countryId": "690791", "adminCode1": "17", "geonameId": 701240, "lat": "46.285", "fcl": "P"}, {"name": "Kuchurhan", "population": 0, "countryName": "Ukraine", "adminName1": "Odessa", "fclName": "city, village,...", "countryCode": "UA", "lng": "29.97963", "toponymName": "Kuchurhan", "fcode": "PPL", "fcodeName": "populated place", "countryId": "690791", "adminCode1": "17", "geonameId": 703789, "lat": "46.72867", "fcl": "P"}, {"name": "Kryva Balka", "population": 0, "countryName": "Ukraine", "adminName1": "Odessa", "fclName": "city, village,...", "countryCode": "UA", "lng": "29.89385", "toponymName": "Kryva Balka", "fcode": "PPL", "fcodeName": "populated place", "countryId": "690791", "adminCode1": "17", "geonameId": 704052, "lat": "46.19473", "fcl": "P"}, {"name": "Velikodolinskoye", "population": 0, "countryName": "Ukraine", "adminName1": "Odessa", "fclName": "city, village,...", "countryCode": "UA", "lng": "30.57859", "toponymName": "Velikodolinskoye", "fcode": "PPL", "fcodeName": "populated place", "countryId": "690791", "adminCode1": "17", "geonameId": 690082, "lat": "46.34239", "fcl": "P"}, {"name": "Uspenivka", "population": 0, "countryName": "Ukraine", "adminName1": "Odessa", "fclName": "city, village,...", "countryCode": "UA", "lng": "29.86985", "toponymName": "Uspenivka", "fcode": "PPL", "fcodeName": "populated place", "countryId": "690791", "adminCode1": "17", "geonameId": 690625, "lat": "46.18509", "fcl": "P"}, {"name": "Udobnoye", "population": 0, "countryName": "Ukraine", "adminName1": "Odessa", "fclName": "city, village,...", "countryCode": "UA", "lng": "30.04796", "toponymName": "Udobnoye", "fcode": "PPL", "fcodeName": "populated place", "countryId": "690791", "adminCode1": "17", "geonameId": 690834, "lat": "46.38148", "fcl": "P"}, {"name": "Karnaleyevka", "population": 0, "countryName": "Ukraine", "adminName1": "Odessa", "fclName": "city, village,...", "countryCode": "UA", "lng": "30.0273", "toponymName": "Karnaleyevka", "fcode": "PPL", "fcodeName": "populated place", "countryId": "690791", "adminCode1": "17", "geonameId": 706738, "lat": "46.21938", "fcl": "P"}, {"name": "Ivanivka", "population": 3028, "countryName": "Ukraine", "adminName1": "Odessa", "fclName": "city, village,...", "countryCode": "UA", "lng": "30.46998", "toponymName": "Ivanivka", "fcode": "PPLA2", "fcodeName": "seat of a second-order administrative division", "countryId": "690791", "adminCode1": "17", "geonameId": 707451, "lat": "46.97569", "fcl": "P"}, {"name": "Hradenytsi", "population": 0, "countryName": "Ukraine", "adminName1": "Odessa", "fclName": "city, village,...", "countryCode": "UA", "lng": "29.99653", "toponymName": "Hradenytsi", "fcode": "PPL", "fcodeName": "populated place", "countryId": "690791", "adminCode1": "17", "geonameId": 707750, "lat": "46.59957", "fcl": "P"}, {"name": "Stara Tsarychanka", "population": 0, "countryName": "Ukraine", "adminName1": "Odessa", "fclName": "city, village,...", "countryCode": "UA", "lng": "29.85977", "toponymName": "Stara Tsarychanka", "fcode": "PPL", "fcodeName": "populated place", "countryId": "690791", "adminCode1": "17", "geonameId": 692863, "lat": "46.29051", "fcl": "P"}, {"name": "Rus\u2019koivanivka", "population": 0, "countryName": "Ukraine", "adminName1": "Odessa", "fclName": "city, village,...", "countryCode": "UA", "lng": "29.76468", "toponymName": "Rus\u2019koivanivka", "fcode": "PPL", "fcodeName": "populated place", "countryId": "690791", "adminCode1": "17", "geonameId": 695100, "lat": "46.37496", "fcl": "P"}, {"name": "Cioburciu", "population": 0, "countryName": "Moldova", "adminName1": "St\u00eenga Nistrului", "fclName": "city, village,...", "countryCode": "MD", "lng": "29.74917", "toponymName": "Cioburciu", "fcode": "PPL", "fcodeName": "populated place", "countryId": "617790", "adminCode1": "58", "geonameId": 618423, "lat": "46.68306", "fcl": "P"}, {"name": "Cioburciu", "population": 0, "countryName": "Moldova", "adminName1": "\u015etefan-Vod\u0103", "fclName": "city, village,...", "countryCode": "MD", "lng": "29.70833", "toponymName": "Cioburciu", "fcode": "PPL", "fcodeName": "populated place", "countryId": "617790", "adminCode1": "88", "geonameId": 618424, "lat": "46.60028", "fcl": "P"}, {"name": "Blijnii Hutor", "population": 0, "countryName": "Moldova", "adminName1": "St\u00eenga Nistrului", "fclName": "city, village,...", "countryCode": "MD", "lng": "29.64333", "toponymName": "Blijnii Hutor", "fcode": "PPL", "fcodeName": "populated place", "countryId": "617790", "adminCode1": "58", "geonameId": 618556, "lat": "46.88417", "fcl": "P"}, {"name": "Uiutnoe", "population": 0, "countryName": "Moldova", "adminName1": "St\u00eenga Nistrului", "fclName": "city, village,...", "countryCode": "MD", "lng": "29.86611", "toponymName": "Uiutnoe", "fcode": "PPL", "fcodeName": "populated place", "countryId": "617790", "adminCode1": "58", "geonameId": 617167, "lat": "46.84056", "fcl": "P"}, {"name": "\u015etef\u0103ne\u015fti", "population": 0, "countryName": "Moldova", "adminName1": "\u015etefan-Vod\u0103", "fclName": "city, village,...", "countryCode": "MD", "lng": "29.68778", "toponymName": "\u015etef\u0103ne\u015fti", "fcode": "PPL", "fcodeName": "populated place", "countryId": "617790", "adminCode1": "88", "geonameId": 617316, "lat": "46.44583", "fcl": "P"}, {"name": "Andria\u015fevca Veche", "population": 0, "countryName": "Moldova", "adminName1": "St\u00eenga Nistrului", "fclName": "city, village,...", "countryCode": "MD", "lng": "29.97056", "toponymName": "Andria\u015fevca Veche", "fcode": "PPL", "fcodeName": "populated place", "countryId": "617790", "adminCode1": "58", "geonameId": 617358, "lat": "46.82278", "fcl": "P"}, {"name": "Novocotovsc", "population": 0, "countryName": "Moldova", "adminName1": "St\u00eenga Nistrului", "fclName": "city, village,...", "countryCode": "MD", "lng": "29.955", "toponymName": "Novocotovsc", "fcode": "PPL", "fcodeName": "populated place", "countryId": "617790", "adminCode1": "58", "geonameId": 617712, "lat": "46.76556", "fcl": "P"}, {"name": "Andria\u015fevca Nou\u0103", "population": 0, "countryName": "Moldova", "adminName1": "St\u00eenga Nistrului", "fclName": "city, village,...", "countryCode": "MD", "lng": "29.95583", "toponymName": "Andria\u015fevca Nou\u0103", "fcode": "PPL", "fcodeName": "populated place", "countryId": "617790", "adminCode1": "58", "geonameId": 617741, "lat": "46.83361", "fcl": "P"}, {"name": "Nicolscoe", "population": 0, "countryName": "Moldova", "adminName1": "St\u00eenga Nistrului", "fclName": "city, village,...", "countryCode": "MD", "lng": "29.85722", "toponymName": "Nicolscoe", "fcode": "PPL", "fcodeName": "populated place", "countryId": "617790", "adminCode1": "58", "geonameId": 617758, "lat": "46.87611", "fcl": "P"}, {"name": "Rozalivka", "population": 0, "countryName": "Ukraine", "adminName1": "Odessa", "fclName": "city, village,...", "countryCode": "UA", "lng": "29.98154", "toponymName": "Rozalivka", "fcode": "PPL", "fcodeName": "populated place", "countryId": "690791", "adminCode1": "17", "geonameId": 695348, "lat": "46.82412", "fcl": "P"}, {"name": "Roylyanka", "population": 0, "countryName": "Ukraine", "adminName1": "Odessa", "fclName": "city, village,...", "countryCode": "UA", "lng": "29.78944", "toponymName": "Roylyanka", "fcode": "PPL", "fcodeName": "populated place", "countryId": "690791", "adminCode1": "17", "geonameId": 695355, "lat": "46.28667", "fcl": "P"}, {"name": "Romanivka", "population": 0, "countryName": "Ukraine", "adminName1": "Odessa", "fclName": "city, village,...", "countryCode": "UA", "lng": "29.96906", "toponymName": "Romanivka", "fcode": "PPL", "fcodeName": "populated place", "countryId": "690791", "adminCode1": "17", "geonameId": 695461, "lat": "46.09729", "fcl": "P"}, {"name": "Podgornoye", "population": 0, "countryName": "Ukraine", "adminName1": "Odessa", "fclName": "city, village,...", "countryCode": "UA", "lng": "30.02299", "toponymName": "Podgornoye", "fcode": "PPL", "fcodeName": "populated place", "countryId": "690791", "adminCode1": "17", "geonameId": 696958, "lat": "46.25699", "fcl": "P"}, {"name": "Petro-Yevdokiyevka", "population": 0, "countryName": "Ukraine", "adminName1": "Odessa", "fclName": "city, village,...", "countryCode": "UA", "lng": "30.18436", "toponymName": "Petro-Yevdokiyevka", "fcode": "PPL", "fcodeName": "populated place", "countryId": "690791", "adminCode1": "17", "geonameId": 697268, "lat": "46.82246", "fcl": "P"}, {"name": "Petrovka", "population": 0, "countryName": "Ukraine", "adminName1": "Odessa", "fclName": "city, village,...", "countryCode": "UA", "lng": "30.31667", "toponymName": "Petrovka", "fcode": "PPL", "fcodeName": "populated place", "countryId": "690791", "adminCode1": "17", "geonameId": 697386, "lat": "46.88333", "fcl": "P"}, {"name": "Petrivka", "population": 0, "countryName": "Ukraine", "adminName1": "Odessa", "fclName": "city, village,...", "countryCode": "UA", "lng": "29.95469", "toponymName": "Petrivka", "fcode": "PPL", "fcodeName": "populated place", "countryId": "690791", "adminCode1": "17", "geonameId": 697392, "lat": "46.31141", "fcl": "P"}, {"name": "Pershe Travnya", "population": 0, "countryName": "Ukraine", "adminName1": "Odessa", "fclName": "city, village,...", "countryCode": "UA", "lng": "30.33699", "toponymName": "Pershe Travnya", "fcode": "PPL", "fcodeName": "populated place", "countryId": "690791", "adminCode1": "17", "geonameId": 697621, "lat": "46.64872", "fcl": "P"}, {"name": "Otradovo", "population": 0, "countryName": "Ukraine", "adminName1": "Odessa", "fclName": "city, village,...", "countryCode": "UA", "lng": "30.44508", "toponymName": "Otradovo", "fcode": "PPL", "fcodeName": "populated place", "countryId": "690791", "adminCode1": "17", "geonameId": 698150, "lat": "46.68578", "fcl": "P"}, {"name": "Novoselivka", "population": 0, "countryName": "Ukraine", "adminName1": "Odessa", "fclName": "city, village,...", "countryCode": "UA", "lng": "29.92387", "toponymName": "Novoselivka", "fcode": "PPL", "fcodeName": "populated place", "countryId": "690791", "adminCode1": "17", "geonameId": 699214, "lat": "46.98876", "fcl": "P"}, {"name": "Novosavyts\u2019ke", "population": 0, "countryName": "Ukraine", "adminName1": "Odessa", "fclName": "city, village,...", "countryCode": "UA", "lng": "29.76326", "toponymName": "Novosavyts\u2019ke", "fcode": "PPL", "fcodeName": "populated place", "countryId": "690791", "adminCode1": "17", "geonameId": 699292, "lat": "46.98668", "fcl": "P"}, {"name": "Novopetrivka", "population": 0, "countryName": "Ukraine", "adminName1": "Odessa", "fclName": "city, village,...", "countryCode": "UA", "lng": "29.88977", "toponymName": "Novopetrivka", "fcode": "PPL", "fcodeName": "populated place", "countryId": "690791", "adminCode1": "17", "geonameId": 699347, "lat": "47.04188", "fcl": "P"}, {"name": "Novoantonivka", "population": 0, "countryName": "Ukraine", "adminName1": "Odessa", "fclName": "city, village,...", "countryCode": "UA", "lng": "29.75048", "toponymName": "Novoantonivka", "fcode": "PPL", "fcodeName": "populated place", "countryId": "690791", "adminCode1": "17", "geonameId": 699686, "lat": "47.05196", "fcl": "P"}, {"name": "Nova Tsarychanka", "population": 0, "countryName": "Ukraine", "adminName1": "Odessa", "fclName": "city, village,...", "countryCode": "UA", "lng": "29.88083", "toponymName": "Nova Tsarychanka", "fcode": "PPL", "fcodeName": "populated place", "countryId": "690791", "adminCode1": "17", "geonameId": 699786, "lat": "46.25361", "fcl": "P"}, {"name": "Faraonivka", "population": 0, "countryName": "Ukraine", "adminName1": "Odessa", "fclName": "city, village,...", "countryCode": "UA", "lng": "29.62021", "toponymName": "Faraonivka", "fcode": "PPL", "fcodeName": "populated place", "countryId": "690791", "adminCode1": "17", "geonameId": 709258, "lat": "46.32309", "fcl": "P"}, {"name": "Dzerzhyns\u2019ke", "population": 0, "countryName": "Ukraine", "adminName1": "Odessa", "fclName": "city, village,...", "countryCode": "UA", "lng": "29.81163", "toponymName": "Dzerzhyns\u2019ke", "fcode": "PPL", "fcodeName": "populated place", "countryId": "690791", "adminCode1": "17", "geonameId": 709355, "lat": "46.92543", "fcl": "P"}, {"name": "Dal\u2019nichen\u2019", "population": 0, "countryName": "Ukraine", "adminName1": "Odessa", "fclName": "city, village,...", "countryCode": "UA", "lng": "29.67912", "toponymName": "Dal\u2019nichen\u2019", "fcode": "PPL", "fcodeName": "populated place", "countryId": "690791", "adminCode1": "17", "geonameId": 710318, "lat": "46.40596", "fcl": "P"}, {"name": "Chystovodne", "population": 0, "countryName": "Ukraine", "adminName1": "Odessa", "fclName": "city, village,...", "countryCode": "UA", "lng": "29.75955", "toponymName": "Chystovodne", "fcode": "PPL", "fcodeName": "populated place", "countryId": "690791", "adminCode1": "17", "geonameId": 710446, "lat": "46.44001", "fcl": "P"}, {"name": "Chervonoznamenka", "population": 0, "countryName": "Ukraine", "adminName1": "Odessa", "fclName": "city, village,...", "countryCode": "UA", "lng": "30.29464", "toponymName": "Chervonoznamenka", "fcode": "PPL", "fcodeName": "populated place", "countryId": "690791", "adminCode1": "17", "geonameId": 710531, "lat": "47.02087", "fcl": "P"}, {"name": "Bykoza", "population": 0, "countryName": "Ukraine", "adminName1": "Odessa", "fclName": "city, village,...", "countryCode": "UA", "lng": "30.17777", "toponymName": "Bykoza", "fcode": "PPL", "fcodeName": "populated place", "countryId": "690791", "adminCode1": "17", "geonameId": 711018, "lat": "46.19004", "fcl": "P"}, {"name": "Budenovka", "population": 0, "countryName": "Ukraine", "adminName1": "Odessa", "fclName": "city, village,...", "countryCode": "UA", "lng": "30.3", "toponymName": "Budenovka", "fcode": "PPL", "fcodeName": "populated place", "countryId": "690791", "adminCode1": "17", "geonameId": 711314, "lat": "46.81667", "fcl": "P"}, {"name": "Blagoyevo", "population": 0, "countryName": "Ukraine", "adminName1": "Odessa", "fclName": "city, village,...", "countryCode": "UA", "lng": "30.06667", "toponymName": "Blagoyevo", "fcode": "PPL", "fcodeName": "populated place", "countryId": "690791", "adminCode1": "17", "geonameId": 712070, "lat": "47", "fcl": "P"}, {"name": "Blahodatne", "population": 0, "countryName": "Ukraine", "adminName1": "Odessa", "fclName": "city, village,...", "countryCode": "UA", "lng": "29.64494", "toponymName": "Blahodatne", "fcode": "PPL", "fcodeName": "populated place", "countryId": "690791", "adminCode1": "17", "geonameId": 712097, "lat": "46.25893", "fcl": "P"}, {"name": "Berezan\u2019", "population": 0, "countryName": "Ukraine", "adminName1": "Odessa", "fclName": "city, village,...", "countryCode": "UA", "lng": "30.43291", "toponymName": "Berezan\u2019", "fcode": "PPL", "fcodeName": "populated place", "countryId": "690791", "adminCode1": "17", "geonameId": 712390, "lat": "46.56918", "fcl": "P"}, {"name": "Baraboy Pervyy", "population": 0, "countryName": "Ukraine", "adminName1": "Odessa", "fclName": "city, village,...", "countryCode": "UA", "lng": "30.51667", "toponymName": "Baraboy Pervyy", "fcode": "PPL", "fcodeName": "populated place", "countryId": "690791", "adminCode1": "17", "geonameId": 712853, "lat": "46.3", "fcl": "P"}, {"name": "Antono Kovach", "population": 0, "countryName": "Ukraine", "adminName1": "Odessa", "fclName": "city, village,...", "countryCode": "UA", "lng": "29.75983", "toponymName": "Antono Kovach", "fcode": "PPL", "fcodeName": "populated place", "countryId": "690791", "adminCode1": "17", "geonameId": 713313, "lat": "46.9436", "fcl": "P"}, {"name": "Anhelinivka", "population": 0, "countryName": "Ukraine", "adminName1": "Odessa", "fclName": "city, village,...", "countryCode": "UA", "lng": "29.94621", "toponymName": "Anhelinivka", "fcode": "PPL", "fcodeName": "populated place", "countryId": "690791", "adminCode1": "17", "geonameId": 713376, "lat": "46.89659", "fcl": "P"}, {"name": "Andreyen\u2019", "population": 0, "countryName": "Ukraine", "adminName1": "Odessa", "fclName": "city, village,...", "countryCode": "UA", "lng": "30.08585", "toponymName": "Andreyen\u2019", "fcode": "PPL", "fcodeName": "populated place", "countryId": "690791", "adminCode1": "17", "geonameId": 713481, "lat": "46.22061", "fcl": "P"}, {"name": "Oleksiyivka", "population": 0, "countryName": "Ukraine", "adminName1": "Odessa", "fclName": "city, village,...", "countryCode": "UA", "lng": "30.06738", "toponymName": "Oleksiyivka", "fcode": "PPL", "fcodeName": "populated place", "countryId": "690791", "adminCode1": "17", "geonameId": 713575, "lat": "46.11482", "fcl": "P"}, {"name": "Mykolayivka", "population": 0, "countryName": "Ukraine", "adminName1": "Odessa", "fclName": "city, village,...", "countryCode": "UA", "lng": "30.35813", "toponymName": "Mykolayivka", "fcode": "PPL", "fcodeName": "populated place", "countryId": "690791", "adminCode1": "17", "geonameId": 700175, "lat": "46.28281", "fcl": "P"}, {"name": "Nehrove", "population": 0, "countryName": "Ukraine", "adminName1": "Odessa", "fclName": "city, village,...", "countryCode": "UA", "lng": "29.65528", "toponymName": "Nehrove", "fcode": "PPL", "fcodeName": "populated place", "countryId": "690791", "adminCode1": "17", "geonameId": 700358, "lat": "46.20028", "fcl": "P"}, {"name": "Khadzhider", "population": 0, "countryName": "Ukraine", "adminName1": "Odessa", "fclName": "city, village,...", "countryCode": "UA", "lng": "29.88828", "toponymName": "Khadzhider", "fcode": "PPL", "fcodeName": "populated place", "countryId": "690791", "adminCode1": "17", "geonameId": 700504, "lat": "46.21777", "fcl": "P"}, {"name": "Nadezhda", "population": 0, "countryName": "Ukraine", "adminName1": "Odessa", "fclName": "city, village,...", "countryCode": "UA", "lng": "29.65043", "toponymName": "Nadezhda", "fcode": "PPL", "fcodeName": "populated place", "countryId": "690791", "adminCode1": "17", "geonameId": 700535, "lat": "46.22236", "fcl": "P"}, {"name": "Monashi", "population": 0, "countryName": "Ukraine", "adminName1": "Odessa", "fclName": "city, village,...", "countryCode": "UA", "lng": "30.05683", "toponymName": "Monashi", "fcode": "PPL", "fcodeName": "populated place", "countryId": "690791", "adminCode1": "17", "geonameId": 700809, "lat": "46.16339", "fcl": "P"}, {"name": "Molodove", "population": 0, "countryName": "Ukraine", "adminName1": "Odessa", "fclName": "city, village,...", "countryCode": "UA", "lng": "29.65201", "toponymName": "Molodove", "fcode": "PPL", "fcodeName": "populated place", "countryId": "690791", "adminCode1": "17", "geonameId": 700827, "lat": "46.2147", "fcl": "P"}, {"name": "Moldava", "population": 0, "countryName": "Ukraine", "adminName1": "Odessa", "fclName": "city, village,...", "countryCode": "UA", "lng": "30.43333", "toponymName": "Moldava", "fcode": "PPL", "fcodeName": "populated place", "countryId": "690791", "adminCode1": "17", "geonameId": 700853, "lat": "46.23333", "fcl": "P"}, {"name": "Myrnopillya", "population": 0, "countryName": "Ukraine", "adminName1": "Odessa", "fclName": "city, village,...", "countryCode": "UA", "lng": "29.64353", "toponymName": "Myrnopillya", "fcode": "PPL", "fcodeName": "populated place", "countryId": "690791", "adminCode1": "17", "geonameId": 701066, "lat": "46.16315", "fcl": "P"}, {"name": "Mar\u2019yanovka", "population": 0, "countryName": "Ukraine", "adminName1": "Odessa", "fclName": "city, village,...", "countryCode": "UA", "lng": "30.4663", "toponymName": "Mar\u2019yanovka", "fcode": "PPL", "fcodeName": "populated place", "countryId": "690791", "adminCode1": "17", "geonameId": 701733, "lat": "46.38633", "fcl": "P"}, {"name": "Markivka", "population": 0, "countryName": "Ukraine", "adminName1": "Odessa", "fclName": "city, village,...", "countryCode": "UA", "lng": "29.94906", "toponymName": "Markivka", "fcode": "PPL", "fcodeName": "populated place", "countryId": "690791", "adminCode1": "17", "geonameId": 701799, "lat": "46.92918", "fcl": "P"}, {"name": "Marazleyevka", "population": 0, "countryName": "Ukraine", "adminName1": "Odessa", "fclName": "city, village,...", "countryCode": "UA", "lng": "30.0509", "toponymName": "Marazleyevka", "fcode": "PPL", "fcodeName": "populated place", "countryId": "690791", "adminCode1": "17", "geonameId": 701870, "lat": "46.09596", "fcl": "P"}, {"name": "Maloploske", "population": 0, "countryName": "Ukraine", "adminName1": "Odessa", "fclName": "city, village,...", "countryCode": "UA", "lng": "29.74151", "toponymName": "Maloploske", "fcode": "PPL", "fcodeName": "populated place", "countryId": "690791", "adminCode1": "17", "geonameId": 702044, "lat": "47.01259", "fcl": "P"}, {"name": "Malinovka", "population": 0, "countryName": "Ukraine", "adminName1": "Odessa", "fclName": "city, village,...", "countryCode": "UA", "lng": "30.38347", "toponymName": "Malinovka", "fcode": "PPL", "fcodeName": "populated place", "countryId": "690791", "adminCode1": "17", "geonameId": 702108, "lat": "46.94261", "fcl": "P"}, {"name": "Malaya Mar\u2019yanovka", "population": 0, "countryName": "Ukraine", "adminName1": "Odessa", "fclName": "city, village,...", "countryCode": "UA", "lng": "30.05", "toponymName": "Malaya Mar\u2019yanovka", "fcode": "PPL", "fcodeName": "populated place", "countryId": "690791", "adminCode1": "17", "geonameId": 702200, "lat": "46.1", "fcl": "P"}, {"name": "Lozovyy", "population": 0, "countryName": "Ukraine", "adminName1": "Odessa", "fclName": "city, village,...", "countryCode": "UA", "lng": "30.22475", "toponymName": "Lozovyy", "fcode": "PPL", "fcodeName": "populated place", "countryId": "690791", "adminCode1": "17", "geonameId": 702731, "lat": "46.94126", "fcl": "P"}, {"name": "Krutoyarivka", "population": 0, "countryName": "Ukraine", "adminName1": "Odessa", "fclName": "city, village,...", "countryCode": "UA", "lng": "29.82133", "toponymName": "Krutoyarivka", "fcode": "PPL", "fcodeName": "populated place", "countryId": "690791", "adminCode1": "17", "geonameId": 703910, "lat": "46.35936", "fcl": "P"}, {"name": "Krasnyy", "population": 0, "countryName": "Ukraine", "adminName1": "Odessa", "fclName": "city, village,...", "countryCode": "UA", "lng": "30.55", "toponymName": "Krasnyy", "fcode": "PPL", "fcodeName": "populated place", "countryId": "690791", "adminCode1": "17", "geonameId": 704242, "lat": "46.95", "fcl": "P"}, {"name": "Zirka", "population": 0, "countryName": "Ukraine", "adminName1": "Odessa", "fclName": "city, village,...", "countryCode": "UA", "lng": "30.43333", "toponymName": "Zirka", "fcode": "PPL", "fcodeName": "populated place", "countryId": "690791", "adminCode1": "17", "geonameId": 686945, "lat": "46.63333", "fcl": "P"}, {"name": "Zelenovka", "population": 0, "countryName": "Ukraine", "adminName1": "Odessa", "fclName": "city, village,...", "countryCode": "UA", "lng": "30.00471", "toponymName": "Zelenovka", "fcode": "PPL", "fcodeName": "populated place", "countryId": "690791", "adminCode1": "17", "geonameId": 687384, "lat": "46.29634", "fcl": "P"}, {"name": "Zabary", "population": 0, "countryName": "Ukraine", "adminName1": "Odessa", "fclName": "city, village,...", "countryCode": "UA", "lng": "29.74965", "toponymName": "Zabary", "fcode": "PPL", "fcodeName": "populated place", "countryId": "690791", "adminCode1": "17", "geonameId": 687981, "lat": "46.30332", "fcl": "P"}, {"name": "Yegorovka", "population": 0, "countryName": "Ukraine", "adminName1": "Odessa", "fclName": "city, village,...", "countryCode": "UA", "lng": "30.40822", "toponymName": "Yegorovka", "fcode": "PPL", "fcodeName": "populated place", "countryId": "690791", "adminCode1": "17", "geonameId": 688257, "lat": "46.7198", "fcl": "P"}, {"name": "Yas\u2019ki", "population": 0, "countryName": "Ukraine", "adminName1": "Odessa", "fclName": "city, village,...", "countryCode": "UA", "lng": "30.07378", "toponymName": "Yas\u2019ki", "fcode": "PPL", "fcodeName": "populated place", "countryId": "690791", "adminCode1": "17", "geonameId": 688361, "lat": "46.51025", "fcl": "P"}, {"name": "Yaroslavka", "population": 0, "countryName": "Ukraine", "adminName1": "Odessa", "fclName": "city, village,...", "countryCode": "UA", "lng": "29.875", "toponymName": "Yaroslavka", "fcode": "PPL", "fcodeName": "populated place", "countryId": "690791", "adminCode1": "17", "geonameId": 688423, "lat": "46.07722", "fcl": "P"}, {"name": "Vyselok Akkermanskiy", "population": 0, "countryName": "Ukraine", "adminName1": "Odessa", "fclName": "city, village,...", "countryCode": "UA", "lng": "30.21667", "toponymName": "Vyselok Akkermanskiy", "fcode": "PPL", "fcodeName": "populated place", "countryId": "690791", "adminCode1": "17", "geonameId": 688729, "lat": "46.23333", "fcl": "P"}, {"name": "Vladimirovka", "population": 0, "countryName": "Ukraine", "adminName1": "Odessa", "fclName": "city, village,...", "countryCode": "UA", "lng": "30.07497", "toponymName": "Vladimirovka", "fcode": "PPL", "fcodeName": "populated place", "countryId": "690791", "adminCode1": "17", "geonameId": 689412, "lat": "46.82158", "fcl": "P"}, {"name": "Volodymyrivka", "population": 0, "countryName": "Ukraine", "adminName1": "Odessa", "fclName": "city, village,...", "countryCode": "UA", "lng": "29.74028", "toponymName": "Volodymyrivka", "fcode": "PPL", "fcodeName": "populated place", "countryId": "690791", "adminCode1": "17", "geonameId": 689417, "lat": "46.41935", "fcl": "P"}, {"name": "Velikiy Dal\u2019nik", "population": 0, "countryName": "Ukraine", "adminName1": "Odessa", "fclName": "city, village,...", "countryCode": "UA", "lng": "30.55763", "toponymName": "Velikiy Dal\u2019nik", "fcode": "PPL", "fcodeName": "populated place", "countryId": "690791", "adminCode1": "17", "geonameId": 690189, "lat": "46.47758", "fcl": "P"}, {"name": "Novokonstantynivka", "population": 0, "countryName": "Ukraine", "adminName1": "Odessa", "fclName": "city, village,...", "countryCode": "UA", "lng": "29.97071", "toponymName": "Novokonstantynivka", "fcode": "PPL", "fcodeName": "populated place", "countryId": "690791", "adminCode1": "17", "geonameId": 705113, "lat": "46.9524", "fcl": "P"}, {"name": "Pryvillya", "population": 0, "countryName": "Ukraine", "adminName1": "Odessa", "fclName": "city, village,...", "countryCode": "UA", "lng": "29.77346", "toponymName": "Pryvillya", "fcode": "PPL", "fcodeName": "populated place", "countryId": "690791", "adminCode1": "17", "geonameId": 706007, "lat": "47.05633", "fcl": "P"}, {"name": "Vakars\u2019ke", "population": 0, "countryName": "Ukraine", "adminName1": "Odessa", "fclName": "city, village,...", "countryCode": "UA", "lng": "29.93706", "toponymName": "Vakars\u2019ke", "fcode": "PPL", "fcodeName": "populated place", "countryId": "690791", "adminCode1": "17", "geonameId": 706139, "lat": "47.0635", "fcl": "P"}, {"name": "Kazatskoye", "population": 0, "countryName": "Ukraine", "adminName1": "Odessa", "fclName": "city, village,...", "countryCode": "UA", "lng": "30.0452", "toponymName": "Kazatskoye", "fcode": "PPL", "fcodeName": "populated place", "countryId": "690791", "adminCode1": "17", "geonameId": 706567, "lat": "46.34881", "fcl": "P"}, {"name": "Kardamycheve", "population": 0, "countryName": "Ukraine", "adminName1": "Odessa", "fclName": "city, village,...", "countryCode": "UA", "lng": "29.91544", "toponymName": "Kardamycheve", "fcode": "PPL", "fcodeName": "populated place", "countryId": "690791", "adminCode1": "17", "geonameId": 706772, "lat": "46.96236", "fcl": "P"}, {"name": "Kapokleyevka", "population": 0, "countryName": "Ukraine", "adminName1": "Odessa", "fclName": "city, village,...", "countryCode": "UA", "lng": "30.20657", "toponymName": "Kapokleyevka", "fcode": "PPL", "fcodeName": "populated place", "countryId": "690791", "adminCode1": "17", "geonameId": 706871, "lat": "46.80795", "fcl": "P"}, {"name": "Kamyshevka Vtoraya", "population": 3352, "countryName": "Ukraine", "adminName1": "Odessa", "fclName": "city, village,...", "countryCode": "UA", "lng": "29.83333", "toponymName": "Kamyshevka Vtoraya", "fcode": "PPL", "fcodeName": "populated place", "countryId": "690791", "adminCode1": "17", "geonameId": 706921, "lat": "46.23333", "fcl": "P"}, {"name": "Ignatovo", "population": 0, "countryName": "Ukraine", "adminName1": "Odessa", "fclName": "city, village,...", "countryCode": "UA", "lng": "30.48333", "toponymName": "Ignatovo", "fcode": "PPL", "fcodeName": "populated place", "countryId": "690791", "adminCode1": "17", "geonameId": 707734, "lat": "46.83333", "fcl": "P"}, {"name": "Hirs\u2019ke", "population": 0, "countryName": "Ukraine", "adminName1": "Odessa", "fclName": "city, village,...", "countryCode": "UA", "lng": "29.93056", "toponymName": "Hirs\u2019ke", "fcode": "PPL", "fcodeName": "populated place", "countryId": "690791", "adminCode1": "17", "geonameId": 708275, "lat": "46.97111", "fcl": "P"}, {"name": "Goncharovka", "population": 0, "countryName": "Ukraine", "adminName1": "Odessa", "fclName": "city, village,...", "countryCode": "UA", "lng": "30.07023", "toponymName": "Goncharovka", "fcode": "PPL", "fcodeName": "populated place", "countryId": "690791", "adminCode1": "17", "geonameId": 708505, "lat": "46.23642", "fcl": "P"}, {"name": "Galle", "population": 0, "countryName": "Ukraine", "adminName1": "Odessa", "fclName": "city, village,...", "countryCode": "UA", "lng": "30.03333", "toponymName": "Galle", "fcode": "PPL", "fcodeName": "populated place", "countryId": "690791", "adminCode1": "17", "geonameId": 709018, "lat": "46.15", "fcl": "P"}, {"name": "Trud-Kutok", "population": 276, "countryName": "Ukraine", "adminName1": "Odessa", "fclName": "city, village,...", "countryCode": "UA", "lng": "30.01156", "toponymName": "Trud-Kutok", "fcode": "PPL", "fcodeName": "populated place", "countryId": "690791", "adminCode1": "17", "geonameId": 691189, "lat": "46.75586", "fcl": "P"}, {"name": "Artema", "population": 0, "countryName": "Ukraine", "adminName1": "Odessa", "fclName": "city, village,...", "countryCode": "UA", "lng": "29.87089", "toponymName": "Artema", "fcode": "PPL", "fcodeName": "populated place", "countryId": "690791", "adminCode1": "17", "geonameId": 691208, "lat": "46.97856", "fcl": "P"}, {"name": "Trostyanets\u2019", "population": 0, "countryName": "Ukraine", "adminName1": "Odessa", "fclName": "city, village,...", "countryCode": "UA", "lng": "29.78425", "toponymName": "Trostyanets\u2019", "fcode": "PPL", "fcodeName": "populated place", "countryId": "690791", "adminCode1": "17", "geonameId": 691250, "lat": "47.03423", "fcl": "P"}, {"name": "Try Krynytsi", "population": 0, "countryName": "Ukraine", "adminName1": "Odessa", "fclName": "city, village,...", "countryCode": "UA", "lng": "29.98079", "toponymName": "Try Krynytsi", "fcode": "PPL", "fcodeName": "populated place", "countryId": "690791", "adminCode1": "17", "geonameId": 691309, "lat": "47.05451", "fcl": "P"}, {"name": "Slavyanoserbka", "population": 0, "countryName": "Ukraine", "adminName1": "Odessa", "fclName": "city, village,...", "countryCode": "UA", "lng": "29.70005", "toponymName": "Slavyanoserbka", "fcode": "PPL", "fcodeName": "populated place", "countryId": "690791", "adminCode1": "17", "geonameId": 693470, "lat": "46.95852", "fcl": "P"}, {"name": "Shem\u00ebtovka", "population": 0, "countryName": "Ukraine", "adminName1": "Odessa", "fclName": "city, village,...", "countryCode": "UA", "lng": "30.35312", "toponymName": "Shem\u00ebtovka", "fcode": "PPL", "fcodeName": "populated place", "countryId": "690791", "adminCode1": "17", "geonameId": 694230, "lat": "46.83011", "fcl": "P"}, {"name": "Sem\u00ebnovka", "population": 0, "countryName": "Ukraine", "adminName1": "Odessa", "fclName": "city, village,...", "countryCode": "UA", "lng": "30.12388", "toponymName": "Sem\u00ebnovka", "fcode": "PPL", "fcodeName": "populated place", "countryId": "690791", "adminCode1": "17", "geonameId": 694625, "lat": "46.28252", "fcl": "P"}, {"name": "Antone\u015fti", "population": 0, "countryName": "Moldova", "adminName1": "\u015etefan-Vod\u0103", "fclName": "city, village,...", "countryCode": "MD", "lng": "29.84861", "toponymName": "Antone\u015fti", "fcode": "PPL", "fcodeName": "populated place", "countryId": "617790", "adminCode1": "88", "geonameId": 618637, "lat": "46.49611", "fcl": "P"}, {"name": "Novosavi\u0163caia", "population": 0, "countryName": "Moldova", "adminName1": "St\u00eenga Nistrului", "fclName": "city, village,...", "countryCode": "MD", "lng": "29.86861", "toponymName": "Novosavi\u0163caia", "fcode": "PPL", "fcodeName": "populated place", "countryId": "617790", "adminCode1": "58", "geonameId": 617710, "lat": "46.80611", "fcl": "P"}, {"name": "Constantinovca", "population": 0, "countryName": "Moldova", "adminName1": "St\u00eenga Nistrului", "fclName": "city, village,...", "countryCode": "MD", "lng": "29.84583", "toponymName": "Constantinovca", "fcode": "PPL", "fcodeName": "populated place", "countryId": "617790", "adminCode1": "58", "geonameId": 618033, "lat": "46.85222", "fcl": "P"}, {"name": "Khutor Vladimirovka", "population": 0, "countryName": "Moldova", "adminName1": "St\u00eenga Nistrului", "fclName": "city, village,...", "countryCode": "MD", "lng": "29.79472", "toponymName": "Khutor Vladimirovka", "fcode": "PPL", "fcodeName": "populated place", "countryId": "617790", "adminCode1": "58", "geonameId": 618087, "lat": "46.83389", "fcl": "P"}, {"name": "Adjiler", "population": 0, "countryName": "Moldova", "adminName1": "\u015etefan-Vod\u0103", "fclName": "city, village,...", "countryCode": "MD", "lng": "29.62083", "toponymName": "Adjiler", "fcode": "PPL", "fcodeName": "populated place", "countryId": "617790", "adminCode1": "88", "geonameId": 618104, "lat": "46.49278", "fcl": "P"}, {"name": "Kalkatova Balka", "population": 0, "countryName": "Moldova", "adminName1": "St\u00eenga Nistrului", "fclName": "city, village,...", "countryCode": "MD", "lng": "29.67056", "toponymName": "Kalkatova Balka", "fcode": "PPL", "fcodeName": "populated place", "countryId": "617790", "adminCode1": "58", "geonameId": 618156, "lat": "46.85583", "fcl": "P"}, {"name": "Velykorybal\u2019s\u2019ke", "population": 0, "countryName": "Ukraine", "adminName1": "Odessa", "fclName": "city, village,...", "countryCode": "UA", "lng": "29.84528", "toponymName": "Velykorybal\u2019s\u2019ke", "fcode": "PPL", "fcodeName": "populated place", "countryId": "690791", "adminCode1": "17", "geonameId": 863681, "lat": "46.07639", "fcl": "P"}, {"name": "Kamyshivka Persha", "population": 0, "countryName": "Ukraine", "adminName1": "Odessa", "fclName": "city, village,...", "countryCode": "UA", "lng": "29.85156", "toponymName": "Kamyshivka Persha", "fcode": "PPL", "fcodeName": "populated place", "countryId": "690791", "adminCode1": "17", "geonameId": 863682, "lat": "46.21162", "fcl": "P"}, {"name": "Luhove", "population": 0, "countryName": "Ukraine", "adminName1": "Odessa", "fclName": "city, village,...", "countryCode": "UA", "lng": "29.83167", "toponymName": "Luhove", "fcode": "PPL", "fcodeName": "populated place", "countryId": "690791", "adminCode1": "17", "geonameId": 863683, "lat": "46.25361", "fcl": "P"}, {"name": "Kamenka", "population": 0, "countryName": "Ukraine", "adminName1": "Odessa", "fclName": "city, village,...", "countryCode": "UA", "lng": "29.64333", "toponymName": "Kamenka", "fcode": "PPL", "fcodeName": "populated place", "countryId": "690791", "adminCode1": "17", "geonameId": 863684, "lat": "46.17917", "fcl": "P"}, {"name": "Nova Ivanivka", "population": 0, "countryName": "Ukraine", "adminName1": "Odessa", "fclName": "city, village,...", "countryCode": "UA", "lng": "29.64028", "toponymName": "Nova Ivanivka", "fcode": "PPL", "fcodeName": "populated place", "countryId": "690791", "adminCode1": "17", "geonameId": 863685, "lat": "46.18972", "fcl": "P"}, {"name": "Pasichne", "population": 0, "countryName": "Ukraine", "adminName1": "Odessa", "fclName": "city, village,...", "countryCode": "UA", "lng": "29.61871", "toponymName": "Pasichne", "fcode": "PPL", "fcodeName": "populated place", "countryId": "690791", "adminCode1": "17", "geonameId": 864083, "lat": "46.20126", "fcl": "P"}, {"name": "Pavlivka", "population": 738, "countryName": "Ukraine", "adminName1": "Odessa", "fclName": "city, village,...", "countryCode": "UA", "lng": "29.98683", "toponymName": "Pavlivka", "fcode": "PPL", "fcodeName": "populated place", "countryId": "690791", "adminCode1": "17", "geonameId": 864124, "lat": "46.76044", "fcl": "P"}, {"name": "Luchyns\u2019ke", "population": 0, "countryName": "Ukraine", "adminName1": "Odessa", "fclName": "city, village,...", "countryCode": "UA", "lng": "29.94875", "toponymName": "Luchyns\u2019ke", "fcode": "PPL", "fcodeName": "populated place", "countryId": "690791", "adminCode1": "17", "geonameId": 864126, "lat": "46.86197", "fcl": "P"}, {"name": "Oleh", "population": 0, "countryName": "Ukraine", "adminName1": "Odessa", "fclName": "city, village,...", "countryCode": "UA", "lng": "29.74573", "toponymName": "Oleh", "fcode": "PPL", "fcodeName": "populated place", "countryId": "690791", "adminCode1": "17", "geonameId": 864127, "lat": "46.92567", "fcl": "P"}, {"name": "Yurkivka", "population": 0, "countryName": "Ukraine", "adminName1": "Odessa", "fclName": "city, village,...", "countryCode": "UA", "lng": "29.82329", "toponymName": "Yurkivka", "fcode": "PPL", "fcodeName": "populated place", "countryId": "690791", "adminCode1": "17", "geonameId": 864128, "lat": "46.9926", "fcl": "P"}, {"name": "Trud-Hrebenyk", "population": 0, "countryName": "Ukraine", "adminName1": "Odessa", "fclName": "city, village,...", "countryCode": "UA", "lng": "29.89681", "toponymName": "Trud-Hrebenyk", "fcode": "PPL", "fcodeName": "populated place", "countryId": "690791", "adminCode1": "17", "geonameId": 864130, "lat": "46.90918", "fcl": "P"}, {"name": "Plavneve", "population": 0, "countryName": "Ukraine", "adminName1": "Odessa", "fclName": "city, village,...", "countryCode": "UA", "lng": "29.93813", "toponymName": "Plavneve", "fcode": "PPL", "fcodeName": "populated place", "countryId": "690791", "adminCode1": "17", "geonameId": 864131, "lat": "46.93974", "fcl": "P"}, {"name": "Novokrasne", "population": 0, "countryName": "Ukraine", "adminName1": "Odessa", "fclName": "city, village,...", "countryCode": "UA", "lng": "29.97357", "toponymName": "Novokrasne", "fcode": "PPL", "fcodeName": "populated place", "countryId": "690791", "adminCode1": "17", "geonameId": 864132, "lat": "46.7953", "fcl": "P"}, {"name": "Vii\u015foara", "population": 0, "countryName": "Moldova", "adminName1": "\u015etefan-Vod\u0103", "fclName": "city, village,...", "countryCode": "MD", "lng": "29.82556", "toponymName": "Vii\u015foara", "fcode": "PPL", "fcodeName": "populated place", "countryId": "617790", "adminCode1": "88", "geonameId": 831482, "lat": "46.54694", "fcl": "P"}, {"name": "R\u0103sc\u0103ie\u0163ii Noi", "population": 0, "countryName": "Moldova", "adminName1": "\u015etefan-Vod\u0103", "fclName": "city, village,...", "countryCode": "MD", "lng": "29.77333", "toponymName": "R\u0103sc\u0103ie\u0163ii Noi", "fcode": "PPL", "fcodeName": "populated place", "countryId": "617790", "adminCode1": "88", "geonameId": 831483, "lat": "46.5325", "fcl": "P"}, {"name": "Roshiye", "population": 0, "countryName": "Ukraine", "adminName1": "Odessa", "fclName": "city, village,...", "countryCode": "UA", "lng": "30.1", "toponymName": "Roshiye", "fcode": "PPL", "fcodeName": "populated place", "countryId": "690791", "adminCode1": "17", "geonameId": 695451, "lat": "46.33333", "fcl": "P"}, {"name": "Roksolany", "population": 0, "countryName": "Ukraine", "adminName1": "Odessa", "fclName": "city, village,...", "countryCode": "UA", "lng": "30.45461", "toponymName": "Roksolany", "fcode": "PPL", "fcodeName": "populated place", "countryId": "690791", "adminCode1": "17", "geonameId": 695513, "lat": "46.17432", "fcl": "P"}, {"name": "Potashenkovo", "population": 0, "countryName": "Ukraine", "adminName1": "Odessa", "fclName": "city, village,...", "countryCode": "UA", "lng": "30.33033", "toponymName": "Potashenkovo", "fcode": "PPL", "fcodeName": "populated place", "countryId": "690791", "adminCode1": "17", "geonameId": 696431, "lat": "46.87706", "fcl": "P"}, {"name": "Ponyatovka", "population": 0, "countryName": "Ukraine", "adminName1": "Odessa", "fclName": "city, village,...", "countryCode": "UA", "lng": "30.16592", "toponymName": "Ponyatovka", "fcode": "PPL", "fcodeName": "populated place", "countryId": "690791", "adminCode1": "17", "geonameId": 696570, "lat": "46.90332", "fcl": "P"}, {"name": "Polevoye", "population": 0, "countryName": "Ukraine", "adminName1": "Odessa", "fclName": "city, village,...", "countryCode": "UA", "lng": "30.2233", "toponymName": "Polevoye", "fcode": "PPL", "fcodeName": "populated place", "countryId": "690791", "adminCode1": "17", "geonameId": 696699, "lat": "46.12577", "fcl": "P"}, {"name": "Podkoliny", "population": 0, "countryName": "Ukraine", "adminName1": "Odessa", "fclName": "city, village,...", "countryCode": "UA", "lng": "30.06667", "toponymName": "Podkoliny", "fcode": "PPL", "fcodeName": "populated place", "countryId": "690791", "adminCode1": "17", "geonameId": 696923, "lat": "47.03333", "fcl": "P"}, {"name": "Platonivka", "population": 0, "countryName": "Ukraine", "adminName1": "Odessa", "fclName": "city, village,...", "countryCode": "UA", "lng": "29.72339", "toponymName": "Platonivka", "fcode": "PPL", "fcodeName": "populated place", "countryId": "690791", "adminCode1": "17", "geonameId": 697122, "lat": "47.06454", "fcl": "P"}, {"name": "Petrodolinskoye", "population": 0, "countryName": "Ukraine", "adminName1": "Odessa", "fclName": "city, village,...", "countryCode": "UA", "lng": "30.4028", "toponymName": "Petrodolinskoye", "fcode": "PPL", "fcodeName": "populated place", "countryId": "690791", "adminCode1": "17", "geonameId": 697445, "lat": "46.4349", "fcl": "P"}, {"name": "Pervomayskiy", "population": 0, "countryName": "Ukraine", "adminName1": "Odessa", "fclName": "city, village,...", "countryCode": "UA", "lng": "30.55", "toponymName": "Pervomayskiy", "fcode": "PPL", "fcodeName": "populated place", "countryId": "690791", "adminCode1": "17", "geonameId": 697587, "lat": "46.18333", "fcl": "P"}, {"name": "Parkantsy", "population": 0, "countryName": "Ukraine", "adminName1": "Odessa", "fclName": "city, village,...", "countryCode": "UA", "lng": "30.04629", "toponymName": "Parkantsy", "fcode": "PPL", "fcodeName": "populated place", "countryId": "690791", "adminCode1": "17", "geonameId": 697977, "lat": "46.94408", "fcl": "P"}, {"name": "Paliyevka", "population": 0, "countryName": "Ukraine", "adminName1": "Odessa", "fclName": "city, village,...", "countryCode": "UA", "lng": "30.47109", "toponymName": "Paliyevka", "fcode": "PPL", "fcodeName": "populated place", "countryId": "690791", "adminCode1": "17", "geonameId": 698044, "lat": "46.6472", "fcl": "P"}, {"name": "Orel", "population": 0, "countryName": "Ukraine", "adminName1": "Odessa", "fclName": "city, village,...", "countryCode": "UA", "lng": "29.77778", "toponymName": "Orel", "fcode": "PPL", "fcodeName": "populated place", "countryId": "690791", "adminCode1": "17", "geonameId": 698406, "lat": "47.02213", "fcl": "P"}, {"name": "Ochererovka", "population": 0, "countryName": "Ukraine", "adminName1": "Odessa", "fclName": "city, village,...", "countryCode": "UA", "lng": "30.16667", "toponymName": "Ochererovka", "fcode": "PPL", "fcodeName": "populated place", "countryId": "690791", "adminCode1": "17", "geonameId": 698761, "lat": "46.73333", "fcl": "P"}, {"name": "Novyy Grebenik", "population": 0, "countryName": "Ukraine", "adminName1": "Odessa", "fclName": "city, village,...", "countryCode": "UA", "lng": "30.08367", "toponymName": "Novyy Grebenik", "fcode": "PPL", "fcodeName": "populated place", "countryId": "690791", "adminCode1": "17", "geonameId": 698911, "lat": "46.92053", "fcl": "P"}, {"name": "Novyy", "population": 0, "countryName": "Ukraine", "adminName1": "Odessa", "fclName": "city, village,...", "countryCode": "UA", "lng": "30.31667", "toponymName": "Novyy", "fcode": "PPL", "fcodeName": "populated place", "countryId": "690791", "adminCode1": "17", "geonameId": 698963, "lat": "46.6", "fcl": "P"}, {"name": "Novo-Vandalinovka", "population": 0, "countryName": "Ukraine", "adminName1": "Odessa", "fclName": "city, village,...", "countryCode": "UA", "lng": "30.5", "toponymName": "Novo-Vandalinovka", "fcode": "PPL", "fcodeName": "populated place", "countryId": "690791", "adminCode1": "17", "geonameId": 699062, "lat": "46.9", "fcl": "P"}, {"name": "Rostovtsevo", "population": 0, "countryName": "Ukraine", "adminName1": "Odessa", "fclName": "city, village,...", "countryCode": "UA", "lng": "30.28333", "toponymName": "Rostovtsevo", "fcode": "PPL", "fcodeName": "populated place", "countryId": "690791", "adminCode1": "17", "geonameId": 699248, "lat": "46.91667", "fcl": "P"}, {"name": "Novogradkovka", "population": 0, "countryName": "Ukraine", "adminName1": "Odessa", "fclName": "city, village,...", "countryCode": "UA", "lng": "30.48148", "toponymName": "Novogradkovka", "fcode": "PPL", "fcodeName": "populated place", "countryId": "690791", "adminCode1": "17", "geonameId": 699590, "lat": "46.3593", "fcl": "P"}, {"name": "Novo-Dmitriyevka", "population": 0, "countryName": "Ukraine", "adminName1": "Odessa", "fclName": "city, village,...", "countryCode": "UA", "lng": "30.29933", "toponymName": "Novo-Dmitriyevka", "fcode": "PPL", "fcodeName": "populated place", "countryId": "690791", "adminCode1": "17", "geonameId": 699630, "lat": "46.78528", "fcl": "P"}, {"name": "Novo-Belyayevka", "population": 0, "countryName": "Ukraine", "adminName1": "Odessa", "fclName": "city, village,...", "countryCode": "UA", "lng": "30.43333", "toponymName": "Novo-Belyayevka", "fcode": "PPL", "fcodeName": "populated place", "countryId": "690791", "adminCode1": "17", "geonameId": 699666, "lat": "46.55", "fcl": "P"}, {"name": "Dobroaleksandrovka", "population": 0, "countryName": "Ukraine", "adminName1": "Odessa", "fclName": "city, village,...", "countryCode": "UA", "lng": "30.4849", "toponymName": "Dobroaleksandrovka", "fcode": "PPL", "fcodeName": "populated place", "countryId": "690791", "adminCode1": "17", "geonameId": 709916, "lat": "46.33861", "fcl": "P"}, {"name": "Cherkesy", "population": 0, "countryName": "Ukraine", "adminName1": "Odessa", "fclName": "city, village,...", "countryCode": "UA", "lng": "30.21225", "toponymName": "Cherkesy", "fcode": "PPL", "fcodeName": "populated place", "countryId": "690791", "adminCode1": "17", "geonameId": 710789, "lat": "46.07815", "fcl": "P"}, {"name": "Buhay", "population": 0, "countryName": "Ukraine", "adminName1": "Odessa", "fclName": "city, village,...", "countryCode": "UA", "lng": "29.85183", "toponymName": "Buhay", "fcode": "PPL", "fcodeName": "populated place", "countryId": "690791", "adminCode1": "17", "geonameId": 711249, "lat": "46.92189", "fcl": "P"}, {"name": "Tsezarevka", "population": 0, "countryName": "Ukraine", "adminName1": "Odessa", "fclName": "city, village,...", "countryCode": "UA", "lng": "30.3", "toponymName": "Tsezarevka", "fcode": "PPL", "fcodeName": "populated place", "countryId": "690791", "adminCode1": "17", "geonameId": 711313, "lat": "47", "fcl": "P"}, {"name": "Bol\u2019shaya Balka", "population": 0, "countryName": "Ukraine", "adminName1": "Odessa", "fclName": "city, village,...", "countryCode": "UA", "lng": "30.6", "toponymName": "Bol\u2019shaya Balka", "fcode": "PPL", "fcodeName": "populated place", "countryId": "690791", "adminCode1": "17", "geonameId": 711820, "lat": "46.56667", "fcl": "P"}, {"name": "Betsilovo", "population": 0, "countryName": "Ukraine", "adminName1": "Odessa", "fclName": "city, village,...", "countryCode": "UA", "lng": "30.25058", "toponymName": "Betsilovo", "fcode": "PPL", "fcodeName": "populated place", "countryId": "690791", "adminCode1": "17", "geonameId": 712211, "lat": "46.86785", "fcl": "P"}, {"name": "Berbery", "population": 0, "countryName": "Ukraine", "adminName1": "Odessa", "fclName": "city, village,...", "countryCode": "UA", "lng": "30.28333", "toponymName": "Berbery", "fcode": "PPL", "fcodeName": "populated place", "countryId": "690791", "adminCode1": "17", "geonameId": 712461, "lat": "47.05", "fcl": "P"}, {"name": "Baraboy Vtoroy", "population": 0, "countryName": "Ukraine", "adminName1": "Odessa", "fclName": "city, village,...", "countryCode": "UA", "lng": "30.51667", "toponymName": "Baraboy Vtoroy", "fcode": "PPL", "fcodeName": "populated place", "countryId": "690791", "adminCode1": "17", "geonameId": 712851, "lat": "46.26667", "fcl": "P"}, {"name": "Balkovka", "population": 0, "countryName": "Ukraine", "adminName1": "Odessa", "fclName": "city, village,...", "countryCode": "UA", "lng": "30.5978", "toponymName": "Balkovka", "fcode": "PPL", "fcodeName": "populated place", "countryId": "690791", "adminCode1": "17", "geonameId": 712890, "lat": "46.84904", "fcl": "P"}, {"name": "Balkovka", "population": 0, "countryName": "Ukraine", "adminName1": "Odessa", "fclName": "city, village,...", "countryCode": "UA", "lng": "30.16609", "toponymName": "Balkovka", "fcode": "PPL", "fcodeName": "populated place", "countryId": "690791", "adminCode1": "17", "geonameId": 712891, "lat": "46.84846", "fcl": "P"}, {"name": "Bakalovo", "population": 0, "countryName": "Ukraine", "adminName1": "Odessa", "fclName": "city, village,...", "countryCode": "UA", "lng": "30.11524", "toponymName": "Bakalovo", "fcode": "PPL", "fcodeName": "populated place", "countryId": "690791", "adminCode1": "17", "geonameId": 712975, "lat": "46.882", "fcl": "P"}, {"name": "Atestovo", "population": 0, "countryName": "Ukraine", "adminName1": "Odessa", "fclName": "city, village,...", "countryCode": "UA", "lng": "30.548", "toponymName": "Atestovo", "fcode": "PPL", "fcodeName": "populated place", "countryId": "690791", "adminCode1": "17", "geonameId": 713135, "lat": "46.63271", "fcl": "P"}, {"name": "Amvrosiyevo", "population": 0, "countryName": "Ukraine", "adminName1": "Odessa", "fclName": "city, village,...", "countryCode": "UA", "lng": "30.08333", "toponymName": "Amvrosiyevo", "fcode": "PPL", "fcodeName": "populated place", "countryId": "690791", "adminCode1": "17", "geonameId": 713503, "lat": "46.81667", "fcl": "P"}, {"name": "Nalivaykovo", "population": 0, "countryName": "Ukraine", "adminName1": "Odessa", "fclName": "city, village,...", "countryCode": "UA", "lng": "30.10079", "toponymName": "Nalivaykovo", "fcode": "PPL", "fcodeName": "populated place", "countryId": "690791", "adminCode1": "17", "geonameId": 700463, "lat": "47.03625", "fcl": "P"}, {"name": "Nadlimanskoye", "population": 0, "countryName": "Ukraine", "adminName1": "Odessa", "fclName": "city, village,...", "countryCode": "UA", "lng": "30.33329", "toponymName": "Nadlimanskoye", "fcode": "PPL", "fcodeName": "populated place", "countryId": "690791", "adminCode1": "17", "geonameId": 700512, "lat": "46.37404", "fcl": "P"}, {"name": "Mirnoye", "population": 0, "countryName": "Ukraine", "adminName1": "Odessa", "fclName": "city, village,...", "countryCode": "UA", "lng": "30.36667", "toponymName": "Mirnoye", "fcode": "PPL", "fcodeName": "populated place", "countryId": "690791", "adminCode1": "17", "geonameId": 701063, "lat": "46.46667", "fcl": "P"}, {"name": "Milliardovka", "population": 0, "countryName": "Ukraine", "adminName1": "Odessa", "fclName": "city, village,...", "countryCode": "UA", "lng": "30.20472", "toponymName": "Milliardovka", "fcode": "PPL", "fcodeName": "populated place", "countryId": "690791", "adminCode1": "17", "geonameId": 701112, "lat": "46.75245", "fcl": "P"}, {"name": "Mikhaylovka", "population": 0, "countryName": "Ukraine", "adminName1": "Odessa", "fclName": "city, village,...", "countryCode": "UA", "lng": "30.26819", "toponymName": "Mikhaylovka", "fcode": "PPL", "fcodeName": "populated place", "countryId": "690791", "adminCode1": "17", "geonameId": 701238, "lat": "46.67733", "fcl": "P"}, {"name": "Matyshevka", "population": 0, "countryName": "Ukraine", "adminName1": "Odessa", "fclName": "city, village,...", "countryCode": "UA", "lng": "30.0548", "toponymName": "Matyshevka", "fcode": "PPL", "fcodeName": "populated place", "countryId": "690791", "adminCode1": "17", "geonameId": 701574, "lat": "46.83356", "fcl": "P"}, {"name": "Malolyubovka", "population": 0, "countryName": "Ukraine", "adminName1": "Odessa", "fclName": "city, village,...", "countryCode": "UA", "lng": "30", "toponymName": "Malolyubovka", "fcode": "PPL", "fcodeName": "populated place", "countryId": "690791", "adminCode1": "17", "geonameId": 702068, "lat": "46.81667", "fcl": "P"}, {"name": "Lyubotayevka", "population": 0, "countryName": "Ukraine", "adminName1": "Odessa", "fclName": "city, village,...", "countryCode": "UA", "lng": "30.56613", "toponymName": "Lyubotayevka", "fcode": "PPL", "fcodeName": "populated place", "countryId": "690791", "adminCode1": "17", "geonameId": 702418, "lat": "47.05399", "fcl": "P"}, {"name": "Krasnyy Pereselenets", "population": 0, "countryName": "Ukraine", "adminName1": "Odessa", "fclName": "city, village,...", "countryCode": "UA", "lng": "30.45", "toponymName": "Krasnyy Pereselenets", "fcode": "PPL", "fcodeName": "populated place", "countryId": "690791", "adminCode1": "17", "geonameId": 704188, "lat": "46.46667", "fcl": "P"}, {"name": "Kozlovka", "population": 0, "countryName": "Ukraine", "adminName1": "Odessa", "fclName": "city, village,...", "countryCode": "UA", "lng": "30.45413", "toponymName": "Kozlovka", "fcode": "PPL", "fcodeName": "populated place", "countryId": "690791", "adminCode1": "17", "geonameId": 704536, "lat": "47.06956", "fcl": "P"}, {"name": "Tudorovo", "population": 0, "countryName": "Ukraine", "adminName1": "", "fclName": "city, village,...", "countryCode": "UA", "lng": "30.05", "toponymName": "Tudorovo", "fcode": "PPL", "fcodeName": "populated place", "countryId": "690791", "adminCode1": "00", "geonameId": 686731, "lat": "46.43333", "fcl": "P"}, {"name": "Zhelty Khutor", "population": 0, "countryName": "Ukraine", "adminName1": "Odessa", "fclName": "city, village,...", "countryCode": "UA", "lng": "30.46667", "toponymName": "Zhelty Khutor", "fcode": "PPL", "fcodeName": "populated place", "countryId": "690791", "adminCode1": "17", "geonameId": 687194, "lat": "46.85", "fcl": "P"}, {"name": "Yuzhnoye", "population": 0, "countryName": "Ukraine", "adminName1": "Odessa", "fclName": "city, village,...", "countryCode": "UA", "lng": "30.15", "toponymName": "Yuzhnoye", "fcode": "PPL", "fcodeName": "populated place", "countryId": "690791", "adminCode1": "17", "geonameId": 687993, "lat": "46.26667", "fcl": "P"}, {"name": "Yeremeyevka", "population": 0, "countryName": "Ukraine", "adminName1": "Odessa", "fclName": "city, village,...", "countryCode": "UA", "lng": "30.37225", "toponymName": "Yeremeyevka", "fcode": "PPL", "fcodeName": "populated place", "countryId": "690791", "adminCode1": "17", "geonameId": 688135, "lat": "46.79282", "fcl": "P"}, {"name": "Yakovlivka", "population": 0, "countryName": "Ukraine", "adminName1": "Odessa", "fclName": "city, village,...", "countryCode": "UA", "lng": "29.96121", "toponymName": "Yakovlivka", "fcode": "PPL", "fcodeName": "populated place", "countryId": "690791", "adminCode1": "17", "geonameId": 688559, "lat": "46.86347", "fcl": "P"}, {"name": "Vorovskiy", "population": 0, "countryName": "Ukraine", "adminName1": "Odessa", "fclName": "city, village,...", "countryCode": "UA", "lng": "30.4", "toponymName": "Vorovskiy", "fcode": "PPL", "fcodeName": "populated place", "countryId": "690791", "adminCode1": "17", "geonameId": 688964, "lat": "46.65", "fcl": "P"}, {"name": "Vinogradar\u2019", "population": 0, "countryName": "Ukraine", "adminName1": "Odessa", "fclName": "city, village,...", "countryCode": "UA", "lng": "30.34644", "toponymName": "Vinogradar\u2019", "fcode": "PPL", "fcodeName": "populated place", "countryId": "690791", "adminCode1": "17", "geonameId": 689554, "lat": "46.67213", "fcl": "P"}, {"name": "Vazhnyy", "population": 0, "countryName": "Ukraine", "adminName1": "Odessa", "fclName": "city, village,...", "countryCode": "UA", "lng": "30.45056", "toponymName": "Vazhnyy", "fcode": "PPL", "fcodeName": "populated place", "countryId": "690791", "adminCode1": "17", "geonameId": 690306, "lat": "46.57032", "fcl": "P"}, {"name": "Vakulovka", "population": 0, "countryName": "Ukraine", "adminName1": "Odessa", "fclName": "city, village,...", "countryCode": "UA", "lng": "30.31818", "toponymName": "Vakulovka", "fcode": "PPL", "fcodeName": "populated place", "countryId": "690791", "adminCode1": "17", "geonameId": 690522, "lat": "46.69428", "fcl": "P"}, {"name": "Konoplyanoye", "population": 0, "countryName": "Ukraine", "adminName1": "Odessa", "fclName": "city, village,...", "countryCode": "UA", "lng": "30.47812", "toponymName": "Konoplyanoye", "fcode": "PPL", "fcodeName": "populated place", "countryId": "690791", "adminCode1": "17", "geonameId": 705139, "lat": "47.04619", "fcl": "P"}, {"name": "Kistel\u2019nytsya", "population": 0, "countryName": "Ukraine", "adminName1": "Odessa", "fclName": "city, village,...", "countryCode": "UA", "lng": "29.74077", "toponymName": "Kistel\u2019nytsya", "fcode": "PPL", "fcodeName": "populated place", "countryId": "690791", "adminCode1": "17", "geonameId": 705748, "lat": "47.06438", "fcl": "P"}, {"name": "Khutor Shimiotovo", "population": 0, "countryName": "Ukraine", "adminName1": "Odessa", "fclName": "city, village,...", "countryCode": "UA", "lng": "30.46667", "toponymName": "Khutor Shimiotovo", "fcode": "PPL", "fcodeName": "populated place", "countryId": "690791", "adminCode1": "17", "geonameId": 705986, "lat": "46.83333", "fcl": "P"}, {"name": "Khutor Novyy Iozefstal\u2019", "population": 0, "countryName": "Ukraine", "adminName1": "Odessa", "fclName": "city, village,...", "countryCode": "UA", "lng": "30.48333", "toponymName": "Khutor Novyy Iozefstal\u2019", "fcode": "PPL", "fcodeName": "populated place", "countryId": "690791", "adminCode1": "17", "geonameId": 706030, "lat": "46.66667", "fcl": "P"}, {"name": "Khutor Betsilivs\u2019kiy", "population": 0, "countryName": "Ukraine", "adminName1": "Odessa", "fclName": "city, village,...", "countryCode": "UA", "lng": "30.28333", "toponymName": "Khutor Betsilivs\u2019kiy", "fcode": "PPL", "fcodeName": "populated place", "countryId": "690791", "adminCode1": "17", "geonameId": 706128, "lat": "46.86667", "fcl": "P"}, {"name": "Khristianovka", "population": 0, "countryName": "Ukraine", "adminName1": "Odessa", "fclName": "city, village,...", "countryCode": "UA", "lng": "30.43333", "toponymName": "Khristianovka", "fcode": "PPL", "fcodeName": "populated place", "countryId": "690791", "adminCode1": "17", "geonameId": 706201, "lat": "46.71667", "fcl": "P"}, {"name": "Kamenka", "population": 0, "countryName": "Ukraine", "adminName1": "Odessa", "fclName": "city, village,...", "countryCode": "UA", "lng": "30.24121", "toponymName": "Kamenka", "fcode": "PPL", "fcodeName": "populated place", "countryId": "690791", "adminCode1": "17", "geonameId": 707069, "lat": "46.63528", "fcl": "P"}, {"name": "Kalantayevka", "population": 0, "countryName": "Ukraine", "adminName1": "Odessa", "fclName": "city, village,...", "countryCode": "UA", "lng": "30.28114", "toponymName": "Kalantayevka", "fcode": "PPL", "fcodeName": "populated place", "countryId": "690791", "adminCode1": "17", "geonameId": 707225, "lat": "46.7208", "fcl": "P"}, {"name": "Iosipovka", "population": 0, "countryName": "Ukraine", "adminName1": "Odessa", "fclName": "city, village,...", "countryCode": "UA", "lng": "30.43728", "toponymName": "Iosipovka", "fcode": "PPL", "fcodeName": "populated place", "countryId": "690791", "adminCode1": "17", "geonameId": 707582, "lat": "46.40623", "fcl": "P"}, {"name": "Hnylyakove", "population": 0, "countryName": "Ukraine", "adminName1": "Odessa", "fclName": "city, village,...", "countryCode": "UA", "lng": "30.55", "toponymName": "Hnylyakove", "fcode": "PPL", "fcodeName": "populated place", "countryId": "690791", "adminCode1": "17", "geonameId": 707756, "lat": "46.58333", "fcl": "P"}, {"name": "Gribovka", "population": 450, "countryName": "Ukraine", "adminName1": "Odessa", "fclName": "city, village,...", "countryCode": "UA", "lng": "30.56601", "toponymName": "Gribovka", "fcode": "PPL", "fcodeName": "populated place", "countryId": "690791", "adminCode1": "17", "geonameId": 708126, "lat": "46.20941", "fcl": "P"}, {"name": "Hrebenyky", "population": 0, "countryName": "Ukraine", "adminName1": "Odessa", "fclName": "city, village,...", "countryCode": "UA", "lng": "29.80777", "toponymName": "Hrebenyky", "fcode": "PPL", "fcodeName": "populated place", "countryId": "690791", "adminCode1": "17", "geonameId": 708185, "lat": "46.8897", "fcl": "P"}, {"name": "Hayivka", "population": 0, "countryName": "Ukraine", "adminName1": "Odessa", "fclName": "city, village,...", "countryCode": "UA", "lng": "29.9262", "toponymName": "Hayivka", "fcode": "PPL", "fcodeName": "populated place", "countryId": "690791", "adminCode1": "17", "geonameId": 708906, "lat": "46.91158", "fcl": "P"}, {"name": "Turlaki", "population": 0, "countryName": "Ukraine", "adminName1": "Odessa", "fclName": "city, village,...", "countryCode": "UA", "lng": "30.25", "toponymName": "Turlaki", "fcode": "PPL", "fcodeName": "populated place", "countryId": "690791", "adminCode1": "17", "geonameId": 690955, "lat": "46.18333", "fcl": "P"}, {"name": "Tamarovka", "population": 0, "countryName": "Ukraine", "adminName1": "Odessa", "fclName": "city, village,...", "countryCode": "UA", "lng": "30.08333", "toponymName": "Tamarovka", "fcode": "PPL", "fcodeName": "populated place", "countryId": "690791", "adminCode1": "17", "geonameId": 691928, "lat": "46.78333", "fcl": "P"}, {"name": "Sukhomlinovo", "population": 0, "countryName": "Ukraine", "adminName1": "Odessa", "fclName": "city, village,...", "countryCode": "UA", "lng": "30.3628", "toponymName": "Sukhomlinovo", "fcode": "PPL", "fcodeName": "populated place", "countryId": "690791", "adminCode1": "17", "geonameId": 692242, "lat": "46.97638", "fcl": "P"}, {"name": "Strasburg", "population": 0, "countryName": "Ukraine", "adminName1": "Odessa", "fclName": "city, village,...", "countryCode": "UA", "lng": "30.06667", "toponymName": "Strasburg", "fcode": "PPL", "fcodeName": "populated place", "countryId": "690791", "adminCode1": "17", "geonameId": 692462, "lat": "46.08333", "fcl": "P"}, {"name": "Stepanivka", "population": 1720, "countryName": "Ukraine", "adminName1": "Odessa", "fclName": "city, village,...", "countryCode": "UA", "lng": "29.98684", "toponymName": "Stepanivka", "fcode": "PPL", "fcodeName": "populated place", "countryId": "690791", "adminCode1": "17", "geonameId": 692604, "lat": "46.79489", "fcl": "P"}, {"name": "Slobodzeya", "population": 0, "countryName": "Ukraine", "adminName1": "Odessa", "fclName": "city, village,...", "countryCode": "UA", "lng": "30.1", "toponymName": "Slobodzeya", "fcode": "PPL", "fcodeName": "populated place", "countryId": "690791", "adminCode1": "17", "geonameId": 693483, "lat": "46.88333", "fcl": "P"}, {"name": "Shirokiy", "population": 0, "countryName": "Ukraine", "adminName1": "Odessa", "fclName": "city, village,...", "countryCode": "UA", "lng": "30.03605", "toponymName": "Shirokiy", "fcode": "PPL", "fcodeName": "populated place", "countryId": "690791", "adminCode1": "17", "geonameId": 694052, "lat": "46.89763", "fcl": "P"}, {"name": "Shirokaya Balka", "population": 0, "countryName": "Ukraine", "adminName1": "Odessa", "fclName": "city, village,...", "countryCode": "UA", "lng": "30.35385", "toponymName": "Shirokaya Balka", "fcode": "PPL", "fcodeName": "populated place", "countryId": "690791", "adminCode1": "17", "geonameId": 694062, "lat": "46.53509", "fcl": "P"}, {"name": "Shimke", "population": 0, "countryName": "Ukraine", "adminName1": "Odessa", "fclName": "city, village,...", "countryCode": "UA", "lng": "29.96667", "toponymName": "Shimke", "fcode": "PPL", "fcodeName": "populated place", "countryId": "690791", "adminCode1": "17", "geonameId": 694081, "lat": "46.15", "fcl": "P"}, {"name": "Shevchenkovo", "population": 0, "countryName": "Ukraine", "adminName1": "Odessa", "fclName": "city, village,...", "countryCode": "UA", "lng": "30.09965", "toponymName": "Shevchenkovo", "fcode": "PPL", "fcodeName": "populated place", "countryId": "690791", "adminCode1": "17", "geonameId": 694147, "lat": "46.9409", "fcl": "P"}, {"name": "Sherovo", "population": 0, "countryName": "Ukraine", "adminName1": "Odessa", "fclName": "city, village,...", "countryCode": "UA", "lng": "30.4803", "toponymName": "Sherovo", "fcode": "PPL", "fcodeName": "populated place", "countryId": "690791", "adminCode1": "17", "geonameId": 694207, "lat": "47.01067", "fcl": "P"}, {"name": "Shcherbanka", "population": 0, "countryName": "Ukraine", "adminName1": "Odessa", "fclName": "city, village,...", "countryCode": "UA", "lng": "30.18636", "toponymName": "Shcherbanka", "fcode": "PPL", "fcodeName": "populated place", "countryId": "690791", "adminCode1": "17", "geonameId": 694294, "lat": "46.69338", "fcl": "P"}, {"name": "Sekretar\u00ebvka", "population": 0, "countryName": "Ukraine", "adminName1": "Odessa", "fclName": "city, village,...", "countryCode": "UA", "lng": "30.28443", "toponymName": "Sekretar\u00ebvka", "fcode": "PPL", "fcodeName": "populated place", "countryId": "690791", "adminCode1": "17", "geonameId": 694701, "lat": "46.66177", "fcl": "P"}, {"name": "Stepove", "population": 1549, "countryName": "Ukraine", "adminName1": "Odessa", "fclName": "city, village,...", "countryCode": "UA", "lng": "30.07919", "toponymName": "Stepove", "fcode": "PPL", "fcodeName": "populated place", "countryId": "690791", "adminCode1": "17", "geonameId": 7303923, "lat": "46.70385", "fcl": "P"}, {"name": "Adamovka", "population": 0, "countryName": "Ukraine", "adminName1": "Odessa", "fclName": "city, village,...", "countryCode": "UA", "lng": "30.50064", "toponymName": "Adamovka", "fcode": "PPL", "fcodeName": "populated place", "countryId": "690791", "adminCode1": "17", "geonameId": 713804, "lat": "46.89695", "fcl": "P"}, {"name": "Safronovka", "population": 0, "countryName": "Moldova", "adminName1": "St\u00eenga Nistrului", "fclName": "city, village,...", "countryCode": "MD", "lng": "29.85", "toponymName": "Safronovka", "fcode": "PPL", "fcodeName": "populated place", "countryId": "617790", "adminCode1": "58", "geonameId": 617476, "lat": "46.83333", "fcl": "P"}, {"name": "Mykhaylivka", "population": 0, "countryName": "Ukraine", "adminName1": "Odessa", "fclName": "city, village,...", "countryCode": "UA", "lng": "29.86556", "toponymName": "Mykhaylivka", "fcode": "PPL", "fcodeName": "populated place", "countryId": "690791", "adminCode1": "17", "geonameId": 864866, "lat": "47.0675", "fcl": "P"}, {"name": "Galka", "population": 0, "countryName": "Ukraine", "adminName1": "Odessa", "fclName": "city, village,...", "countryCode": "UA", "lng": "29.84472", "toponymName": "Galka", "fcode": "PPL", "fcodeName": "populated place", "countryId": "690791", "adminCode1": "17", "geonameId": 864867, "lat": "47.06722", "fcl": "P"}, {"name": "Radostnoye", "population": 0, "countryName": "Ukraine", "adminName1": "Odessa", "fclName": "city, village,...", "countryCode": "UA", "lng": "30.33928", "toponymName": "Radostnoye", "fcode": "PPL", "fcodeName": "populated place", "countryId": "690791", "adminCode1": "17", "geonameId": 695903, "lat": "47.0002", "fcl": "P"}, {"name": "Prokhorovo", "population": 0, "countryName": "Ukraine", "adminName1": "Odessa", "fclName": "city, village,...", "countryCode": "UA", "lng": "30.46722", "toponymName": "Prokhorovo", "fcode": "PPL", "fcodeName": "populated place", "countryId": "690791", "adminCode1": "17", "geonameId": 696184, "lat": "47.00484", "fcl": "P"}, {"name": "Pokrovka", "population": 453, "countryName": "Ukraine", "adminName1": "Odessa", "fclName": "city, village,...", "countryCode": "UA", "lng": "30.13893", "toponymName": "Pokrovka", "fcode": "PPL", "fcodeName": "populated place", "countryId": "690791", "adminCode1": "17", "geonameId": 696738, "lat": "46.78055", "fcl": "P"}, {"name": "Petrovskiy", "population": 0, "countryName": "Ukraine", "adminName1": "Odessa", "fclName": "city, village,...", "countryCode": "UA", "lng": "30.0298", "toponymName": "Petrovskiy", "fcode": "PPL", "fcodeName": "populated place", "countryId": "690791", "adminCode1": "17", "geonameId": 697315, "lat": "46.94552", "fcl": "P"}, {"name": "Petrovskiy", "population": 0, "countryName": "Ukraine", "adminName1": "Odessa", "fclName": "city, village,...", "countryCode": "UA", "lng": "30.37118", "toponymName": "Petrovskiy", "fcode": "PPL", "fcodeName": "populated place", "countryId": "690791", "adminCode1": "17", "geonameId": 697316, "lat": "46.58718", "fcl": "P"}, {"name": "Ol\u2019gino", "population": 0, "countryName": "Ukraine", "adminName1": "Odessa", "fclName": "city, village,...", "countryCode": "UA", "lng": "30.46667", "toponymName": "Ol\u2019gino", "fcode": "PPL", "fcodeName": "populated place", "countryId": "690791", "adminCode1": "17", "geonameId": 698581, "lat": "47", "fcl": "P"}, {"name": "Novo-Yekaterinovka", "population": 0, "countryName": "Ukraine", "adminName1": "Odessa", "fclName": "city, village,...", "countryCode": "UA", "lng": "29.75889", "toponymName": "Novo-Yekaterinovka", "fcode": "PPL", "fcodeName": "populated place", "countryId": "690791", "adminCode1": "17", "geonameId": 699010, "lat": "46.9925", "fcl": "P"}, {"name": "Novo-Kurtivka", "population": 0, "countryName": "Ukraine", "adminName1": "Odessa", "fclName": "city, village,...", "countryCode": "UA", "lng": "30.25", "toponymName": "Novo-Kurtivka", "fcode": "PPL", "fcodeName": "populated place", "countryId": "690791", "adminCode1": "17", "geonameId": 699490, "lat": "46.78333", "fcl": "P"}, {"name": "Novo-Antonivka", "population": 0, "countryName": "Ukraine", "adminName1": "Odessa", "fclName": "city, village,...", "countryCode": "UA", "lng": "30.1", "toponymName": "Novo-Antonivka", "fcode": "PPL", "fcodeName": "populated place", "countryId": "690791", "adminCode1": "17", "geonameId": 699687, "lat": "46.76667", "fcl": "P"}, {"name": "Novaya Milolyubovka", "population": 0, "countryName": "Ukraine", "adminName1": "Odessa", "fclName": "city, village,...", "countryCode": "UA", "lng": "30.06667", "toponymName": "Novaya Milolyubovka", "fcode": "PPL", "fcodeName": "populated place", "countryId": "690791", "adminCode1": "17", "geonameId": 699819, "lat": "46.81667", "fcl": "P"}, {"name": "Novaya Emetovka", "population": 0, "countryName": "Ukraine", "adminName1": "Odessa", "fclName": "city, village,...", "countryCode": "UA", "lng": "30.53255", "toponymName": "Novaya Emetovka", "fcode": "PPL", "fcodeName": "populated place", "countryId": "690791", "adminCode1": "17", "geonameId": 699863, "lat": "46.73109", "fcl": "P"}, {"name": "Novaya Betsilivka", "population": 0, "countryName": "Ukraine", "adminName1": "Odessa", "fclName": "city, village,...", "countryCode": "UA", "lng": "30.23333", "toponymName": "Novaya Betsilivka", "fcode": "PPL", "fcodeName": "populated place", "countryId": "690791", "adminCode1": "17", "geonameId": 699884, "lat": "46.88333", "fcl": "P"}, {"name": "Fominka", "population": 0, "countryName": "Ukraine", "adminName1": "Odessa", "fclName": "city, village,...", "countryCode": "UA", "lng": "30.45", "toponymName": "Fominka", "fcode": "PPL", "fcodeName": "populated place", "countryId": "690791", "adminCode1": "17", "geonameId": 709117, "lat": "46.7", "fcl": "P"}, {"name": "Dobrozhanovo", "population": 0, "countryName": "Ukraine", "adminName1": "Odessa", "fclName": "city, village,...", "countryCode": "UA", "lng": "30.335", "toponymName": "Dobrozhanovo", "fcode": "PPL", "fcodeName": "populated place", "countryId": "690791", "adminCode1": "17", "geonameId": 709863, "lat": "46.53775", "fcl": "P"}, {"name": "D\u00ebminsk", "population": 0, "countryName": "Ukraine", "adminName1": "Odessa", "fclName": "city, village,...", "countryCode": "UA", "lng": "29.95278", "toponymName": "D\u00ebminsk", "fcode": "PPL", "fcodeName": "populated place", "countryId": "690791", "adminCode1": "17", "geonameId": 710177, "lat": "46.88528", "fcl": "P"}, {"name": "Danilovka", "population": 0, "countryName": "Ukraine", "adminName1": "Odessa", "fclName": "city, village,...", "countryCode": "UA", "lng": "30.12879", "toponymName": "Danilovka", "fcode": "PPL", "fcodeName": "populated place", "countryId": "690791", "adminCode1": "17", "geonameId": 710296, "lat": "46.99307", "fcl": "P"}, {"name": "Dal\u2019nik", "population": 0, "countryName": "Ukraine", "adminName1": "Odessa", "fclName": "city, village,...", "countryCode": "UA", "lng": "30.53021", "toponymName": "Dal\u2019nik", "fcode": "PPL", "fcodeName": "populated place", "countryId": "690791", "adminCode1": "17", "geonameId": 710317, "lat": "46.22758", "fcl": "P"}, {"name": "Dachnoye", "population": 0, "countryName": "Ukraine", "adminName1": "Odessa", "fclName": "city, village,...", "countryCode": "UA", "lng": "30.54823", "toponymName": "Dachnoye", "fcode": "PPL", "fcodeName": "populated place", "countryId": "690791", "adminCode1": "17", "geonameId": 710333, "lat": "46.58442", "fcl": "P"}, {"name": "Buzinovo", "population": 0, "countryName": "Ukraine", "adminName1": "Odessa", "fclName": "city, village,...", "countryCode": "UA", "lng": "30.48569", "toponymName": "Buzinovo", "fcode": "PPL", "fcodeName": "populated place", "countryId": "690791", "adminCode1": "17", "geonameId": 711057, "lat": "46.98762", "fcl": "P"}, {"name": "Budyachki", "population": 0, "countryName": "Ukraine", "adminName1": "Odessa", "fclName": "city, village,...", "countryCode": "UA", "lng": "30.35396", "toponymName": "Budyachki", "fcode": "PPL", "fcodeName": "populated place", "countryId": "690791", "adminCode1": "17", "geonameId": 711262, "lat": "46.69745", "fcl": "P"}, {"name": "Broshevanovka", "population": 0, "countryName": "Ukraine", "adminName1": "Odessa", "fclName": "city, village,...", "countryCode": "UA", "lng": "30.16667", "toponymName": "Broshevanovka", "fcode": "PPL", "fcodeName": "populated place", "countryId": "690791", "adminCode1": "17", "geonameId": 711402, "lat": "47.06667", "fcl": "P"}, {"name": "Brinovka", "population": 0, "countryName": "Ukraine", "adminName1": "Odessa", "fclName": "city, village,...", "countryCode": "UA", "lng": "30.38217", "toponymName": "Brinovka", "fcode": "PPL", "fcodeName": "populated place", "countryId": "690791", "adminCode1": "17", "geonameId": 711432, "lat": "46.75993", "fcl": "P"}, {"name": "Bol\u2019shaya Karpivka", "population": 0, "countryName": "Ukraine", "adminName1": "Odessa", "fclName": "city, village,...", "countryCode": "UA", "lng": "30.26667", "toponymName": "Bol\u2019shaya Karpivka", "fcode": "PPL", "fcodeName": "populated place", "countryId": "690791", "adminCode1": "17", "geonameId": 711801, "lat": "46.78333", "fcl": "P"}, {"name": "Bol'shaya F\u00ebdorovka", "population": 0, "countryName": "Ukraine", "adminName1": "Odessa", "fclName": "city, village,...", "countryCode": "UA", "lng": "29.94694", "toponymName": "Bol'shaya F\u00ebdorovka", "fcode": "PPL", "fcodeName": "populated place", "countryId": "690791", "adminCode1": "17", "geonameId": 711807, "lat": "46.87611", "fcl": "P"}, {"name": "Bogunovo", "population": 0, "countryName": "Ukraine", "adminName1": "Odessa", "fclName": "city, village,...", "countryCode": "UA", "lng": "30.46069", "toponymName": "Bogunovo", "fcode": "PPL", "fcodeName": "populated place", "countryId": "690791", "adminCode1": "17", "geonameId": 711871, "lat": "47.0275", "fcl": "P"}, {"name": "Bognatovka", "population": 0, "countryName": "Ukraine", "adminName1": "Odessa", "fclName": "city, village,...", "countryCode": "UA", "lng": "30.48334", "toponymName": "Bognatovka", "fcode": "PPL", "fcodeName": "populated place", "countryId": "690791", "adminCode1": "17", "geonameId": 711902, "lat": "46.7748", "fcl": "P"}, {"name": "Blonskoye", "population": 0, "countryName": "Ukraine", "adminName1": "Odessa", "fclName": "city, village,...", "countryCode": "UA", "lng": "30.44443", "toponymName": "Blonskoye", "fcode": "PPL", "fcodeName": "populated place", "countryId": "690791", "adminCode1": "17", "geonameId": 712038, "lat": "46.86502", "fcl": "P"}, {"name": "Belousovka", "population": 0, "countryName": "Ukraine", "adminName1": "Odessa", "fclName": "city, village,...", "countryCode": "UA", "lng": "30.35", "toponymName": "Belousovka", "fcode": "PPL", "fcodeName": "populated place", "countryId": "690791", "adminCode1": "17", "geonameId": 712536, "lat": "46.83333", "fcl": "P"}, {"name": "Belka", "population": 0, "countryName": "Ukraine", "adminName1": "Odessa", "fclName": "city, village,...", "countryCode": "UA", "lng": "30.42674", "toponymName": "Belka", "fcode": "PPL", "fcodeName": "populated place", "countryId": "690791", "adminCode1": "17", "geonameId": 712609, "lat": "46.89812", "fcl": "P"}, {"name": "Baranovo", "population": 0, "countryName": "Ukraine", "adminName1": "Odessa", "fclName": "city, village,...", "countryCode": "UA", "lng": "30.4057", "toponymName": "Baranovo", "fcode": "PPL", "fcodeName": "populated place", "countryId": "690791", "adminCode1": "17", "geonameId": 712833, "lat": "46.94161", "fcl": "P"}, {"name": "Baraboy Tretiy", "population": 0, "countryName": "Ukraine", "adminName1": "Odessa", "fclName": "city, village,...", "countryCode": "UA", "lng": "30.53118", "toponymName": "Baraboy Tretiy", "fcode": "PPL", "fcodeName": "populated place", "countryId": "690791", "adminCode1": "17", "geonameId": 712852, "lat": "46.25658", "fcl": "P"}, {"name": "Anastas'yevka", "population": 0, "countryName": "Ukraine", "adminName1": "Odessa", "fclName": "city, village,...", "countryCode": "UA", "lng": "29.90056", "toponymName": "Anastas'yevka", "fcode": "PPL", "fcodeName": "populated place", "countryId": "690791", "adminCode1": "17", "geonameId": 713494, "lat": "47.02556", "fcl": "P"}, {"name": "Aleksandrovka", "population": 0, "countryName": "Ukraine", "adminName1": "Odessa", "fclName": "city, village,...", "countryCode": "UA", "lng": "30.6", "toponymName": "Aleksandrovka", "fcode": "PPL", "fcodeName": "populated place", "countryId": "690791", "adminCode1": "17", "geonameId": 713674, "lat": "46.86667", "fcl": "P"}, {"name": "Nikolayevka", "population": 0, "countryName": "Ukraine", "adminName1": "Odessa", "fclName": "city, village,...", "countryCode": "UA", "lng": "30.28889", "toponymName": "Nikolayevka", "fcode": "PPL", "fcodeName": "populated place", "countryId": "690791", "adminCode1": "17", "geonameId": 700172, "lat": "46.64013", "fcl": "P"}, {"name": "Nikaritsovo", "population": 0, "countryName": "Ukraine", "adminName1": "Odessa", "fclName": "city, village,...", "countryCode": "UA", "lng": "29.90833", "toponymName": "Nikaritsovo", "fcode": "PPL", "fcodeName": "populated place", "countryId": "690791", "adminCode1": "17", "geonameId": 700207, "lat": "46.99222", "fcl": "P"}, {"name": "Nadiya", "population": 0, "countryName": "Ukraine", "adminName1": "Odessa", "fclName": "city, village,...", "countryCode": "UA", "lng": "30.06239", "toponymName": "Nadiya", "fcode": "PPL", "fcodeName": "populated place", "countryId": "690791", "adminCode1": "17", "geonameId": 700519, "lat": "46.96276", "fcl": "P"}, {"name": "Morozovka", "population": 0, "countryName": "Ukraine", "adminName1": "Odessa", "fclName": "city, village,...", "countryCode": "UA", "lng": "30.56667", "toponymName": "Morozovka", "fcode": "PPL", "fcodeName": "populated place", "countryId": "690791", "adminCode1": "17", "geonameId": 700768, "lat": "46.66667", "fcl": "P"}, {"name": "Mologa", "population": 0, "countryName": "Ukraine", "adminName1": "Odessa", "fclName": "city, village,...", "countryCode": "UA", "lng": "30.22815", "toponymName": "Mologa", "fcode": "PPL", "fcodeName": "populated place", "countryId": "690791", "adminCode1": "17", "geonameId": 700823, "lat": "46.21643", "fcl": "P"}, {"name": "Migayevo", "population": 0, "countryName": "Ukraine", "adminName1": "Odessa", "fclName": "city, village,...", "countryCode": "UA", "lng": "30.04429", "toponymName": "Migayevo", "fcode": "PPL", "fcodeName": "populated place", "countryId": "690791", "adminCode1": "17", "geonameId": 701277, "lat": "46.98793", "fcl": "P"}, {"name": "Migai", "population": 0, "countryName": "Ukraine", "adminName1": "Odessa", "fclName": "city, village,...", "countryCode": "UA", "lng": "30.00519", "toponymName": "Migai", "fcode": "PPL", "fcodeName": "populated place", "countryId": "690791", "adminCode1": "17", "geonameId": 701280, "lat": "47.01148", "fcl": "P"}, {"name": "Michurina", "population": 0, "countryName": "Ukraine", "adminName1": "Odessa", "fclName": "city, village,...", "countryCode": "UA", "lng": "30.15", "toponymName": "Michurina", "fcode": "PPL", "fcodeName": "populated place", "countryId": "690791", "adminCode1": "17", "geonameId": 701283, "lat": "46.91667", "fcl": "P"}, {"name": "Mayaki", "population": 0, "countryName": "Ukraine", "adminName1": "Odessa", "fclName": "city, village,...", "countryCode": "UA", "lng": "30.27413", "toponymName": "Mayaki", "fcode": "PPL", "fcodeName": "populated place", "countryId": "690791", "adminCode1": "17", "geonameId": 701561, "lat": "46.41748", "fcl": "P"}, {"name": "Mar'yanovka", "population": 0, "countryName": "Ukraine", "adminName1": "Odessa", "fclName": "city, village,...", "countryCode": "UA", "lng": "29.96667", "toponymName": "Mar'yanovka", "fcode": "PPL", "fcodeName": "populated place", "countryId": "690791", "adminCode1": "17", "geonameId": 701729, "lat": "46.85", "fcl": "P"}, {"name": "Mariyenfel'd", "population": 0, "countryName": "Ukraine", "adminName1": "", "fclName": "city, village,...", "countryCode": "UA", "lng": "29.68333", "toponymName": "Mariyenfel'd", "fcode": "PPL", "fcodeName": "populated place", "countryId": "690791", "adminCode1": "00", "geonameId": 701819, "lat": "46.41667", "fcl": "P"}, {"name": "Marinovka", "population": 0, "countryName": "Ukraine", "adminName1": "Odessa", "fclName": "city, village,...", "countryCode": "UA", "lng": "30.52907", "toponymName": "Marinovka", "fcode": "PPL", "fcodeName": "populated place", "countryId": "690791", "adminCode1": "17", "geonameId": 701836, "lat": "46.75934", "fcl": "P"}, {"name": "Selyshche Manukhyna", "population": 0, "countryName": "Ukraine", "adminName1": "Odessa", "fclName": "city, village,...", "countryCode": "UA", "lng": "29.95222", "toponymName": "Selyshche Manukhyna", "fcode": "PPL", "fcodeName": "populated place", "countryId": "690791", "adminCode1": "17", "geonameId": 701885, "lat": "47.01722", "fcl": "P"}, {"name": "Maloye Festerovo", "population": 0, "countryName": "Ukraine", "adminName1": "Odessa", "fclName": "city, village,...", "countryCode": "UA", "lng": "30.5", "toponymName": "Maloye Festerovo", "fcode": "PPL", "fcodeName": "populated place", "countryId": "690791", "adminCode1": "17", "geonameId": 702048, "lat": "46.73333", "fcl": "P"}, {"name": "Lenintal\u2019", "population": 0, "countryName": "Ukraine", "adminName1": "Odessa", "fclName": "city, village,...", "countryCode": "UA", "lng": "30.46605", "toponymName": "Lenintal\u2019", "fcode": "PPL", "fcodeName": "populated place", "countryId": "690791", "adminCode1": "17", "geonameId": 703220, "lat": "46.42863", "fcl": "P"}, {"name": "Kuyal\u2019nik", "population": 0, "countryName": "Ukraine", "adminName1": "Odessa", "fclName": "city, village,...", "countryCode": "UA", "lng": "30.5", "toponymName": "Kuyal\u2019nik", "fcode": "PPL", "fcodeName": "populated place", "countryId": "690791", "adminCode1": "17", "geonameId": 703503, "lat": "46.93333", "fcl": "P"}, {"name": "Zhelepivo", "population": 0, "countryName": "Ukraine", "adminName1": "Odessa", "fclName": "city, village,...", "countryCode": "UA", "lng": "30.30333", "toponymName": "Zhelepivo", "fcode": "PPL", "fcodeName": "populated place", "countryId": "690791", "adminCode1": "17", "geonameId": 687218, "lat": "46.95685", "fcl": "P"}, {"name": "Yevgen\u2019yevka", "population": 0, "countryName": "Ukraine", "adminName1": "Odessa", "fclName": "city, village,...", "countryCode": "UA", "lng": "30.48333", "toponymName": "Yevgen\u2019yevka", "fcode": "PPL", "fcodeName": "populated place", "countryId": "690791", "adminCode1": "17", "geonameId": 688110, "lat": "47.06667", "fcl": "P"},