{"totalResultsCount": 12018, "geonames": [{"geonameId": 569154, "countryId": "2017370", "lat": "44.22333", "adminCode1": "27", "name": "Cherkessk", "population": 116224, "fcode": "PPLA", "adminName1": "Karachayevo-Cherkesiya", "fcl": "P", "countryCode": "RU", "fcodeName": "seat of a first-order administrative division", "toponymName": "Cherkessk", "fclName": "city, village,...", "lng": "42.05778", "countryName": "Russia"}, {"geonameId": 522377, "countryId": "2017370", "lat": "44.6333", "adminCode1": "70", "name": "Nevinnomyssk", "population": 134345, "fcode": "PPL", "adminName1": "Stavropol'skiy", "fcl": "P", "countryCode": "RU", "fcodeName": "populated place", "toponymName": "Nevinnomyssk", "fclName": "city, village,...", "lng": "41.9444", "countryName": "Russia"}, {"geonameId": 478130, "countryId": "2017370", "lat": "44.0834", "adminCode1": "27", "name": "Ust'-Dzheguta", "population": 34001, "fcode": "PPL", "adminName1": "Karachayevo-Cherkesiya", "fcl": "P", "countryCode": "RU", "fcodeName": "populated place", "toponymName": "Ust\u2019-Dzheguta", "fclName": "city, village,...", "lng": "41.9763", "countryName": "Russia"}, {"geonameId": 463885, "countryId": "2017370", "lat": "43.85804", "adminCode1": "27", "name": "Zelenchukskaya", "population": 21117, "fcode": "PPL", "adminName1": "Karachayevo-Cherkesiya", "fcl": "P", "countryCode": "RU", "fcodeName": "populated place", "toponymName": "Zelenchukskaya", "fclName": "city, village,...", "lng": "41.5894", "countryName": "Russia"}, {"geonameId": 552924, "countryId": "2017370", "lat": "43.77399", "adminCode1": "27", "name": "Karachayevsk", "population": 20264, "fcode": "PPL", "adminName1": "Karachayevo-Cherkesiya", "fcl": "P", "countryCode": "RU", "fcodeName": "populated place", "toponymName": "Karachayevsk", "fclName": "city, village,...", "lng": "41.91419", "countryName": "Russia"}, {"geonameId": 841006, "countryId": "2017370", "lat": "44.64417", "adminCode1": "70", "name": "Kochubeyevskoye", "population": 28491, "fcode": "PPL", "adminName1": "Stavropol'skiy", "fcl": "P", "countryCode": "RU", "fcodeName": "populated place", "toponymName": "Kochubeyevskoye", "fclName": "city, village,...", "lng": "41.84528", "countryName": "Russia"}, {"geonameId": 464180, "countryId": "2017370", "lat": "44.7492", "adminCode1": "70", "name": "Zavetnoye", "population": 3932, "fcode": "PPL", "adminName1": "Stavropol'skiy", "fcl": "P", "countryCode": "RU", "fcodeName": "populated place", "toponymName": "Zavetnoye", "fclName": "city, village,...", "lng": "41.5995", "countryName": "Russia"}, {"geonameId": 544015, "countryId": "2017370", "lat": "43.80154", "adminCode1": "27", "name": "Imeni Kosta Khetagurova", "population": 0, "fcode": "PPL", "adminName1": "Karachayevo-Cherkesiya", "fcl": "P", "countryCode": "RU", "fcodeName": "populated place", "toponymName": "Imeni Kosta Khetagurova", "fclName": "city, village,...", "lng": "41.90825", "countryName": "Russia"}, {"geonameId": 555206, "countryId": "2017370", "lat": "44.5795", "adminCode1": "70", "name": "Ivanovskoye", "population": 7003, "fcode": "PPL", "adminName1": "Stavropol'skiy", "fcl": "P", "countryCode": "RU", "fcodeName": "populated place", "toponymName": "Ivanovskoye", "fclName": "city, village,...", "lng": "41.8764", "countryName": "Russia"}, {"geonameId": 557399, "countryId": "2017370", "lat": "44.3051", "adminCode1": "27", "name": "Ikon-Khalk", "population": 4220, "fcode": "PPL", "adminName1": "Karachayevo-Cherkesiya", "fcl": "P", "countryCode": "RU", "fcodeName": "populated place", "toponymName": "Ikon-Khalk", "fclName": "city, village,...", "lng": "41.9142", "countryName": "Russia"}, {"geonameId": 563497, "countryId": "2017370", "lat": "43.98167", "adminCode1": "27", "name": "El'tarkach", "population": 0, "fcode": "PPL", "adminName1": "Karachayevo-Cherkesiya", "fcl": "P", "countryCode": "RU", "fcodeName": "populated place", "toponymName": "El\u2019tarkach", "fclName": "city, village,...", "lng": "42.13386", "countryName": "Russia"}, {"geonameId": 563637, "countryId": "2017370", "lat": "43.9671", "adminCode1": "27", "name": "Dzheguta", "population": 0, "fcode": "PPL", "adminName1": "Karachayevo-Cherkesiya", "fcl": "P", "countryCode": "RU", "fcodeName": "populated place", "toponymName": "Dzheguta", "fclName": "city, village,...", "lng": "42.04262", "countryName": "Russia"}, {"geonameId": 570054, "countryId": "2017370", "lat": "44.1571", "adminCode1": "38", "name": "Chekhrak", "population": 0, "fcode": "PPL", "adminName1": "Krasnodarskiy", "fcl": "P", "countryCode": "RU", "fcodeName": "populated place", "toponymName": "Chekhrak", "fclName": "city, village,...", "lng": "41.6671", "countryName": "Russia"}, {"geonameId": 535666, "countryId": "2017370", "lat": "43.78578", "adminCode1": "27", "name": "Leso-Kefar'", "population": 0, "fcode": "PPL", "adminName1": "Karachayevo-Cherkesiya", "fcl": "P", "countryCode": "RU", "fcodeName": "populated place", "toponymName": "Leso-Kefar\u2019", "fclName": "city, village,...", "lng": "41.45201", "countryName": "Russia"}, {"geonameId": 539218, "countryId": "2017370", "lat": "43.88334", "adminCode1": "27", "name": "Kumysh", "population": 4306, "fcode": "PPL", "adminName1": "Karachayevo-Cherkesiya", "fcl": "P", "countryCode": "RU", "fcodeName": "populated place", "toponymName": "Kumysh", "fclName": "city, village,...", "lng": "41.89324", "countryName": "Russia"}, {"geonameId": 546774, "countryId": "2017370", "lat": "44.69556", "adminCode1": "70", "name": "Kochubeyevskoye", "population": 0, "fcode": "PPL", "adminName1": "Stavropol'skiy", "fcl": "P", "countryCode": "RU", "fcodeName": "populated place", "toponymName": "Kochubeyevskoye", "fclName": "city, village,...", "lng": "41.81545", "countryName": "Russia"}, {"geonameId": 550868, "countryId": "2017370", "lat": "44.0434", "adminCode1": "27", "name": "Khabez", "population": 5806, "fcode": "PPL", "adminName1": "Karachayevo-Cherkesiya", "fcl": "P", "countryCode": "RU", "fcodeName": "populated place", "toponymName": "Khabez", "fclName": "city, village,...", "lng": "41.772", "countryName": "Russia"}, {"geonameId": 551288, "countryId": "2017370", "lat": "44.5872", "adminCode1": "70", "name": "Kaz'minskoye", "population": 0, "fcode": "PPL", "adminName1": "Stavropol'skiy", "fcl": "P", "countryCode": "RU", "fcodeName": "populated place", "toponymName": "Kaz\u2019minskoye", "fclName": "city, village,...", "lng": "41.6734", "countryName": "Russia"}, {"geonameId": 551667, "countryId": "2017370", "lat": "44.2672", "adminCode1": "27", "name": "Kavkazskiy", "population": 3052, "fcode": "PPL", "adminName1": "Karachayevo-Cherkesiya", "fcl": "P", "countryCode": "RU", "fcodeName": "populated place", "toponymName": "Kavkazskiy", "fclName": "city, village,...", "lng": "42.2347", "countryName": "Russia"}, {"geonameId": 506320, "countryId": "2017370", "lat": "44.5125", "adminCode1": "38", "name": "Poputnaya", "population": 6279, "fcode": "PPL", "adminName1": "Krasnodarskiy", "fcl": "P", "countryCode": "RU", "fcodeName": "populated place", "toponymName": "Poputnaya", "fclName": "city, village,...", "lng": "41.4392", "countryName": "Russia"}, {"geonameId": 511495, "countryId": "2017370", "lat": "44.11722", "adminCode1": "38", "name": "Peredovaya", "population": 4204, "fcode": "PPL", "adminName1": "Krasnodarskiy", "fcl": "P", "countryCode": "RU", "fcodeName": "populated place", "toponymName": "Peredovaya", "fclName": "city, village,...", "lng": "41.47556", "countryName": "Russia"}, {"geonameId": 513911, "countryId": "2017370", "lat": "44.39333", "adminCode1": "38", "name": "Otradnaya", "population": 22985, "fcode": "PPLA2", "adminName1": "Krasnodarskiy", "fcl": "P", "countryCode": "RU", "fcodeName": "seat of a second-order administrative division", "toponymName": "Otradnaya", "fclName": "city, village,...", "lng": "41.52056", "countryName": "Russia"}, {"geonameId": 517009, "countryId": "2017370", "lat": "43.82076", "adminCode1": "27", "name": "Novyy Karachay", "population": 2172, "fcode": "PPL", "adminName1": "Karachayevo-Cherkesiya", "fcl": "P", "countryCode": "RU", "fcodeName": "populated place", "toponymName": "Novyy Karachay", "fclName": "city, village,...", "lng": "41.90322", "countryName": "Russia"}, {"geonameId": 504317, "countryId": "2017370", "lat": "44.23306", "adminCode1": "27", "name": "Psyzh", "population": 6840, "fcode": "PPL", "adminName1": "Karachayevo-Cherkesiya", "fcl": "P", "countryCode": "RU", "fcodeName": "populated place", "toponymName": "Psyzh", "fclName": "city, village,...", "lng": "42.01833", "countryName": "Russia"}, {"geonameId": 487372, "countryId": "2017370", "lat": "43.87886", "adminCode1": "27", "name": "Storozhevaya", "population": 7986, "fcode": "PPL", "adminName1": "Karachayevo-Cherkesiya", "fcl": "P", "countryCode": "RU", "fcodeName": "populated place", "toponymName": "Storozhevaya", "fclName": "city, village,...", "lng": "41.45143", "countryName": "Russia"}, {"geonameId": 489655, "countryId": "2017370", "lat": "44.2468", "adminCode1": "38", "name": "Spokoynaya", "population": 5291, "fcode": "PPL", "adminName1": "Krasnodarskiy", "fcl": "P", "countryCode": "RU", "fcodeName": "populated place", "toponymName": "Spokoynaya", "fclName": "city, village,...", "lng": "41.4015", "countryName": "Russia"}, {"geonameId": 498462, "countryId": "2017370", "lat": "43.90181", "adminCode1": "27", "name": "Sary-Tyuz", "population": 3188, "fcode": "PPL", "adminName1": "Karachayevo-Cherkesiya", "fcl": "P", "countryCode": "RU", "fcodeName": "populated place", "toponymName": "Sary-Tyuz", "fclName": "city, village,...", "lng": "41.89523", "countryName": "Russia"}, {"geonameId": 576695, "countryId": "2017370", "lat": "44.2405", "adminCode1": "27", "name": "Besleney", "population": 3189, "fcode": "PPL", "adminName1": "Karachayevo-Cherkesiya", "fcl": "P", "countryCode": "RU", "fcodeName": "populated place", "toponymName": "Besleney", "fclName": "city, village,...", "lng": "41.7387", "countryName": "Russia"}, {"geonameId": 582544, "countryId": "2017370", "lat": "43.98952", "adminCode1": "27", "name": "Ali-Berdukovskiy", "population": 5093, "fcode": "PPL", "adminName1": "Karachayevo-Cherkesiya", "fcl": "P", "countryCode": "RU", "fcodeName": "populated place", "toponymName": "Ali-Berdukovskiy", "fclName": "city, village,...", "lng": "41.74212", "countryName": "Russia"}, {"geonameId": 584221, "countryId": "2017370", "lat": "44.33434", "adminCode1": "27", "name": "Adyge-Khabl'", "population": 3666, "fcode": "PPL", "adminName1": "Karachayevo-Cherkesiya", "fcl": "P", "countryCode": "RU", "fcodeName": "populated place", "toponymName": "Adyge-Khabl\u2019", "fclName": "city, village,...", "lng": "41.93922", "countryName": "Russia"}, {"geonameId": 462371, "countryId": "2017370", "lat": "44.1469", "adminCode1": "27", "name": "Znamenka", "population": 0, "fcode": "PPL", "adminName1": "Karachayevo-Cherkesiya", "fcl": "P", "countryCode": "RU", "fcodeName": "populated place", "toponymName": "Znamenka", "fclName": "city, village,...", "lng": "42.0567", "countryName": "Russia"}, {"geonameId": 472956, "countryId": "2017370", "lat": "44.51639", "adminCode1": "70", "name": "Vodorazdel", "population": 0, "fcode": "PPL", "adminName1": "Stavropol'skiy", "fcl": "P", "countryCode": "RU", "fcodeName": "populated place", "toponymName": "Vodorazdel", "fclName": "city, village,...", "lng": "42.36111", "countryName": "Russia"}, {"geonameId": 474096, "countryId": "2017370", "lat": "44.4954", "adminCode1": "70", "name": "Ves\u00ebloye", "population": 0, "fcode": "PPL", "adminName1": "Stavropol'skiy", "fcl": "P", "countryCode": "RU", "fcodeName": "populated place", "toponymName": "Ves\u00ebloye", "fclName": "city, village,...", "lng": "41.7999", "countryName": "Russia"}, {"geonameId": 476293, "countryId": "2017370", "lat": "43.9917", "adminCode1": "27", "name": "Vazhnoye", "population": 0, "fcode": "PPL", "adminName1": "Karachayevo-Cherkesiya", "fcl": "P", "countryCode": "RU", "fcodeName": "populated place", "toponymName": "Vazhnoye", "fclName": "city, village,...", "lng": "41.94247", "countryName": "Russia"}, {"geonameId": 478639, "countryId": "2017370", "lat": "44.4725", "adminCode1": "38", "name": "Kubran\u2019", "population": 0, "fcode": "PPL", "adminName1": "Krasnodarskiy", "fcl": "P", "countryCode": "RU", "fcodeName": "populated place", "toponymName": "Kubran\u2019", "fclName": "city, village,...", "lng": "41.7061", "countryName": "Russia"}, {"geonameId": 479596, "countryId": "2017370", "lat": "44.1932", "adminCode1": "38", "name": "Udobnaya", "population": 5519, "fcode": "PPL", "adminName1": "Krasnodarskiy", "fcl": "P", "countryCode": "RU", "fcodeName": "populated place", "toponymName": "Udobnaya", "fclName": "city, village,...", "lng": "41.5529", "countryName": "Russia"}, {"geonameId": 540031, "countryId": "2017370", "lat": "44.0555", "adminCode1": "27", "name": "Kubina", "population": 0, "fcode": "PPL", "adminName1": "Karachayevo-Cherkesiya", "fcl": "P", "countryCode": "RU", "fcodeName": "populated place", "toponymName": "Kubina", "fclName": "city, village,...", "lng": "41.9517", "countryName": "Russia"}, {"geonameId": 542161, "countryId": "2017370", "lat": "43.96563", "adminCode1": "27", "name": "Krasnovostochnyy", "population": 0, "fcode": "PPL", "adminName1": "Karachayevo-Cherkesiya", "fcl": "P", "countryCode": "RU", "fcodeName": "populated place", "toponymName": "Krasnovostochnyy", "fclName": "city, village,...", "lng": "42.29854", "countryName": "Russia"}, {"geonameId": 542373, "countryId": "2017370", "lat": "43.94221", "adminCode1": "27", "name": "Krasnogorskaya", "population": 0, "fcode": "PPL", "adminName1": "Karachayevo-Cherkesiya", "fcl": "P", "countryCode": "RU", "fcodeName": "populated place", "toponymName": "Krasnogorskaya", "fclName": "city, village,...", "lng": "41.88683", "countryName": "Russia"}, {"geonameId": 544204, "countryId": "2017370", "lat": "44.146", "adminCode1": "27", "name": "Kosh-Khabl'", "population": 0, "fcode": "PPL", "adminName1": "Karachayevo-Cherkesiya", "fcl": "P", "countryCode": "RU", "fcodeName": "populated place", "toponymName": "Kosh-Khabl\u2019", "fclName": "city, village,...", "lng": "41.8571", "countryName": "Russia"}, {"geonameId": 555801, "countryId": "2017370", "lat": "44.0682", "adminCode1": "27", "name": "Ispravnaya", "population": 4606, "fcode": "PPL", "adminName1": "Karachayevo-Cherkesiya", "fcl": "P", "countryCode": "RU", "fcodeName": "populated place", "toponymName": "Ispravnaya", "fclName": "city, village,...", "lng": "41.6102", "countryName": "Russia"}, {"geonameId": 556272, "countryId": "2017370", "lat": "44.1976", "adminCode1": "27", "name": "Inzhi-Chishkho", "population": 0, "fcode": "PPL", "adminName1": "Karachayevo-Cherkesiya", "fcl": "P", "countryCode": "RU", "fcodeName": "populated place", "toponymName": "Inzhi-Chishkho", "fclName": "city, village,...", "lng": "41.717", "countryName": "Russia"}, {"geonameId": 556273, "countryId": "2017370", "lat": "44.0445", "adminCode1": "27", "name": "Inzhich-Chukun", "population": 0, "fcode": "PPL", "adminName1": "Karachayevo-Cherkesiya", "fcl": "P", "countryCode": "RU", "fcodeName": "populated place", "toponymName": "Inzhich-Chukun", "fclName": "city, village,...", "lng": "41.7846", "countryName": "Russia"}, {"geonameId": 557895, "countryId": "2017370", "lat": "44.6047", "adminCode1": "38", "name": "Gusarovskoye", "population": 0, "fcode": "PPL", "adminName1": "Krasnodarskiy", "fcl": "P", "countryCode": "RU", "fcodeName": "populated place", "toponymName": "Gusarovskoye", "fclName": "city, village,...", "lng": "41.4011", "countryName": "Russia"}, {"geonameId": 530875, "countryId": "2017370", "lat": "44.2804", "adminCode1": "38", "name": "Malotenginskaya", "population": 0, "fcode": "PPL", "adminName1": "Krasnodarskiy", "fcl": "P", "countryCode": "RU", "fcodeName": "populated place", "toponymName": "Malotenginskaya", "fclName": "city, village,...", "lng": "41.5263", "countryName": "Russia"}, {"geonameId": 561625, "countryId": "2017370", "lat": "44.43583", "adminCode1": "70", "name": "Georgiyevskaya", "population": 0, "fcode": "PPL", "adminName1": "Stavropol'skiy", "fcl": "P", "countryCode": "RU", "fcodeName": "populated place", "toponymName": "Georgiyevskaya", "fclName": "city, village,...", "lng": "42.10639", "countryName": "Russia"}, {"geonameId": 563403, "countryId": "2017370", "lat": "44.3916", "adminCode1": "38", "name": "Novoestonovskoye", "population": 0, "fcode": "PPL", "adminName1": "Krasnodarskiy", "fcl": "P", "countryCode": "RU", "fcodeName": "populated place", "toponymName": "Novoestonovskoye", "fclName": "city, village,...", "lng": "41.6038", "countryName": "Russia"}, {"geonameId": 563424, "countryId": "2017370", "lat": "44.4281", "adminCode1": "27", "name": "Ersakon", "population": 0, "fcode": "PPL", "adminName1": "Karachayevo-Cherkesiya", "fcl": "P", "countryCode": "RU", "fcodeName": "populated place", "toponymName": "Ersakon", "fclName": "city, village,...", "lng": "41.7754", "countryName": "Russia"}, {"geonameId": 563433, "countryId": "2017370", "lat": "44.4577", "adminCode1": "27", "name": "Erken-Yurt", "population": 0, "fcode": "PPL", "adminName1": "Karachayevo-Cherkesiya", "fcl": "P", "countryCode": "RU", "fcodeName": "populated place", "toponymName": "Erken-Yurt", "fclName": "city, village,...", "lng": "41.9179", "countryName": "Russia"}, {"geonameId": 563435, "countryId": "2017370", "lat": "44.3778", "adminCode1": "27", "name": "Erken-Shakhar", "population": 0, "fcode": "PPL", "adminName1": "Karachayevo-Cherkesiya", "fcl": "P", "countryCode": "RU", "fcodeName": "populated place", "toponymName": "Erken-Shakhar", "fclName": "city, village,...", "lng": "41.9584", "countryName": "Russia"}, {"geonameId": 563951, "countryId": "2017370", "lat": "44.6701", "adminCode1": "70", "name": "Dvortsovskoye", "population": 0, "fcode": "PPL", "adminName1": "Stavropol'skiy", "fcl": "P", "countryCode": "RU", "fcodeName": "populated place", "toponymName": "Dvortsovskoye", "fclName": "city, village,...", "lng": "42.1353", "countryName": "Russia"}, {"geonameId": 564929, "countryId": "2017370", "lat": "44.1953", "adminCode1": "27", "name": "Druzhba", "population": 3153, "fcode": "PPL", "adminName1": "Karachayevo-Cherkesiya", "fcl": "P", "countryCode": "RU", "fcodeName": "populated place", "toponymName": "Druzhba", "fclName": "city, village,...", "lng": "42.017", "countryName": "Russia"}, {"geonameId": 566339, "countryId": "2017370", "lat": "43.78801", "adminCode1": "27", "name": "Khusy-Kardonik", "population": 0, "fcode": "PPL", "adminName1": "Karachayevo-Cherkesiya", "fcl": "P", "countryCode": "RU", "fcodeName": "populated place", "toponymName": "Khusy-Kardonik", "fclName": "city, village,...", "lng": "41.57692", "countryName": "Russia"}, {"geonameId": 567014, "countryId": "2017370", "lat": "43.79878", "adminCode1": "27", "name": "Dausuz", "population": 0, "fcode": "PPL", "adminName1": "Karachayevo-Cherkesiya", "fcl": "P", "countryCode": "RU", "fcodeName": "populated place", "toponymName": "Dausuz", "fclName": "city, village,...", "lng": "41.54952", "countryName": "Russia"}, {"geonameId": 537326, "countryId": "2017370", "lat": "43.8257", "adminCode1": "27", "name": "Kyzyl-Oktyabr\u2019skiy", "population": 3603, "fcode": "PPL", "adminName1": "Karachayevo-Cherkesiya", "fcl": "P", "countryCode": "RU", "fcodeName": "populated place", "toponymName": "Kyzyl-Oktyabr\u2019skiy", "fclName": "city, village,...", "lng": "41.78605", "countryName": "Russia"}, {"geonameId": 537331, "countryId": "2017370", "lat": "43.91319", "adminCode1": "27", "name": "Kyzyl-Kala", "population": 0, "fcode": "PPL", "adminName1": "Karachayevo-Cherkesiya", "fcl": "P", "countryCode": "RU", "fcodeName": "populated place", "toponymName": "Kyzyl-Kala", "fclName": "city, village,...", "lng": "42.02596", "countryName": "Russia"}, {"geonameId": 551341, "countryId": "2017370", "lat": "44.4644", "adminCode1": "70", "name": "Kazinka", "population": 0, "fcode": "PPL", "adminName1": "Stavropol'skiy", "fcl": "P", "countryCode": "RU", "fcodeName": "populated place", "toponymName": "Kazinka", "fclName": "city, village,...", "lng": "42.2984", "countryName": "Russia"}, {"geonameId": 552562, "countryId": "2017370", "lat": "43.86577", "adminCode1": "27", "name": "Kardonikskaya", "population": 7830, "fcode": "PPL", "adminName1": "Karachayevo-Cherkesiya", "fcl": "P", "countryCode": "RU", "fcodeName": "populated place", "toponymName": "Kardonikskaya", "fclName": "city, village,...", "lng": "41.71432", "countryName": "Russia"}, {"geonameId": 505380, "countryId": "2017370", "lat": "44.2376", "adminCode1": "27", "name": "Prigorodnoye", "population": 0, "fcode": "PPL", "adminName1": "Karachayevo-Cherkesiya", "fcl": "P", "countryCode": "RU", "fcodeName": "populated place", "toponymName": "Prigorodnoye", "fclName": "city, village,...", "lng": "42.1166", "countryName": "Russia"}, {"geonameId": 508370, "countryId": "2017370", "lat": "44.5125", "adminCode1": "70", "name": "Podgornoye", "population": 0, "fcode": "PPL", "adminName1": "Stavropol'skiy", "fcl": "P", "countryCode": "RU", "fcodeName": "populated place", "toponymName": "Podgornoye", "fclName": "city, village,...", "lng": "42.25306", "countryName": "Russia"}, {"geonameId": 509903, "countryId": "2017370", "lat": "44.476", "adminCode1": "38", "name": "Petrovskoye", "population": 0, "fcode": "PPL", "adminName1": "Krasnodarskiy", "fcl": "P", "countryCode": "RU", "fcodeName": "populated place", "toponymName": "Petrovskoye", "fclName": "city, village,...", "lng": "41.6579", "countryName": "Russia"}, {"geonameId": 528925, "countryId": "2017370", "lat": "43.76271", "adminCode1": "27", "name": "Marukha", "population": 0, "fcode": "PPL", "adminName1": "Karachayevo-Cherkesiya", "fcl": "P", "countryCode": "RU", "fcodeName": "populated place", "toponymName": "Marukha", "fclName": "city, village,...", "lng": "41.63225", "countryName": "Russia"}, {"geonameId": 515082, "countryId": "2017370", "lat": "43.84233", "adminCode1": "27", "name": "Ordzhonikidzevskiy", "population": 3246, "fcode": "PPL", "adminName1": "Karachayevo-Cherkesiya", "fcl": "P", "countryCode": "RU", "fcodeName": "populated place", "toponymName": "Ordzhonikidzevskiy", "fclName": "city, village,...", "lng": "41.89636", "countryName": "Russia"}, {"geonameId": 518831, "countryId": "2017370", "lat": "43.97815", "adminCode1": "27", "name": "Novoispravnenskoye", "population": 0, "fcode": "PPL", "adminName1": "Karachayevo-Cherkesiya", "fcl": "P", "countryCode": "RU", "fcodeName": "populated place", "toponymName": "Novoispravnenskoye", "fclName": "city, village,...", "lng": "41.54425", "countryName": "Russia"}, {"geonameId": 519771, "countryId": "2017370", "lat": "44.5299", "adminCode1": "70", "name": "Novaya Derevnya", "population": 0, "fcode": "PPL", "adminName1": "Stavropol'skiy", "fcl": "P", "countryCode": "RU", "fcodeName": "populated place", "toponymName": "Novaya Derevnya", "fclName": "city, village,...", "lng": "41.8532", "countryName": "Russia"}, {"geonameId": 520315, "countryId": "2017370", "lat": "43.76385", "adminCode1": "27", "name": "Nizhnyaya Mara", "population": 0, "fcode": "PPL", "adminName1": "Karachayevo-Cherkesiya", "fcl": "P", "countryCode": "RU", "fcodeName": "populated place", "toponymName": "Nizhnyaya Mara", "fclName": "city, village,...", "lng": "42.08831", "countryName": "Russia"}, {"geonameId": 521845, "countryId": "2017370", "lat": "44.1207", "adminCode1": "27", "name": "Nikolayevskoye", "population": 0, "fcode": "PPL", "adminName1": "Karachayevo-Cherkesiya", "fcl": "P", "countryCode": "RU", "fcodeName": "populated place", "toponymName": "Nikolayevskoye", "fclName": "city, village,...", "lng": "42.1276", "countryName": "Russia"}, {"geonameId": 523667, "countryId": "2017370", "lat": "44.2009", "adminCode1": "38", "name": "Nad\u00ebzhnaya", "population": 0, "fcode": "PPL", "adminName1": "Krasnodarskiy", "fcl": "P", "countryCode": "RU", "fcodeName": "populated place", "toponymName": "Nad\u00ebzhnaya", "fclName": "city, village,...", "lng": "41.3993", "countryName": "Russia"}, {"geonameId": 501295, "countryId": "2017370", "lat": "44.3799", "adminCode1": "70", "name": "Roshchinskiy", "population": 0, "fcode": "PPL", "adminName1": "Stavropol'skiy", "fcl": "P", "countryCode": "RU", "fcodeName": "populated place", "toponymName": "Roshchinskiy", "fclName": "city, village,...", "lng": "42.1466", "countryName": "Russia"}, {"geonameId": 501713, "countryId": "2017370", "lat": "44.51944", "adminCode1": "70", "name": "Rodnikovskiy", "population": 0, "fcode": "PPL", "adminName1": "Stavropol'skiy", "fcl": "P", "countryCode": "RU", "fcodeName": "populated place", "toponymName": "Rodnikovskiy", "fclName": "city, village,...", "lng": "42.01694", "countryName": "Russia"}, {"geonameId": 501714, "countryId": "2017370", "lat": "44.2911", "adminCode1": "27", "name": "Rodnikovskiy", "population": 0, "fcode": "PPL", "adminName1": "Karachayevo-Cherkesiya", "fcl": "P", "countryCode": "RU", "fcodeName": "populated place", "toponymName": "Rodnikovskiy", "fclName": "city, village,...", "lng": "42.3782", "countryName": "Russia"}, {"geonameId": 504394, "countryId": "2017370", "lat": "44.21", "adminCode1": "27", "name": "Psauch'ye-Dakhe", "population": 0, "fcode": "PPL", "adminName1": "Karachayevo-Cherkesiya", "fcl": "P", "countryCode": "RU", "fcodeName": "populated place", "toponymName": "Psauch\u2019ye-Dakhe", "fclName": "city, village,...", "lng": "41.8827", "countryName": "Russia"}, {"geonameId": 486993, "countryId": "2017370", "lat": "44.238", "adminCode1": "38", "name": "Stukanov", "population": 0, "fcode": "PPL", "adminName1": "Krasnodarskiy", "fcl": "P", "countryCode": "RU", "fcodeName": "populated place", "toponymName": "Stukanov", "fclName": "city, village,...", "lng": "41.5424", "countryName": "Russia"}, {"geonameId": 488767, "countryId": "2017370", "lat": "44.34698", "adminCode1": "27", "name": "Starokuvinskiy", "population": 0, "fcode": "PPL", "adminName1": "Karachayevo-Cherkesiya", "fcl": "P", "countryCode": "RU", "fcodeName": "populated place", "toponymName": "Starokuvinskiy", "fclName": "city, village,...", "lng": "41.77804", "countryName": "Russia"}, {"geonameId": 488841, "countryId": "2017370", "lat": "44.7214", "adminCode1": "70", "name": "Starodvortsovskiy", "population": 0, "fcode": "PPL", "adminName1": "Stavropol'skiy", "fcl": "P", "countryCode": "RU", "fcodeName": "populated place", "toponymName": "Starodvortsovskiy", "fclName": "city, village,...", "lng": "42.1331", "countryName": "Russia"}, {"geonameId": 498010, "countryId": "2017370", "lat": "44.159", "adminCode1": "27", "name": "Schastlivoye", "population": 0, "fcode": "PPL", "adminName1": "Karachayevo-Cherkesiya", "fcl": "P", "countryCode": "RU", "fcodeName": "populated place", "toponymName": "Schastlivoye", "fclName": "city, village,...", "lng": "42.2687", "countryName": "Russia"}, {"geonameId": 499521, "countryId": "2017370", "lat": "44.3301", "adminCode1": "27", "name": "Sadovoye", "population": 0, "fcode": "PPL", "adminName1": "Karachayevo-Cherkesiya", "fcl": "P", "countryCode": "RU", "fcodeName": "populated place", "toponymName": "Sadovoye", "fclName": "city, village,...", "lng": "42.0358", "countryName": "Russia"}, {"geonameId": 490640, "countryId": "2017370", "lat": "44.2702", "adminCode1": "38", "name": "San\u2019kov", "population": 0, "fcode": "PPL", "adminName1": "Krasnodarskiy", "fcl": "P", "countryCode": "RU", "fcodeName": "populated place", "toponymName": "San\u2019kov", "fclName": "city, village,...", "lng": "41.5802", "countryName": "Russia"}, {"geonameId": 576175, "countryId": "2017370", "lat": "44.4981", "adminCode1": "38", "name": "Blagodarnoye", "population": 0, "fcode": "PPL", "adminName1": "Krasnodarskiy", "fcl": "P", "countryCode": "RU", "fcodeName": "populated place", "toponymName": "Blagodarnoye", "fclName": "city, village,...", "lng": "41.5447", "countryName": "Russia"}, {"geonameId": 577931, "countryId": "2017370", "lat": "44.4109", "adminCode1": "70", "name": "Belomechetskaya", "population": 0, "fcode": "PPL", "adminName1": "Stavropol'skiy", "fcl": "P", "countryCode": "RU", "fcodeName": "populated place", "toponymName": "Belomechetskaya", "fclName": "city, village,...", "lng": "41.9387", "countryName": "Russia"}, {"geonameId": 578975, "countryId": "2017370", "lat": "44.6269", "adminCode1": "70", "name": "Barsukovskiy", "population": 0, "fcode": "PPL", "adminName1": "Stavropol'skiy", "fcl": "P", "countryCode": "RU", "fcodeName": "populated place", "toponymName": "Barsukovskiy", "fclName": "city, village,...", "lng": "42.1081", "countryName": "Russia"}, {"geonameId": 584250, "countryId": "2017370", "lat": "44.3565", "adminCode1": "27", "name": "Adil\u2019-Khalk", "population": 0, "fcode": "PPL", "adminName1": "Karachayevo-Cherkesiya", "fcl": "P", "countryCode": "RU", "fcodeName": "populated place", "toponymName": "Adil\u2019-Khalk", "fclName": "city, village,...", "lng": "41.9265", "countryName": "Russia"}, {"geonameId": 865506, "countryId": "2017370", "lat": "43.91721", "adminCode1": "27", "name": "Pravokubanskiy", "population": 2971, "fcode": "PPL", "adminName1": "Karachayevo-Cherkesiya", "fcl": "P", "countryCode": "RU", "fcodeName": "populated place", "toponymName": "Pravokubanskiy", "fclName": "city, village,...", "lng": "41.88413", "countryName": "Russia"}, {"geonameId": 841257, "countryId": "2017370", "lat": "44.60778", "adminCode1": "70", "name": "Kaskadnyy", "population": 0, "fcode": "PPL", "adminName1": "Stavropol'skiy", "fcl": "P", "countryCode": "RU", "fcodeName": "populated place", "toponymName": "Kaskadnyy", "fclName": "city, village,...", "lng": "42.23139", "countryName": "Russia"}, {"geonameId": 463560, "countryId": "2017370", "lat": "43.95525", "adminCode1": "27", "name": "Zhako", "population": 0, "fcode": "PPL", "adminName1": "Karachayevo-Cherkesiya", "fcl": "P", "countryCode": "RU", "fcodeName": "populated place", "toponymName": "Zhako", "fclName": "city, village,...", "lng": "41.73724", "countryName": "Russia"}, {"geonameId": 463616, "countryId": "2017370", "lat": "44.1161", "adminCode1": "27", "name": "Zeyuko", "population": 0, "fcode": "PPL", "adminName1": "Karachayevo-Cherkesiya", "fcl": "P", "countryCode": "RU", "fcodeName": "populated place", "toponymName": "Zeyuko", "fclName": "city, village,...", "lng": "41.8329", "countryName": "Russia"}, {"geonameId": 472955, "countryId": "2017370", "lat": "44.25139", "adminCode1": "27", "name": "Vodorazdel\u2019nyy", "population": 0, "fcode": "PPL", "adminName1": "Karachayevo-Cherkesiya", "fcl": "P", "countryCode": "RU", "fcodeName": "populated place", "toponymName": "Vodorazdel\u2019nyy", "fclName": "city, village,...", "lng": "42.34972", "countryName": "Russia"}, {"geonameId": 474094, "countryId": "2017370", "lat": "44.5325", "adminCode1": "38", "name": "Ves\u00eblyy", "population": 0, "fcode": "PPL", "adminName1": "Krasnodarskiy", "fcl": "P", "countryCode": "RU", "fcodeName": "populated place", "toponymName": "Ves\u00eblyy", "fclName": "city, village,...", "lng": "41.5434", "countryName": "Russia"}, {"geonameId": 474600, "countryId": "2017370", "lat": "43.77498", "adminCode1": "27", "name": "Verkhnyaya Mara", "population": 0, "fcode": "PPL", "adminName1": "Karachayevo-Cherkesiya", "fcl": "P", "countryCode": "RU", "fcodeName": "populated place", "toponymName": "Verkhnyaya Mara", "fclName": "city, village,...", "lng": "42.14786", "countryName": "Russia"}, {"geonameId": 475161, "countryId": "2017370", "lat": "44.72417", "adminCode1": "70", "name": "Dzhalginskiy", "population": 0, "fcode": "PPLQ", "adminName1": "Stavropol'skiy", "fcl": "P", "countryCode": "RU", "fcodeName": "abandoned populated place", "toponymName": "Dzhalginskiy", "fclName": "city, village,...", "lng": "42.34944", "countryName": "Russia"}, {"geonameId": 476570, "countryId": "2017370", "lat": "44.6602", "adminCode1": "70", "name": "Vasil\u2019yevskiy", "population": 0, "fcode": "PPL", "adminName1": "Stavropol'skiy", "fcl": "P", "countryCode": "RU", "fcodeName": "populated place", "toponymName": "Vasil\u2019yevskiy", "fclName": "city, village,...", "lng": "41.6508", "countryName": "Russia"}, {"geonameId": 477324, "countryId": "2017370", "lat": "44.3061", "adminCode1": "27", "name": "Vako-Zhile", "population": 0, "fcode": "PPL", "adminName1": "Karachayevo-Cherkesiya", "fcl": "P", "countryCode": "RU", "fcodeName": "populated place", "toponymName": "Vako-Zhile", "fclName": "city, village,...", "lng": "41.7443", "countryName": "Russia"}, {"geonameId": 478014, "countryId": "2017370", "lat": "44.5389", "adminCode1": "70", "name": "Ust\u2019-Nevinskiy", "population": 0, "fcode": "PPL", "adminName1": "Stavropol'skiy", "fcl": "P", "countryCode": "RU", "fcodeName": "populated place", "toponymName": "Ust\u2019-Nevinskiy", "fclName": "city, village,...", "lng": "41.9506", "countryName": "Russia"}, {"geonameId": 541782, "countryId": "2017370", "lat": "44.2419", "adminCode1": "38", "name": "Krasnyye Gory", "population": 0, "fcode": "PPL", "adminName1": "Krasnodarskiy", "fcl": "P", "countryCode": "RU", "fcodeName": "populated place", "toponymName": "Krasnyye Gory", "fclName": "city, village,...", "lng": "41.5621", "countryName": "Russia"}, {"geonameId": 542142, "countryId": "2017370", "lat": "44.4474", "adminCode1": "70", "name": "Krasnoyarskoye", "population": 0, "fcode": "PPL", "adminName1": "Stavropol'skiy", "fcl": "P", "countryCode": "RU", "fcodeName": "populated place", "toponymName": "Krasnoyarskoye", "fclName": "city, village,...", "lng": "42.3586", "countryName": "Russia"}, {"geonameId": 542846, "countryId": "2017370", "lat": "44.3149", "adminCode1": "27", "name": "Krasivyy", "population": 0, "fcode": "PPL", "adminName1": "Karachayevo-Cherkesiya", "fcl": "P", "countryCode": "RU", "fcodeName": "populated place", "toponymName": "Krasivyy", "fclName": "city, village,...", "lng": "42.2441", "countryName": "Russia"}, {"geonameId": 543401, "countryId": "2017370", "lat": "44.1053", "adminCode1": "27", "name": "Koydan", "population": 0, "fcode": "PPL", "adminName1": "Karachayevo-Cherkesiya", "fcl": "P", "countryCode": "RU", "fcodeName": "populated place", "toponymName": "Koydan", "fclName": "city, village,...", "lng": "42.15551", "countryName": "Russia"}, {"geonameId": 571630, "countryId": "2017370", "lat": "44.581", "adminCode1": "38", "name": "Berezhinovskiy", "population": 0, "fcode": "PPL", "adminName1": "Krasnodarskiy", "fcl": "P", "countryCode": "RU", "fcodeName": "populated place", "toponymName": "Berezhinovskiy", "fclName": "city, village,...", "lng": "41.4185", "countryName": "Russia"}, {"geonameId": 531995, "countryId": "2017370", "lat": "44.5603", "adminCode1": "70", "name": "Makovskiy", "population": 0, "fcode": "PPL", "adminName1": "Stavropol'skiy", "fcl": "P", "countryCode": "RU", "fcodeName": "populated place", "toponymName": "Makovskiy", "fclName": "city, village,...", "lng": "41.9371", "countryName": "Russia"}, {"geonameId": 534543, "countryId": "2017370", "lat": "44.748", "adminCode1": "70", "name": "Lofitskiy", "population": 0, "fcode": "PPL", "adminName1": "Stavropol'skiy", "fcl": "P", "countryCode": "RU", "fcodeName": "populated place", "toponymName": "Lofitskiy", "fclName": "city, village,...", "lng": "42.1594", "countryName": "Russia"}, {"geonameId": 562363, "countryId": "2017370", "lat": "44.1631", "adminCode1": "27", "name": "Frolovskiy", "population": 0, "fcode": "PPL", "adminName1": "Karachayevo-Cherkesiya", "fcl": "P", "countryCode": "RU", "fcodeName": "populated place", "toponymName": "Frolovskiy", "fclName": "city, village,...", "lng": "41.6909", "countryName": "Russia"}, {"geonameId": 563436, "countryId": "2017370", "lat": "44.3717", "adminCode1": "27", "name": "Erken-Khalk", "population": 0, "fcode": "PPL", "adminName1": "Karachayevo-Cherkesiya", "fcl": "P", "countryCode": "RU", "fcodeName": "populated place", "toponymName": "Erken-Khalk", "fclName": "city, village,...", "lng": "41.9374", "countryName": "Russia"}, {"geonameId": 563530, "countryId": "2017370", "lat": "44.086", "adminCode1": "27", "name": "El\u2019burgan", "population": 0, "fcode": "PPL", "adminName1": "Karachayevo-Cherkesiya", "fcl": "P", "countryCode": "RU", "fcodeName": "populated place", "toponymName": "El\u2019burgan", "fclName": "city, village,...", "lng": "41.8058", "countryName": "Russia"}, {"geonameId": 563639, "countryId": "2017370", "lat": "44.0475", "adminCode1": "27", "name": "Dzhegonas", "population": 0, "fcode": "PPL", "adminName1": "Karachayevo-Cherkesiya", "fcl": "P", "countryCode": "RU", "fcodeName": "populated place", "toponymName": "Dzhegonas", "fclName": "city, village,...", "lng": "42.17194", "countryName": "Russia"}, {"geonameId": 564322, "countryId": "2017370", "lat": "44.4733", "adminCode1": "27", "name": "Dubyanskiy", "population": 0, "fcode": "PPL", "adminName1": "Karachayevo-Cherkesiya", "fcl": "P", "countryCode": "RU", "fcodeName": "populated place", "toponymName": "Dubyanskiy", "fclName": "city, village,...", "lng": "41.8059", "countryName": "Russia"}, {"geonameId": 569176, "countryId": "2017370", "lat": "44.4905", "adminCode1": "70", "name": "Cherkasskiy", "population": 0, "fcode": "PPL", "adminName1": "Stavropol'skiy", "fcl": "P", "countryCode": "RU", "fcodeName": "populated place", "toponymName": "Cherkasskiy", "fclName": "city, village,...", "lng": "41.7329", "countryName": "Russia"}, {"geonameId": 569750, "countryId": "2017370", "lat": "44.5072", "adminCode1": "38", "name": "Chaykin", "population": 0, "fcode": "PPL", "adminName1": "Krasnodarskiy", "fcl": "P", "countryCode": "RU", "fcodeName": "populated place", "toponymName": "Chaykin", "fclName": "city, village,...", "lng": "41.59585", "countryName": "Russia"}, {"geonameId": 569978, "countryId": "2017370", "lat": "44.28833", "adminCode1": "27", "name": "Chapayevskoye", "population": 0, "fcode": "PPL", "adminName1": "Karachayevo-Cherkesiya", "fcl": "P", "countryCode": "RU", "fcodeName": "populated place", "toponymName": "Chapayevskoye", "fclName": "city, village,...", "lng": "42.06583", "countryName": "Russia"}, {"geonameId": 536147, "countryId": "2017370", "lat": "44.3095", "adminCode1": "38", "name": "Lenina", "population": 0, "fcode": "PPL", "adminName1": "Krasnodarskiy", "fcl": "P", "countryCode": "RU", "fcodeName": "populated place", "toponymName": "Lenina", "fclName": "city, village,...", "lng": "41.5652", "countryName": "Russia"}, {"geonameId": 537800, "countryId": "2017370", "lat": "44.71556", "adminCode1": "70", "name": "Kuz\u2019minskiy", "population": 0, "fcode": "PPL", "adminName1": "Stavropol'skiy", "fcl": "P", "countryCode": "RU", "fcodeName": "populated place", "toponymName": "Kuz\u2019minskiy", "fclName": "city, village,...", "lng": "42.18639", "countryName": "Russia"}, {"geonameId": 547848, "countryId": "2017370", "lat": "44.179", "adminCode1": "27", "name": "Kyzyl-Yurt", "population": 0, "fcode": "PPL", "adminName1": "Karachayevo-Cherkesiya", "fcl": "P", "countryCode": "RU", "fcodeName": "populated place", "toponymName": "Kyzyl-Yurt", "fclName": "city, village,...", "lng": "41.8735", "countryName": "Russia"}, {"geonameId": 547850, "countryId": "2017370", "lat": "44.3318", "adminCode1": "27", "name": "Kyzyl-Togay", "population": 0, "fcode": "PPL", "adminName1": "Karachayevo-Cherkesiya", "fcl": "P", "countryCode": "RU", "fcodeName": "populated place", "toponymName": "Kyzyl-Togay", "fclName": "city, village,...", "lng": "41.7926", "countryName": "Russia"}, {"geonameId": 548575, "countryId": "2017370", "lat": "44.4659", "adminCode1": "27", "name": "Kiyevo-Zhurakovskiy", "population": 0, "fcode": "PPL", "adminName1": "Karachayevo-Cherkesiya", "fcl": "P", "countryCode": "RU", "fcodeName": "populated place", "toponymName": "Kiyevo-Zhurakovskiy", "fclName": "city, village,...", "lng": "41.7854", "countryName": "Russia"}, {"geonameId": 548844, "countryId": "2017370", "lat": "44.5875", "adminCode1": "70", "name": "Kian-Podgornoye", "population": 0, "fcode": "PPL", "adminName1": "Stavropol'skiy", "fcl": "P", "countryCode": "RU", "fcodeName": "populated place", "toponymName": "Kian-Podgornoye", "fclName": "city, village,...", "lng": "42.30833", "countryName": "Russia"}, {"geonameId": 549117, "countryId": "2017370", "lat": "43.86368", "adminCode1": "27", "name": "Khumara", "population": 0, "fcode": "PPL", "adminName1": "Karachayevo-Cherkesiya", "fcl": "P", "countryCode": "RU", "fcodeName": "populated place", "toponymName": "Khumara", "fclName": "city, village,...", "lng": "41.91418", "countryName": "Russia"}, {"geonameId": 549703, "countryId": "2017370", "lat": "44.1384", "adminCode1": "27", "name": "Kholodnorodnikovskoye", "population": 0, "fcode": "PPL", "adminName1": "Karachayevo-Cherkesiya", "fcl": "P", "countryCode": "RU", "fcodeName": "populated place", "toponymName": "Kholodnorodnikovskoye", "fclName": "city, village,...", "lng": "42.2607", "countryName": "Russia"}, {"geonameId": 552744, "countryId": "2017370", "lat": "44.1313", "adminCode1": "27", "name": "Kara-Pago", "population": 0, "fcode": "PPL", "adminName1": "Karachayevo-Cherkesiya", "fcl": "P", "countryCode": "RU", "fcodeName": "populated place", "toponymName": "Kara-Pago", "fclName": "city, village,...", "lng": "41.9457", "countryName": "Russia"}, {"geonameId": 554194, "countryId": "2017370", "lat": "44.4782", "adminCode1": "70", "name": "Kalinovskiy", "population": 0, "fcode": "PPL", "adminName1": "Stavropol'skiy", "fcl": "P", "countryCode": "RU", "fcodeName": "populated place", "toponymName": "Kalinovskiy", "fclName": "city, village,...", "lng": "41.7868", "countryName": "Russia"}, {"geonameId": 505100, "countryId": "2017370", "lat": "44.4325", "adminCode1": "70", "name": "Privol\u2019nyy", "population": 0, "fcode": "PPL", "adminName1": "Stavropol'skiy", "fcl": "P", "countryCode": "RU", "fcodeName": "populated place", "toponymName": "Privol\u2019nyy", "fclName": "city, village,...", "lng": "42.28417", "countryName": "Russia"}, {"geonameId": 505171, "countryId": "2017370", "lat": "44.101", "adminCode1": "27", "name": "Pristan\u2019", "population": 0, "fcode": "PPL", "adminName1": "Karachayevo-Cherkesiya", "fcl": "P", "countryCode": "RU", "fcodeName": "populated place", "toponymName": "Pristan\u2019", "fclName": "city, village,...", "lng": "42.2052", "countryName": "Russia"}, {"geonameId": 509295, "countryId": "2017370", "lat": "44.5688", "adminCode1": "38", "name": "Piskunovskoye", "population": 0, "fcode": "PPL", "adminName1": "Krasnodarskiy", "fcl": "P", "countryCode": "RU", "fcodeName": "populated place", "toponymName": "Piskunovskoye", "fclName": "city, village,...", "lng": "41.5243", "countryName": "Russia"}, {"geonameId": 509969, "countryId": "2017370", "lat": "44.5116", "adminCode1": "70", "name": "Cherkasskiy", "population": 0, "fcode": "PPL", "adminName1": "Stavropol'skiy", "fcl": "P", "countryCode": "RU", "fcodeName": "populated place", "toponymName": "Cherkasskiy", "fclName": "city, village,...", "lng": "41.73", "countryName": "Russia"}, {"geonameId": 526277, "countryId": "2017370", "lat": "44.60167", "adminCode1": "70", "name": "Mishchenskiy", "population": 0, "fcode": "PPL", "adminName1": "Stavropol'skiy", "fcl": "P", "countryCode": "RU", "fcodeName": "populated place", "toponymName": "Mishchenskiy", "fclName": "city, village,...", "lng": "41.6075", "countryName": "Russia"}, {"geonameId": 527189, "countryId": "2017370", "lat": "44.2773", "adminCode1": "27", "name": "Michurinskiy", "population": 0, "fcode": "PPL", "adminName1": "Karachayevo-Cherkesiya", "fcl": "P", "countryCode": "RU", "fcodeName": "populated place", "toponymName": "Michurinskiy", "fclName": "city, village,...", "lng": "42.3169", "countryName": "Russia"}, {"geonameId": 529724, "countryId": "2017370", "lat": "44.1635", "adminCode1": "27", "name": "Malyy Zelenchuk", "population": 0, "fcode": "PPL", "adminName1": "Karachayevo-Cherkesiya", "fcl": "P", "countryCode": "RU", "fcodeName": "populated place", "toponymName": "Malyy Zelenchuk", "fclName": "city, village,...", "lng": "41.8674", "countryName": "Russia"}, {"geonameId": 511009, "countryId": "2017370", "lat": "44.7202", "adminCode1": "70", "name": "Khersonskiy", "population": 0, "fcode": "PPL", "adminName1": "Stavropol'skiy", "fcl": "P", "countryCode": "RU", "fcodeName": "populated place", "toponymName": "Khersonskiy", "fclName": "city, village,...", "lng": "41.5249", "countryName": "Russia"}, {"geonameId": 513876, "countryId": "2017370", "lat": "44.2991", "adminCode1": "38", "name": "Otrado-Tenginskiy", "population": 0, "fcode": "PPL", "adminName1": "Krasnodarskiy", "fcl": "P", "countryCode": "RU", "fcodeName": "populated place", "toponymName": "Otrado-Tenginskiy", "fclName": "city, village,...", "lng": "41.4594", "countryName": "Russia"}, {"geonameId": 518660, "countryId": "2017370", "lat": "44.3988", "adminCode1": "27", "name": "Novokuvinskiy", "population": 0, "fcode": "PPL", "adminName1": "Karachayevo-Cherkesiya", "fcl": "P", "countryCode": "RU", "fcodeName": "populated place", "toponymName": "Novokuvinskiy", "fclName": "city, village,...", "lng": "41.7832", "countryName": "Russia"}, {"geonameId": 518737, "countryId": "2017370", "lat": "44.2191", "adminCode1": "27", "name": "Novokhumarinskiy", "population": 0, "fcode": "PPL", "adminName1": "Karachayevo-Cherkesiya", "fcl": "P", "countryCode": "RU", "fcodeName": "populated place", "toponymName": "Novokhumarinskiy", "fclName": "city, village,...", "lng": "41.89612", "countryName": "Russia"}, {"geonameId": 500982, "countryId": "2017370", "lat": "44.629", "adminCode1": "70", "name": "Rozhdestvennskoye", "population": 0, "fcode": "PPL", "adminName1": "Stavropol'skiy", "fcl": "P", "countryCode": "RU", "fcodeName": "populated place", "toponymName": "Rozhdestvennskoye", "fclName": "city, village,...", "lng": "41.9178", "countryName": "Russia"}, {"geonameId": 501059, "countryId": "2017370", "lat": "44.5646", "adminCode1": "38", "name": "Rozanovskiy", "population": 0, "fcode": "PPL", "adminName1": "Krasnodarskiy", "fcl": "P", "countryCode": "RU", "fcodeName": "populated place", "toponymName": "Rozanovskiy", "fclName": "city, village,...", "lng": "41.5207", "countryName": "Russia"}, {"geonameId": 502476, "countryId": "2017370", "lat": "44.4425", "adminCode1": "70", "name": "Razdol\u2019nyy", "population": 0, "fcode": "PPL", "adminName1": "Stavropol'skiy", "fcl": "P", "countryCode": "RU", "fcodeName": "populated place", "toponymName": "Razdol\u2019nyy", "fclName": "city, village,...", "lng": "42.22", "countryName": "Russia"}, {"geonameId": 504818, "countryId": "2017370", "lat": "44.6413", "adminCode1": "70", "name": "Proletarskiy", "population": 0, "fcode": "PPL", "adminName1": "Stavropol'skiy", "fcl": "P", "countryCode": "RU", "fcodeName": "populated place", "toponymName": "Proletarskiy", "fclName": "city, village,...", "lng": "41.8962", "countryName": "Russia"}, {"geonameId": 504978, "countryId": "2017370", "lat": "44.5546", "adminCode1": "70", "name": "Progress", "population": 0, "fcode": "PPL", "adminName1": "Stavropol'skiy", "fcl": "P", "countryCode": "RU", "fcodeName": "populated place", "toponymName": "Progress", "fclName": "city, village,...", "lng": "41.8615", "countryName": "Russia"}, {"geonameId": 485690, "countryId": "2017370", "lat": "44.1547", "adminCode1": "27", "name": "Svetloye", "population": 0, "fcode": "PPL", "adminName1": "Karachayevo-Cherkesiya", "fcl": "P", "countryCode": "RU", "fcodeName": "populated place", "toponymName": "Svetloye", "fclName": "city, village,...", "lng": "42.2251", "countryName": "Russia"}, {"geonameId": 486992, "countryId": "2017370", "lat": "44.5441", "adminCode1": "38", "name": "Stukanovskiy", "population": 0, "fcode": "PPL", "adminName1": "Krasnodarskiy", "fcl": "P", "countryCode": "RU", "fcodeName": "populated place", "toponymName": "Stukanovskiy", "fclName": "city, village,...", "lng": "41.5177", "countryName": "Russia"}, {"geonameId": 487591, "countryId": "2017370", "lat": "44.65175", "adminCode1": "70", "name": "Stepnoy", "population": 0, "fcode": "PPL", "adminName1": "Stavropol'skiy", "fcl": "P", "countryCode": "RU", "fcodeName": "populated place", "toponymName": "Stepnoy", "fclName": "city, village,...", "lng": "41.58739", "countryName": "Russia"}, {"geonameId": 489896, "countryId": "2017370", "lat": "44.4115", "adminCode1": "27", "name": "Sparta", "population": 0, "fcode": "PPL", "adminName1": "Karachayevo-Cherkesiya", "fcl": "P", "countryCode": "RU", "fcodeName": "populated place", "toponymName": "Sparta", "fclName": "city, village,...", "lng": "41.7978", "countryName": "Russia"}, {"geonameId": 498669, "countryId": "2017370", "lat": "44.58", "adminCode1": "70", "name": "Saratovskiy", "population": 0, "fcode": "PPL", "adminName1": "Stavropol'skiy", "fcl": "P", "countryCode": "RU", "fcodeName": "populated place", "toponymName": "Saratovskiy", "fclName": "city, village,...", "lng": "41.7735", "countryName": "Russia"}, {"geonameId": 499518, "countryId": "2017370", "lat": "44.4527", "adminCode1": "38", "name": "Sadovyy", "population": 0, "fcode": "PPL", "adminName1": "Krasnodarskiy", "fcl": "P", "countryCode": "RU", "fcodeName": "populated place", "toponymName": "Sadovyy", "fclName": "city, village,...", "lng": "41.5027", "countryName": "Russia"}, {"geonameId": 494237, "countryId": "2017370", "lat": "44.4775", "adminCode1": "70", "name": "Shirokiy", "population": 0, "fcode": "PPL", "adminName1": "Stavropol'skiy", "fcl": "P", "countryCode": "RU", "fcodeName": "populated place", "toponymName": "Shirokiy", "fclName": "city, village,...", "lng": "42.0753", "countryName": "Russia"}, {"geonameId": 483324, "countryId": "2017370", "lat": "44.5331", "adminCode1": "70", "name": "Ternovskiy", "population": 0, "fcode": "PPL", "adminName1": "Stavropol'skiy", "fcl": "P", "countryCode": "RU", "fcodeName": "populated place", "toponymName": "Ternovskiy", "fclName": "city, village,...", "lng": "42.188", "countryName": "Russia"}, {"geonameId": 484550, "countryId": "2017370", "lat": "44.3486", "adminCode1": "27", "name": "Tapanta", "population": 0, "fcode": "PPL", "adminName1": "Karachayevo-Cherkesiya", "fcl": "P", "countryCode": "RU", "fcodeName": "populated place", "toponymName": "Tapanta", "fclName": "city, village,...", "lng": "41.6708", "countryName": "Russia"}, {"geonameId": 577823, "countryId": "2017370", "lat": "44.64126", "adminCode1": "70", "name": "Belovskiy", "population": 0, "fcode": "PPL", "adminName1": "Stavropol'skiy", "fcl": "P", "countryCode": "RU", "fcodeName": "populated place", "toponymName": "Belovskiy", "fclName": "city, village,...", "lng": "41.65344", "countryName": "Russia"}, {"geonameId": 579274, "countryId": "2017370", "lat": "44.34935", "adminCode1": "27", "name": "Baralki", "population": 0, "fcode": "PPL", "adminName1": "Karachayevo-Cherkesiya", "fcl": "P", "countryCode": "RU", "fcodeName": "populated place", "toponymName": "Baralki", "fclName": "city, village,...", "lng": "41.8016", "countryName": "Russia"}, {"geonameId": 581309, "countryId": "2017370", "lat": "44.4481", "adminCode1": "27", "name": "Apsua", "population": 0, "fcode": "PPL", "adminName1": "Karachayevo-Cherkesiya", "fcl": "P", "countryCode": "RU", "fcodeName": "populated place", "toponymName": "Apsua", "fclName": "city, village,...", "lng": "41.7971", "countryName": "Russia"}, {"geonameId": 581951, "countryId": "2017370", "lat": "44.7031", "adminCode1": "70", "name": "Andreyevskiy", "population": 0, "fcode": "PPL", "adminName1": "Stavropol'skiy", "fcl": "P", "countryCode": "RU", "fcodeName": "populated place", "toponymName": "Andreyevskiy", "fclName": "city, village,...", "lng": "41.6489", "countryName": "Russia"}, {"geonameId": 584496, "countryId": "2017370", "lat": "44.2533", "adminCode1": "27", "name": "Abazakt", "population": 0, "fcode": "PPL", "adminName1": "Karachayevo-Cherkesiya", "fcl": "P", "countryCode": "RU", "fcodeName": "populated place", "toponymName": "Abazakt", "fclName": "city, village,...", "lng": "41.9015", "countryName": "Russia"}, {"geonameId": 584497, "countryId": "2017370", "lat": "44.3692", "adminCode1": "27", "name": "Abaza-Khabl\u2019", "population": 0, "fcode": "PPL", "adminName1": "Karachayevo-Cherkesiya", "fcl": "P", "countryCode": "RU", "fcodeName": "populated place", "toponymName": "Abaza-Khabl\u2019", "fclName": "city, village,...", "lng": "41.6383", "countryName": "Russia"}, {"geonameId": 868694, "countryId": "2017370", "lat": "43.88554", "adminCode1": "27", "name": "Belaya Gora", "population": 0, "fcode": "PPL", "adminName1": "Karachayevo-Cherkesiya", "fcl": "P", "countryCode": "RU", "fcodeName": "populated place", "toponymName": "Belaya Gora", "fclName": "city, village,...", "lng": "41.90701", "countryName": "Russia"}, {"geonameId": 869208, "countryId": "2017370", "lat": "43.84691", "adminCode1": "27", "name": "Malokurgannyy", "population": 0, "fcode": "PPL", "adminName1": "Karachayevo-Cherkesiya", "fcl": "P", "countryCode": "RU", "fcodeName": "populated place", "toponymName": "Malokurgannyy", "fclName": "city, village,...", "lng": "41.90952", "countryName": "Russia"}, {"geonameId": 869209, "countryId": "2017370", "lat": "43.83821", "adminCode1": "27", "name": "Kubran\u2019", "population": 0, "fcode": "PPL", "adminName1": "Karachayevo-Cherkesiya", "fcl": "P", "countryCode": "RU", "fcodeName": "populated place", "toponymName": "Kubran\u2019", "fclName": "city, village,...", "lng": "41.9249", "countryName": "Russia"}, {"geonameId": 841005, "countryId": "2017370", "lat": "44.6428", "adminCode1": "70", "name": "Rabochiy", "population": 0, "fcode": "PPL", "adminName1": "Stavropol'skiy", "fcl": "P", "countryCode": "RU", "fcodeName": "populated place", "toponymName": "Rabochiy", "fclName": "city, village,...", "lng": "41.8821", "countryName": "Russia"}, {"geonameId": 841008, "countryId": "2017370", "lat": "44.5682", "adminCode1": "70", "name": "Sotnikova", "population": 0, "fcode": "PPL", "adminName1": "Stavropol'skiy", "fcl": "P", "countryCode": "RU", "fcodeName": "populated place", "toponymName": "Sotnikova", "fclName": "city, village,...", "lng": "41.988", "countryName": "Russia"}, {"geonameId": 841010, "countryId": "2017370", "lat": "44.5382", "adminCode1": "38", "name": "Gogolevskiy", "population": 0, "fcode": "PPL", "adminName1": "Krasnodarskiy", "fcl": "P", "countryCode": "RU", "fcodeName": "populated place", "toponymName": "Gogolevskiy", "fclName": "city, village,...", "lng": "41.5349", "countryName": "Russia"}, {"geonameId": 841015, "countryId": "2017370", "lat": "44.525", "adminCode1": "70", "name": "Khar\u2019kovskiy", "population": 0, "fcode": "PPL", "adminName1": "Stavropol'skiy", "fcl": "P", "countryCode": "RU", "fcodeName": "populated place", "toponymName": "Khar\u2019kovskiy", "fclName": "city, village,...", "lng": "41.8947", "countryName": "Russia"}, {"geonameId": 841020, "countryId": "2017370", "lat": "44.4375", "adminCode1": "38", "name": "Nizhniy", "population": 0, "fcode": "PPL", "adminName1": "Krasnodarskiy", "fcl": "P", "countryCode": "RU", "fcodeName": "populated place", "toponymName": "Nizhniy", "fclName": "city, village,...", "lng": "41.5528", "countryName": "Russia"}, {"geonameId": 841035, "countryId": "2017370", "lat": "44.2923", "adminCode1": "38", "name": "Khloponin", "population": 0, "fcode": "PPL", "adminName1": "Krasnodarskiy", "fcl": "P", "countryCode": "RU", "fcodeName": "populated place", "toponymName": "Khloponin", "fclName": "city, village,...", "lng": "41.5794", "countryName": "Russia"}, {"geonameId": 841042, "countryId": "2017370", "lat": "44.207", "adminCode1": "27", "name": "Bavuko", "population": 0, "fcode": "PPL", "adminName1": "Karachayevo-Cherkesiya", "fcl": "P", "countryCode": "RU", "fcodeName": "populated place", "toponymName": "Bavuko", "fclName": "city, village,...", "lng": "41.8943", "countryName": "Russia"}, {"geonameId": 841049, "countryId": "2017370", "lat": "44.1477", "adminCode1": "38", "name": "Pen\u2019kozavod", "population": 0, "fcode": "PPL", "adminName1": "Krasnodarskiy", "fcl": "P", "countryCode": "RU", "fcodeName": "populated place", "toponymName": "Pen\u2019kozavod", "fclName": "city, village,...", "lng": "41.5276", "countryName": "Russia"}, {"geonameId": 841060, "countryId": "2017370", "lat": "44.0159", "adminCode1": "27", "name": "Plavni", "population": 0, "fcode": "PPL", "adminName1": "Karachayevo-Cherkesiya", "fcl": "P", "countryCode": "RU", "fcodeName": "populated place", "toponymName": "Plavni", "fclName": "city, village,...", "lng": "41.5657", "countryName": "Russia"}, {"geonameId": 841080, "countryId": "2017370", "lat": "44.63028", "adminCode1": "70", "name": "Belovskiy", "population": 0, "fcode": "PPL", "adminName1": "Stavropol'skiy", "fcl": "P", "countryCode": "RU", "fcodeName": "populated place", "toponymName": "Belovskiy", "fclName": "city, village,...", "lng": "41.66194", "countryName": "Russia"}, {"geonameId": 841082, "countryId": "2017370", "lat": "44.10472", "adminCode1": "27", "name": "Ispravnaya", "population": 0, "fcode": "PPL", "adminName1": "Karachayevo-Cherkesiya", "fcl": "P", "countryCode": "RU", "fcodeName": "populated place", "toponymName": "Ispravnaya", "fclName": "city, village,...", "lng": "41.62889", "countryName": "Russia"}, {"geonameId": 841197, "countryId": "2017370", "lat": "44.70833", "adminCode1": "70", "name": "Zakubanskiy", "population": 0, "fcode": "PPL", "adminName1": "Stavropol'skiy", "fcl": "P", "countryCode": "RU", "fcodeName": "populated place", "toponymName": "Zakubanskiy", "fclName": "city, village,...", "lng": "42.04861", "countryName": "Russia"}, {"geonameId": 841272, "countryId": "2017370", "lat": "44.3273", "adminCode1": "27", "name": "Chapayevskoye", "population": 0, "fcode": "PPLQ", "adminName1": "Karachayevo-Cherkesiya", "fcl": "P", "countryCode": "RU", "fcodeName": "abandoned populated place", "toponymName": "Chapayevskoye", "fclName": "city, village,...", "lng": "42.0593", "countryName": "Russia"}, {"geonameId": 841280, "countryId": "2017370", "lat": "44.2157", "adminCode1": "27", "name": "Zarechnyy", "population": 0, "fcode": "PPL", "adminName1": "Karachayevo-Cherkesiya", "fcl": "P", "countryCode": "RU", "fcodeName": "populated place", "toponymName": "Zarechnyy", "fclName": "city, village,...", "lng": "42.0019", "countryName": "Russia"}, {"geonameId": 841288, "countryId": "2017370", "lat": "44.1603", "adminCode1": "27", "name": "Privol\u2019nyy", "population": 0, "fcode": "PPL", "adminName1": "Karachayevo-Cherkesiya", "fcl": "P", "countryCode": "RU", "fcodeName": "populated place", "toponymName": "Privol\u2019nyy", "fclName": "city, village,...", "lng": "42.1464", "countryName": "Russia"}, {"geonameId": 841290, "countryId": "2017370", "lat": "44.154", "adminCode1": "27", "name": "Tallyk", "population": 0, "fcode": "PPL", "adminName1": "Karachayevo-Cherkesiya", "fcl": "P", "countryCode": "RU", "fcodeName": "populated place", "toponymName": "Tallyk", "fclName": "city, village,...", "lng": "42.352", "countryName": "Russia"}, {"geonameId": 841442, "countryId": "2017370", "lat": "44.7113", "adminCode1": "70", "name": "Barsukovskoye", "population": 0, "fcode": "PPL", "adminName1": "Stavropol'skiy", "fcl": "P", "countryCode": "RU", "fcodeName": "populated place", "toponymName": "Barsukovskoye", "fclName": "city, village,...", "lng": "41.8411", "countryName": "Russia"}, {"geonameId": 805044, "countryId": "2017370", "lat": "44.5644", "adminCode1": "38", "name": "Kanevskiy", "population": 0, "fcode": "PPL", "adminName1": "Krasnodarskiy", "fcl": "P", "countryCode": "RU", "fcodeName": "populated place", "toponymName": "Kanevskiy", "fclName": "city, village,...", "lng": "41.4362", "countryName": "Russia"}, {"geonameId": 805119, "countryId": "2017370", "lat": "44.7347", "adminCode1": "38", "name": "Podkovskiy", "population": 0, "fcode": "PPL", "adminName1": "Krasnodarskiy", "fcl": "P", "countryCode": "RU", "fcodeName": "populated place", "toponymName": "Podkovskiy", "fclName": "city, village,...", "lng": "41.47367", "countryName": "Russia"}, {"geonameId": 805120, "countryId": "2017370", "lat": "44.734", "adminCode1": "38", "name": "Lok", "population": 0, "fcode": "PPL", "adminName1": "Krasnodarskiy", "fcl": "P", "countryCode": "RU", "fcodeName": "populated place", "toponymName": "Lok", "fclName": "city, village,...", "lng": "41.5126", "countryName": "Russia"}, {"geonameId": 805164, "countryId": "2017370", "lat": "44.201", "adminCode1": "38", "name": "Lazarchuk", "population": 0, "fcode": "PPL", "adminName1": "Krasnodarskiy", "fcl": "P", "countryCode": "RU", "fcodeName": "populated place", "toponymName": "Lazarchuk", "fclName": "city, village,...", "lng": "41.5421", "countryName": "Russia"}, {"geonameId": 805165, "countryId": "2017370", "lat": "44.2186", "adminCode1": "38", "name": "Romanchukov", "population": 0, "fcode": "PPL", "adminName1": "Krasnodarskiy", "fcl": "P", "countryCode": "RU", "fcodeName": "populated place", "toponymName": "Romanchukov", "fclName": "city, village,...", "lng": "41.5472", "countryName": "Russia"}, {"geonameId": 805170, "countryId": "2017370", "lat": "44.228", "adminCode1": "38", "name": "Stolyarov", "population": 0, "fcode": "PPL", "adminName1": "Krasnodarskiy", "fcl": "P", "countryCode": "RU", "fcodeName": "populated place", "toponymName": "Stolyarov", "fclName": "city, village,...", "lng": "41.5562", "countryName": "Russia"}, {"geonameId": 805231, "countryId": "2017370", "lat": "44.3822", "adminCode1": "27", "name": "Maloabazinka", "population": 0, "fcode": "PPL", "adminName1": "Karachayevo-Cherkesiya", "fcl": "P", "countryCode": "RU", "fcodeName": "populated place", "toponymName": "Maloabazinka", "fclName": "city, village,...", "lng": "41.6776", "countryName": "Russia"}, {"geonameId": 805235, "countryId": "2017370", "lat": "44.47817", "adminCode1": "38", "name": "Muravey", "population": 0, "fcode": "PPL", "adminName1": "Krasnodarskiy", "fcl": "P", "countryCode": "RU", "fcodeName": "populated place", "toponymName": "Muravey", "fclName": "city, village,...", "lng": "41.7334", "countryName": "Russia"}, {"geonameId": 805246, "countryId": "2017370", "lat": "44.6776", "adminCode1": "70", "name": "Pervokaz\u2019minskiy", "population": 0, "fcode": "PPL", "adminName1": "Stavropol'skiy", "fcl": "P", "countryCode": "RU", "fcodeName": "populated place", "toponymName": "Pervokaz\u2019minskiy", "fclName": "city, village,...", "lng": "41.5498", "countryName": "Russia"}, {"geonameId": 805283, "countryId": "2017370", "lat": "44.6188", "adminCode1": "70", "name": "Leninskiy", "population": 0, "fcode": "PPL", "adminName1": "Stavropol'skiy", "fcl": "P", "countryCode": "RU", "fcodeName": "populated place", "toponymName": "Leninskiy", "fclName": "city, village,...", "lng": "41.9068", "countryName": "Russia"}, {"geonameId": 805284, "countryId": "2017370", "lat": "44.5972", "adminCode1": "70", "name": "Nizki", "population": 0, "fcode": "PPL", "adminName1": "Stavropol'skiy", "fcl": "P", "countryCode": "RU", "fcodeName": "populated place", "toponymName": "Nizki", "fclName": "city, village,...", "lng": "41.9431", "countryName": "Russia"}, {"geonameId": 805285, "countryId": "2017370", "lat": "44.5919", "adminCode1": "70", "name": "Krasnaya Derevnya", "population": 0, "fcode": "PPL", "adminName1": "Stavropol'skiy", "fcl": "P", "countryCode": "RU", "fcodeName": "populated place", "toponymName": "Krasnaya Derevnya", "fclName": "city, village,...", "lng": "41.9184", "countryName": "Russia"}, {"geonameId": 805288, "countryId": "2017370", "lat": "44.57762", "adminCode1": "70", "name": "Novozelenchukskiy", "population": 0, "fcode": "PPL", "adminName1": "Stavropol'skiy", "fcl": "P", "countryCode": "RU", "fcodeName": "populated place", "toponymName": "Novozelenchukskiy", "fclName": "city, village,...", "lng": "41.89698", "countryName": "Russia"}, {"geonameId": 805292, "countryId": "2017370", "lat": "44.5392", "adminCode1": "70", "name": "Degtyar\u00ebvskiy", "population": 0, "fcode": "PPL", "adminName1": "Stavropol'skiy", "fcl": "P", "countryCode": "RU", "fcodeName": "populated place", "toponymName": "Degtyar\u00ebvskiy", "fclName": "city, village,...", "lng": "41.9276", "countryName": "Russia"}, {"geonameId": 805294, "countryId": "2017370", "lat": "44.5283", "adminCode1": "70", "name": "Novokubanskiy", "population": 0, "fcode": "PPL", "adminName1": "Stavropol'skiy", "fcl": "P", "countryCode": "RU", "fcodeName": "populated place", "toponymName": "Novokubanskiy", "fclName": "city, village,...", "lng": "41.9362", "countryName": "Russia"}, {"geonameId": 805296, "countryId": "2017370", "lat": "44.5135", "adminCode1": "70", "name": "Novorodnikovskiy", "population": 0, "fcode": "PPL", "adminName1": "Stavropol'skiy", "fcl": "P", "countryCode": "RU", "fcodeName": "populated place", "toponymName": "Novorodnikovskiy", "fclName": "city, village,...", "lng": "41.9184", "countryName": "Russia"}, {"geonameId": 805812, "countryId": "2017370", "lat": "44.18639", "adminCode1": "27", "name": "Il\u2019ich\u00ebvskoye", "population": 0, "fcode": "PPL", "adminName1": "Karachayevo-Cherkesiya", "fcl": "P", "countryCode": "RU", "fcodeName": "populated place", "toponymName": "Il\u2019ich\u00ebvskoye", "fclName": "city, village,...", "lng": "42.14944", "countryName": "Russia"}, {"geonameId": 805873, "countryId": "2017370", "lat": "44.5778", "adminCode1": "70", "name": "Kian", "population": 0, "fcode": "PPL", "adminName1": "Stavropol'skiy", "fcl": "P", "countryCode": "RU", "fcodeName": "populated place", "toponymName": "Kian", "fclName": "city, village,...", "lng": "42.2123", "countryName": "Russia"}, {"geonameId": 805894, "countryId": "2017370", "lat": "44.6625", "adminCode1": "70", "name": "Pavlovka", "population": 0, "fcode": "PPL", "adminName1": "Stavropol'skiy", "fcl": "P", "countryCode": "RU", "fcodeName": "populated place", "toponymName": "Pavlovka", "fclName": "city, village,...", "lng": "42.2984", "countryName": "Russia"}, {"geonameId": 7433980, "countryId": "2017370", "lat": "44.005", "adminCode1": "27", "name": "Novaya Dzheguta", "population": 0, "fcode": "PPL", "adminName1": "Karachayevo-Cherkesiya", "fcl": "P", "countryCode": "RU", "fcodeName": "populated place", "toponymName": "Novaya Dzheguta", "fclName": "city, village,...", "lng": "42.0415", "countryName": "Russia"}, {"geonameId": 463887, "countryId": "2017370", "lat": "44.2475", "adminCode1": "38", "name": "Zelenchuk-Mostovoy", "population": 0, "fcode": "PPL", "adminName1": "Krasnodarskiy", "fcl": "P", "countryCode": "RU", "fcodeName": "populated place", "toponymName": "Zelenchuk-Mostovoy", "fclName": "city, village,...", "lng": "41.7246", "countryName": "Russia"}, {"geonameId": 471119, "countryId": "2017370", "lat": "44.698", "adminCode1": "70", "name": "Vrevskoye", "population": 0, "fcode": "PPL", "adminName1": "Stavropol'skiy", "fcl": "P", "countryCode": "RU", "fcodeName": "populated place", "toponymName": "Vrevskoye", "fclName": "city, village,...", "lng": "41.5326", "countryName": "Russia"}, {"geonameId": 471641, "countryId": "2017370", "lat": "44.5103", "adminCode1": "38", "name": "Voskresenskoye", "population": 0, "fcode": "PPL", "adminName1": "Krasnodarskiy", "fcl": "P", "countryCode": "RU", "fcodeName": "populated place", "toponymName": "Voskresenskoye", "fclName": "city, village,...", "lng": "41.462", "countryName": "Russia"}, {"geonameId": 472038, "countryId": "2017370", "lat": "44.5313", "adminCode1": "70", "name": "Voronezhskoye", "population": 0, "fcode": "PPL", "adminName1": "Stavropol'skiy", "fcl": "P", "countryCode": "RU", "fcodeName": "populated place", "toponymName": "Voronezhskoye", "fclName": "city, village,...", "lng": "41.8355", "countryName": "Russia"}, {"geonameId": 475568, "countryId": "2017370", "lat": "44.6744", "adminCode1": "70", "name": "Verkhnekolonskiy", "population": 0, "fcode": "PPLQ", "adminName1": "Stavropol'skiy", "fcl": "P", "countryCode": "RU", "fcodeName": "abandoned populated place", "toponymName": "Verkhnekolonskiy", "fclName": "city, village,...", "lng": "42.3432", "countryName": "Russia"}, {"geonameId": 478210, "countryId": "2017370", "lat": "44.73622", "adminCode1": "38", "name": "Uspenskiy", "population": 0, "fcode": "PPL", "adminName1": "Krasnodarskiy", "fcl": "P", "countryCode": "RU", "fcodeName": "populated place", "toponymName": "Uspenskiy", "fclName": "city, village,...", "lng": "41.46292", "countryName": "Russia"}, {"geonameId": 478588, "countryId": "2017370", "lat": "44.4528", "adminCode1": "38", "name": "Urupskiy", "population": 0, "fcode": "PPL", "adminName1": "Krasnodarskiy", "fcl": "P", "countryCode": "RU", "fcodeName": "populated place", "toponymName": "Urupskiy", "fclName": "city, village,...", "lng": "41.5719", "countryName": "Russia"}, {"geonameId": 479287, "countryId": "2017370", "lat": "44.553", "adminCode1": "38", "name": "Ulanovskiy", "population": 0, "fcode": "PPL", "adminName1": "Krasnodarskiy", "fcl": "P", "countryCode": "RU", "fcodeName": "populated place", "toponymName": "Ulanovskiy", "fclName": "city, village,...", "lng": "41.441", "countryName": "Russia"}, {"geonameId": 479592, "countryId": "2017370", "lat": "44.2098", "adminCode1": "38", "name": "Udobno-Zelenchukskiy", "population": 0, "fcode": "PPL", "adminName1": "Krasnodarskiy", "fcl": "P", "countryCode": "RU", "fcodeName": "populated place", "toponymName": "Udobno-Zelenchukskiy", "fclName": "city, village,...", "lng": "41.7087", "countryName": "Russia"}, {"geonameId": 479595, "countryId": "2017370", "lat": "44.3371", "adminCode1": "38", "name": "Udobno-Grushka", "population": 0, "fcode": "PPL", "adminName1": "Krasnodarskiy", "fcl": "P", "countryCode": "RU", "fcodeName": "populated place", "toponymName": "Udobno-Grushka", "fclName": "city, village,...", "lng": "41.6577", "countryName": "Russia"}, {"geonameId": 542336, "countryId": "2017370", "lat": "44.59417", "adminCode1": "38", "name": "Krasnogvardeyskoye", "population": 0, "fcode": "PPL", "adminName1": "Krasnodarskiy", "fcl": "P", "countryCode": "RU", "fcodeName": "populated place", "toponymName": "Krasnogvardeyskoye", "fclName": "city, village,...", "lng": "41.41333", "countryName": "Russia"}, {"geonameId": 557488, "countryId": "2017370", "lat": "44.69167", "adminCode1": "70", "name": "Ignat\u2019yevskiy", "population": 0, "fcode": "PPLQ", "adminName1": "Stavropol'skiy", "fcl": "P", "countryCode": "RU", "fcodeName": "abandoned populated place", "toponymName": "Ignat\u2019yevskiy", "fclName": "city, village,...", "lng": "41.63417", "countryName": "Russia"}, {"geonameId": 558038, "countryId": "2017370", "lat": "44.72194", "adminCode1": "70", "name": "Gulyay Pole", "population": 0, "fcode": "PPLQ", "adminName1": "Stavropol'skiy", "fcl": "P", "countryCode": "RU", "fcodeName": "abandoned populated place", "toponymName": "Gulyay Pole", "fclName": "city, village,...", "lng": "42.24528", "countryName": "Russia"}, {"geonameId": 537324, "countryId": "2017370", "lat": "43.92915", "adminCode1": "27", "name": "Kyzyl-Pokun", "population": 0, "fcode": "PPL", "adminName1": "Karachayevo-Cherkesiya", "fcl": "P", "countryCode": "RU", "fcodeName": "populated place", "toponymName": "Kyzyl-Pokun", "fclName": "city, village,...", "lng": "42.3256", "countryName": "Russia"}, {"geonameId": 551310, "countryId": "2017370", "lat": "44.5", "adminCode1": "70", "name": "Kazinskiy", "population": 0, "fcode": "PPLQ", "adminName1": "Stavropol'skiy", "fcl": "P", "countryCode": "RU", "fcodeName": "abandoned populated place", "toponymName": "Kazinskiy", "fclName": "city, village,...", "lng": "42.10028", "countryName": "Russia"}, {"geonameId": 509710, "countryId": "2017370", "lat": "44.63861", "adminCode1": "70", "name": "Petukhovskiy", "population": 0, "fcode": "PPLQ", "adminName1": "Stavropol'skiy", "fcl": "P", "countryCode": "RU", "fcodeName": "abandoned populated place", "toponymName": "Petukhovskiy", "fclName": "city, village,...", "lng": "42.34111", "countryName": "Russia"}, {"geonameId": 517756, "countryId": "2017370", "lat": "44.3652", "adminCode1": "38", "name": "Novourupskiy", "population": 0, "fcode": "PPL", "adminName1": "Krasnodarskiy", "fcl": "P", "countryCode": "RU", "fcodeName": "populated place", "toponymName": "Novourupskiy", "fclName": "city, village,...", "lng": "41.5549", "countryName": "Russia"}, {"geonameId": 481593, "countryId": "2017370", "lat": "44.5288", "adminCode1": "38", "name": "Troitskiy", "population": 0, "fcode": "PPL", "adminName1": "Krasnodarskiy", "fcl": "P", "countryCode": "RU", "fcodeName": "populated place", "toponymName": "Troitskiy", "fclName": "city, village,...", "lng": "41.4546", "countryName": "Russia"}, {"geonameId": 481880, "countryId": "2017370", "lat": "44.5896", "adminCode1": "38", "name": "Traktovyy", "population": 0, "fcode": "PPL", "adminName1": "Krasnodarskiy", "fcl": "P", "countryCode": "RU", "fcodeName": "populated place", "toponymName": "Traktovyy", "fclName": "city, village,...", "lng": "41.3829", "countryName": "Russia"}, {"geonameId": 869056, "countryId": "2017370", "lat": "43.85298", "adminCode1": "27", "name": "Karakent", "population": 0, "fcode": "PPLQ", "adminName1": "Karachayevo-Cherkesiya", "fcl": "P", "countryCode": "RU", "fcodeName": "abandoned populated place", "toponymName": "Karakent", "fclName": "city, village,...", "lng": "41.89206", "countryName": "Russia"}, {"geonameId": 841014, "countryId": "2017370", "lat": "44.4893", "adminCode1": "70", "name": "Vorotnikovskiy", "population": 0, "fcode": "PPL", "adminName1": "Stavropol'skiy", "fcl": "P", "countryCode": "RU", "fcodeName": "populated place", "toponymName": "Vorotnikovskiy", "fclName": "city, village,...", "lng": "41.8248", "countryName": "Russia"}, {"geonameId": 841018, "countryId": "2017370", "lat": "44.474", "adminCode1": "38", "name": "Svetlyy", "population": 0, "fcode": "PPL", "adminName1": "Krasnodarskiy", "fcl": "P", "countryCode": "RU", "fcodeName": "populated place", "toponymName": "Svetlyy", "fclName": "city, village,...", "lng": "41.5305", "countryName": "Russia"}, {"geonameId": 841021, "countryId": "2017370", "lat": "44.4257", "adminCode1": "38", "name": "Yuzhnyy", "population": 0, "fcode": "PPL", "adminName1": "Krasnodarskiy", "fcl": "P", "countryCode": "RU", "fcodeName": "populated place", "toponymName": "Yuzhnyy", "fclName": "city, village,...", "lng": "41.5787", "countryName": "Russia"}, {"geonameId": 841051, "countryId": "2017370", "lat": "44.113", "adminCode1": "27", "name": "Tsementnyy", "population": 0, "fcode": "PPL", "adminName1": "Karachayevo-Cherkesiya", "fcl": "P", "countryCode": "RU", "fcodeName": "populated place", "toponymName": "Tsementnyy", "fclName": "city, village,...", "lng": "41.982", "countryName": "Russia"}, {"geonameId": 841062, "countryId": "2017370", "lat": "44.0504", "adminCode1": "27", "name": "Rogozhka", "population": 0, "fcode": "PPLQ", "adminName1": "Karachayevo-Cherkesiya", "fcl": "P", "countryCode": "RU", "fcodeName": "abandoned populated place", "toponymName": "Rogozhka", "fclName": "city, village,...", "lng": "41.4831", "countryName": "Russia"}, {"geonameId": 841081, "countryId": "2017370", "lat": "44.28306", "adminCode1": "38", "name": "Spokoynaya", "population": 0, "fcode": "PPL", "adminName1": "Krasnodarskiy", "fcl": "P", "countryCode": "RU", "fcodeName": "populated place", "toponymName": "Spokoynaya", "fclName": "city, village,...", "lng": "41.44278", "countryName": "Russia"}, {"geonameId": 841306, "countryId": "2017370", "lat": "44.00222", "adminCode1": "27", "name": "Gornyy", "population": 0, "fcode": "PPLQ", "adminName1": "Karachayevo-Cherkesiya", "fcl": "P", "countryCode": "RU", "fcodeName": "abandoned populated place", "toponymName": "Gornyy", "fclName": "city, village,...", "lng": "42.19278", "countryName": "Russia"}, {"geonameId": 841441, "countryId": "2017370", "lat": "44.74528", "adminCode1": "70", "name": "Svistukha", "population": 0, "fcode": "PPL", "adminName1": "Stavropol'skiy", "fcl": "P", "countryCode": "RU", "fcodeName": "populated place", "toponymName": "Svistukha", "fclName": "city, village,...", "lng": "41.89623", "countryName": "Russia"}, {"geonameId": 805230, "countryId": "2017370", "lat": "44.3768", "adminCode1": "27", "name": "Urochishche Grushka", "population": 0, "fcode": "PPL", "adminName1": "Karachayevo-Cherkesiya", "fcl": "P", "countryCode": "RU", "fcodeName": "populated place", "toponymName": "Urochishche Grushka", "fclName": "city, village,...", "lng": "41.6675", "countryName": "Russia"}, {"geonameId": 805297, "countryId": "2017370", "lat": "44.4889", "adminCode1": "27", "name": "Yevseyevskiy", "population": 0, "fcode": "PPL", "adminName1": "Karachayevo-Cherkesiya", "fcl": "P", "countryCode": "RU", "fcodeName": "populated place", "toponymName": "Yevseyevskiy", "fclName": "city, village,...", "lng": "41.9171", "countryName": "Russia"}, {"geonameId": 462066, "countryId": "2017370", "lat": "44.14972", "adminCode1": "38", "name": "Zubkov", "population": 0, "fcode": "PPL", "adminName1": "Krasnodarskiy", "fcl": "P", "countryCode": "RU", "fcodeName": "populated place", "toponymName": "Zubkov", "fclName": "city, village,...", "lng": "41.51667", "countryName": "Russia"}, {"geonameId": 463517, "countryId": "2017370", "lat": "44.66667", "adminCode1": "70", "name": "Zharkovskiy", "population": 0, "fcode": "PPL", "adminName1": "Stavropol'skiy", "fcl": "P", "countryCode": "RU", "fcodeName": "populated place", "toponymName": "Zharkovskiy", "fclName": "city, village,...", "lng": "42.1", "countryName": "Russia"}, {"geonameId": 464354, "countryId": "2017370", "lat": "44.16306", "adminCode1": "27", "name": "Zarya Truda", "population": 0, "fcode": "PPL", "adminName1": "Karachayevo-Cherkesiya", "fcl": "P", "countryCode": "RU", "fcodeName": "populated place", "toponymName": "Zarya Truda", "fclName": "city, village,...", "lng": "42.14917", "countryName": "Russia"}, {"geonameId": 464356, "countryId": "2017370", "lat": "44.67083", "adminCode1": "70", "name": "Zarya Svobody", "population": 0, "fcode": "PPL", "adminName1": "Stavropol'skiy", "fcl": "P", "countryCode": "RU", "fcodeName": "populated place", "toponymName": "Zarya Svobody", "fclName": "city, village,...", "lng": "41.56833", "countryName": "Russia"}, {"geonameId": 470159, "countryId": "2017370", "lat": "44.52889", "adminCode1": "70", "name": "Vysokopol'ye", "population": 0, "fcode": "PPL", "adminName1": "Stavropol'skiy", "fcl": "P", "countryCode": "RU", "fcodeName": "populated place", "toponymName": "Vysokopol'ye", "fclName": "city, village,...", "lng": "41.74306", "countryName": "Russia"}, {"geonameId": 471485, "countryId": "2017370", "lat": "43.84338", "adminCode1": "27", "name": "Vostok", "population": 0, "fcode": "PPL", "adminName1": "Karachayevo-Cherkesiya", "fcl": "P", "countryCode": "RU", "fcodeName": "populated place", "toponymName": "Vostok", "fclName": "city, village,...", "lng": "41.82501", "countryName": "Russia"}, {"geonameId": 471688, "countryId": "2017370", "lat": "44.68306", "adminCode1": "70", "name": "Voskhodskiy", "population": 0, "fcode": "PPL", "adminName1": "Stavropol'skiy", "fcl": "P", "countryCode": "RU", "fcodeName": "populated place", "toponymName": "Voskhodskiy", "fclName": "city, village,...", "lng": "41.56667", "countryName": "Russia"}, {"geonameId": 471829, "countryId": "2017370", "lat": "44.48306", "adminCode1": "27", "name": "Voroshilovskiy", "population": 0, "fcode": "PPL", "adminName1": "Karachayevo-Cherkesiya", "fcl": "P", "countryCode": "RU", "fcodeName": "populated place", "toponymName": "Voroshilovskiy", "fclName": "city, village,...", "lng": "41.83306", "countryName": "Russia"}, {"geonameId": 472036, "countryId": "2017370", "lat": "44.68306", "adminCode1": "70", "name": "Voronezhskiy", "population": 0, "fcode": "PPL", "adminName1": "Stavropol'skiy", "fcl": "P", "countryCode": "RU", "fcodeName": "populated place", "toponymName": "Voronezhskiy", "fclName": "city, village,...", "lng": "42.31667", "countryName": "Russia"}, {"geonameId": 466212, "countryId": "2017370", "lat": "44.6625", "adminCode1": "38", "name": "Yur'yevskiy", "population": 0, "fcode": "PPL", "adminName1": "Krasnodarskiy", "fcl": "P", "countryCode": "RU", "fcodeName": "populated place", "toponymName": "Yur'yevskiy", "fclName": "city, village,...", "lng": "41.43556", "countryName": "Russia"}, {"geonameId": 468727, "countryId": "2017370", "lat": "44.61667", "adminCode1": "38", "name": "Yasnaya Polyana", "population": 0, "fcode": "PPL", "adminName1": "Krasnodarskiy", "fcl": "P", "countryCode": "RU", "fcodeName": "populated place", "toponymName": "Yasnaya Polyana", "fclName": "city, village,...", "lng": "41.54972", "countryName": "Russia"}, {"geonameId": 476050, "countryId": "2017370", "lat": "44.63917", "adminCode1": "70", "name": "Velikoknyazheskoye", "population": 0, "fcode": "PPL", "adminName1": "Stavropol'skiy", "fcl": "P", "countryCode": "RU", "fcodeName": "populated place", "toponymName": "Velikoknyazheskoye", "fclName": "city, village,...", "lng": "41.84306", "countryName": "Russia"}, {"geonameId": 477195, "countryId": "2017370", "lat": "44.63889", "adminCode1": "70", "name": "Valuyevskiy", "population": 0, "fcode": "PPL", "adminName1": "Stavropol'skiy", "fcl": "P", "countryCode": "RU", "fcodeName": "populated place", "toponymName": "Valuyevskiy", "fclName": "city, village,...", "lng": "41.65667", "countryName": "Russia"}, {"geonameId": 477686, "countryId": "2017370", "lat": "44.72306", "adminCode1": "38", "name": "Utro", "population": 0, "fcode": "PPL", "adminName1": "Krasnodarskiy", "fcl": "P", "countryCode": "RU", "fcodeName": "populated place", "toponymName": "Utro", "fclName": "city, village,...", "lng": "41.41667", "countryName": "Russia"}, {"geonameId": 479228, "countryId": "2017370", "lat": "43.8", "adminCode1": "27", "name": "Ullukol", "population": 0, "fcode": "PPL", "adminName1": "Karachayevo-Cherkesiya", "fcl": "P", "countryCode": "RU", "fcodeName": "populated place", "toponymName": "Ullukol", "fclName": "city, village,...", "lng": "42.3", "countryName": "Russia"}, {"geonameId": 479594, "countryId": "2017370", "lat": "44.31556", "adminCode1": "38", "name": "Udobno-Pokrovskiy", "population": 0, "fcode": "PPL", "adminName1": "Krasnodarskiy", "fcl": "P", "countryCode": "RU", "fcodeName": "populated place", "toponymName": "Udobno-Pokrovskiy", "fclName": "city, village,...", "lng": "41.67667", "countryName": "Russia"}, {"geonameId": 479645, "countryId": "2017370", "lat": "44.25", "adminCode1": "27", "name": "Udarnyy", "population": 0, "fcode": "PPL", "adminName1": "Karachayevo-Cherkesiya", "fcl": "P", "countryCode": "RU", "fcodeName": "populated place", "toponymName": "Udarnyy", "fclName": "city, village,...", "lng": "42.36667", "countryName": "Russia"}, {"geonameId": 541447, "countryId": "2017370", "lat": "44.28306", "adminCode1": "38", "name": "Krasnyy Post", "population": 0, "fcode": "PPL", "adminName1": "Krasnodarskiy", "fcl": "P", "countryCode": "RU", "fcodeName": "populated place", "toponymName": "Krasnyy Post", "fclName": "city, village,...", "lng": "41.45", "countryName": "Russia"}, {"geonameId": 541848, "countryId": "2017370", "lat": "44.29972", "adminCode1": "38", "name": "Krasnyy Bereg", "population": 0, "fcode": "PPL", "adminName1": "Krasnodarskiy", "fcl": "P", "countryCode": "RU", "fcodeName": "populated place", "toponymName": "Krasnyy Bereg", "fclName": "city, village,...", "lng": "41.58778", "countryName": "Russia"}, {"geonameId": 541849, "countryId": "2017370", "lat": "44.41556", "adminCode1": "38", "name": "Krasnyy Batrak", "population": 0, "fcode": "PPL", "adminName1": "Krasnodarskiy", "fcl": "P", "countryCode": "RU", "fcodeName": "populated place", "toponymName": "Krasnyy Batrak", "fclName": "city, village,...", "lng": "41.67167", "countryName": "Russia"}, {"geonameId": 543668, "countryId": "2017370", "lat": "44.31917", "adminCode1": "27", "name": "Kotlyarovskiy", "population": 0, "fcode": "PPL", "adminName1": "Karachayevo-Cherkesiya", "fcl": "P", "countryCode": "RU", "fcodeName": "populated place", "toponymName": "Kotlyarovskiy", "fclName": "city, village,...", "lng": "42.24", "countryName": "Russia"}, {"geonameId": 555792, "countryId": "2017370", "lat": "44.13639", "adminCode1": "27", "name": "Issayevskiy", "population": 0, "fcode": "PPLX", "adminName1": "Karachayevo-Cherkesiya", "fcl": "P", "countryCode": "RU", "fcodeName": "section of populated place", "toponymName": "Issayevskiy", "fclName": "city, village,...", "lng": "42.25667", "countryName": "Russia"}, {"geonameId": 558375, "countryId": "2017370", "lat": "44.33556", "adminCode1": "38", "name": "Grushka", "population": 0, "fcode": "PPL", "adminName1": "Krasnodarskiy", "fcl": "P", "countryCode": "RU", "fcodeName": "populated place", "toponymName": "Grushka", "fclName": "city, village,...", "lng": "41.64056", "countryName": "Russia"}, {"geonameId": 560473, "countryId": "2017370", "lat": "44.49417", "adminCode1": "70", "name": "Golyakovskiy", "population": 0, "fcode": "PPL", "adminName1": "Stavropol'skiy", "fcl": "P", "countryCode": "RU", "fcodeName": "populated place", "toponymName": "Golyakovskiy", "fclName": "city, village,...", "lng": "42.20139", "countryName": "Russia"}, {"geonameId": 561149, "countryId": "2017370", "lat": "44.35", "adminCode1": "70", "name": "Glubokiy", "population": 0, "fcode": "PPL", "adminName1": "Stavropol'skiy", "fcl": "P", "countryCode": "RU", "fcodeName": "populated place", "toponymName": "Glubokiy", "fclName": "city, village,...", "lng": "42.13306", "countryName": "Russia"}, {"geonameId": 563690, "countryId": "2017370", "lat": "44.1", "adminCode1": "27", "name": "Dzhagonasskiy", "population": 0, "fcode": "PPL", "adminName1": "Karachayevo-Cherkesiya", "fcl": "P", "countryCode": "RU", "fcodeName": "populated place", "toponymName": "Dzhagonasskiy", "fclName": "city, village,...", "lng": "41.98306", "countryName": "Russia"}, {"geonameId": 535758, "countryId": "2017370", "lat": "44.08222", "adminCode1": "27", "name": "Lesnoy", "population": 0, "fcode": "PPL", "adminName1": "Karachayevo-Cherkesiya", "fcl": "P", "countryCode": "RU", "fcodeName": "populated place", "toponymName": "Lesnoy", "fclName": "city, village,...", "lng": "41.97222", "countryName": "Russia"}, {"geonameId": 536146, "countryId": "2017370", "lat": "44.67556", "adminCode1": "70", "name": "Leninskiy", "population": 0, "fcode": "PPL", "adminName1": "Stavropol'skiy", "fcl": "P", "countryCode": "RU", "fcodeName": "populated place", "toponymName": "Leninskiy", "fclName": "city, village,...", "lng": "42.11667", "countryName": "Russia"}, {"geonameId": 539442, "countryId": "2017370", "lat": "44.66667", "adminCode1": "70", "name": "Kulikovskiy", "population": 0, "fcode": "PPL", "adminName1": "Stavropol'skiy", "fcl": "P", "countryCode": "RU", "fcodeName": "populated place", "toponymName": "Kulikovskiy", "fclName": "city, village,...", "lng": "41.98306", "countryName": "Russia"}, {"geonameId": 547892, "countryId": "2017370", "lat": "44.64972", "adminCode1": "70", "name": "Kiyevskoye", "population": 0, "fcode": "PPL", "adminName1": "Stavropol'skiy", "fcl": "P", "countryCode": "RU", "fcodeName": "populated place", "toponymName": "Kiyevskoye", "fclName": "city, village,...", "lng": "42.21667", "countryName": "Russia"}, {"geonameId": 548112, "countryId": "2017370", "lat": "44.51667", "adminCode1": "70", "name": "Kislovskiy", "population": 0, "fcode": "PPL", "adminName1": "Stavropol'skiy", "fcl": "P", "countryCode": "RU", "fcodeName": "populated place", "toponymName": "Kislovskiy", "fclName": "city, village,...", "lng": "42.11667", "countryName": "Russia"}, {"geonameId": 550867, "countryId": "2017370", "lat": "44.36667", "adminCode1": "27", "name": "Khabez", "population": 0, "fcode": "PPL", "adminName1": "Karachayevo-Cherkesiya", "fcl": "P", "countryCode": "RU", "fcodeName": "populated place", "toponymName": "Khabez", "fclName": "city, village,...", "lng": "41.71667", "countryName": "Russia"}, {"geonameId": 551308, "countryId": "2017370", "lat": "44.7", "adminCode1": "70", "name": "Kazinskiy", "population": 0, "fcode": "PPL", "adminName1": "Stavropol'skiy", "fcl": "P", "countryCode": "RU", "fcodeName": "populated place", "toponymName": "Kazinskiy", "fclName": "city, village,...", "lng": "42.2", "countryName": "Russia"}, {"geonameId": 551680, "countryId": "2017370", "lat": "44.45", "adminCode1": "38", "name": "Kaveshnikov", "population": 0, "fcode": "PPL", "adminName1": "Krasnodarskiy", "fcl": "P", "countryCode": "RU", "fcodeName": "populated place", "toponymName": "Kaveshnikov", "fclName": "city, village,...", "lng": "41.51667", "countryName": "Russia"}, {"geonameId": 552386, "countryId": "2017370", "lat": "44.51417", "adminCode1": "70", "name": "Karlovka", "population": 0, "fcode": "PPL", "adminName1": "Stavropol'skiy", "fcl": "P", "countryCode": "RU", "fcodeName": "populated place", "toponymName": "Karlovka", "fclName": "city, village,...", "lng": "41.73417", "countryName": "Russia"}, {"geonameId": 553420, "countryId": "2017370", "lat": "44.65167", "adminCode1": "70", "name": "Kamenskiy", "population": 0, "fcode": "PPL", "adminName1": "Stavropol'skiy", "fcl": "P", "countryCode": "RU", "fcodeName": "populated place", "toponymName": "Kamenskiy", "fclName": "city, village,...", "lng": "41.51944", "countryName": "Russia"}, {"geonameId": 554152, "countryId": "2017370", "lat": "44.75", "adminCode1": "38", "name": "Kalinov", "population": 0, "fcode": "PPL", "adminName1": "Krasnodarskiy", "fcl": "P", "countryCode": "RU", "fcodeName": "populated place", "toponymName": "Kalinov", "fclName": "city, village,...", "lng": "41.51667", "countryName": "Russia"}, {"geonameId": 506795, "countryId": "2017370", "lat": "44.65639", "adminCode1": "70", "name": "Polyanskiy", "population": 0, "fcode": "PPL", "adminName1": "Stavropol'skiy", "fcl": "P", "countryCode": "RU", "fcodeName": "populated place", "toponymName": "Polyanskiy", "fclName": "city, village,...", "lng": "41.58333", "countryName": "Russia"}, {"geonameId": 507460, "countryId": "2017370", "lat": "44.40528", "adminCode1": "38", "name": "Pokrovskiy", "population": 0, "fcode": "PPL", "adminName1": "Krasnodarskiy", "fcl": "P", "countryCode": "RU", "fcodeName": "populated place", "toponymName": "Pokrovskiy", "fclName": "city, village,...", "lng": "41.53306", "countryName": "Russia"}, {"geonameId": 507761, "countryId": "2017370", "lat": "44.14972", "adminCode1": "27", "name": "Pogorelovskiy", "population": 0, "fcode": "PPLX", "adminName1": "Karachayevo-Cherkesiya", "fcl": "P", "countryCode": "RU", "fcodeName": "section of populated place", "toponymName": "Pogorelovskiy", "fclName": "city, village,...", "lng": "42.22194", "countryName": "Russia"}, {"geonameId": 509967, "countryId": "2017370", "lat": "44.56667", "adminCode1": "70", "name": "Petrovskiy", "population": 0, "fcode": "PPL", "adminName1": "Stavropol'skiy", "fcl": "P", "countryCode": "RU", "fcodeName": "populated place", "toponymName": "Petrovskiy", "fclName": "city, village,...", "lng": "42.25", "countryName": "Russia"}, {"geonameId": 525584, "countryId": "2017370", "lat": "44.2675", "adminCode1": "27", "name": "Molochnyy", "population": 0, "fcode": "PPL", "adminName1": "Karachayevo-Cherkesiya", "fcl": "P", "countryCode": "RU", "fcodeName": "populated place", "toponymName": "Molochnyy", "fclName": "city, village,...", "lng": "42.09417", "countryName": "Russia"}, {"geonameId": 512037, "countryId": "2017370", "lat": "44.65889", "adminCode1": "70", "name": "Pavlovskiy", "population": 0, "fcode": "PPL", "adminName1": "Stavropol'skiy", "fcl": "P", "countryCode": "RU", "fcodeName": "populated place", "toponymName": "Pavlovskiy", "fclName": "city, village,...", "lng": "41.64778", "countryName": "Russia"}, {"geonameId": 513776, "countryId": "2017370", "lat": "44.74972", "adminCode1": "70", "name": "Ovechka", "population": 0, "fcode": "PPL", "adminName1": "Stavropol'skiy", "fcl": "P", "countryCode": "RU", "fcodeName": "populated place", "toponymName": "Ovechka", "fclName": "city, village,...", "lng": "41.59194", "countryName": "Russia"}, {"geonameId": 515013, "countryId": "2017370", "lat": "44.74417", "adminCode1": "70", "name": "Or\u00ebl", "population": 0, "fcode": "PPL", "adminName1": "Stavropol'skiy", "fcl": "P", "countryCode": "RU", "fcodeName": "populated place", "toponymName": "Or\u00ebl", "fclName": "city, village,...", "lng": "41.63472", "countryName": "Russia"}, {"geonameId": 515922, "countryId": "2017370", "lat": "44.68306", "adminCode1": "70", "name": "Oktyabr'skiy", "population": 0, "fcode": "PPL", "adminName1": "Stavropol'skiy", "fcl": "P", "countryCode": "RU", "fcodeName": "populated place", "toponymName": "Oktyabr'skiy", "fclName": "city, village,...", "lng": "41.46667", "countryName": "Russia"}, {"geonameId": 516211, "countryId": "2017370", "lat": "44.41667", "adminCode1": "38", "name": "Odintsovskiy", "population": 0, "fcode": "PPL", "adminName1": "Krasnodarskiy", "fcl": "P", "countryCode": "RU", "fcodeName": "populated place", "toponymName": "Odintsovskiy", "fclName": "city, village,...", "lng": "41.68306", "countryName": "Russia"}, {"geonameId": 516480, "countryId": "2017370", "lat": "44.42556", "adminCode1": "70", "name": "Obil'nyy", "population": 0, "fcode": "PPL", "adminName1": "Stavropol'skiy", "fcl": "P", "countryCode": "RU", "fcodeName": "populated place", "toponymName": "Obil'nyy", "fclName": "city, village,...", "lng": "42.32167", "countryName": "Russia"}, {"geonameId": 518230, "countryId": "2017370", "lat": "44.72056", "adminCode1": "70", "name": "Novosadovyy", "population": 0, "fcode": "PPL", "adminName1": "Stavropol'skiy", "fcl": "P", "countryCode": "RU", "fcodeName": "populated place", "toponymName": "Novosadovyy", "fclName": "city, village,...", "lng": "42.30056", "countryName": "Russia"}, {"geonameId": 518690, "countryId": "2017370", "lat": "44.61194", "adminCode1": "70", "name": "Novokrasnyy", "population": 0, "fcode": "PPL", "adminName1": "Stavropol'skiy", "fcl": "P", "countryCode": "RU", "fcodeName": "populated place", "toponymName": "Novokrasnyy", "fclName": "city, village,...", "lng": "42.23111", "countryName": "Russia"}, {"geonameId": 518885, "countryId": "2017370", "lat": "44.66389", "adminCode1": "70", "name": "Novogeorgiyevskiy", "population": 0, "fcode": "PPL", "adminName1": "Stavropol'skiy", "fcl": "P", "countryCode": "RU", "fcodeName": "populated place", "toponymName": "Novogeorgiyevskiy", "fclName": "city, village,...", "lng": "42.26694", "countryName": "Russia"}, {"geonameId": 518886, "countryId": "2017370", "lat": "44.14972", "adminCode1": "27", "name": "Novogeorgiyevskiy", "population": 0, "fcode": "PPL", "adminName1": "Karachayevo-Cherkesiya", "fcl": "P", "countryCode": "RU", "fcodeName": "populated place", "toponymName": "Novogeorgiyevskiy", "fclName": "city, village,...", "lng": "42", "countryName": "Russia"}, {"geonameId": 522469, "countryId": "2017370", "lat": "44.50889", "adminCode1": "70", "name": "Nesterovskiy", "population": 0, "fcode": "PPL", "adminName1": "Stavropol'skiy", "fcl": "P", "countryCode": "RU", "fcodeName": "populated place", "toponymName": "Nesterovskiy", "fclName": "city, village,...", "lng": "42.03194", "countryName": "Russia"}, {"geonameId": 524567, "countryId": "2017370", "lat": "44.10389", "adminCode1": "27", "name": "Mukhina", "population": 0, "fcode": "PPL", "adminName1": "Karachayevo-Cherkesiya", "fcl": "P", "countryCode": "RU", "fcodeName": "populated place", "toponymName": "Mukhina", "fclName": "city, village,...", "lng": "41.64528", "countryName": "Russia"}, {"geonameId": 501081, "countryId": "2017370", "lat": "44.54972", "adminCode1": "70", "name": "Rovnyy", "population": 0, "fcode": "PPL", "adminName1": "Stavropol'skiy", "fcl": "P", "countryCode": "RU", "fcodeName": "populated place", "toponymName": "Rovnyy", "fclName": "city, village,...", "lng": "41.76667", "countryName": "Russia"}, {"geonameId": 504819, "countryId": "2017370", "lat": "44.44278", "adminCode1": "70", "name": "Proletarskiy", "population": 0, "fcode": "PPL", "adminName1": "Stavropol'skiy", "fcl": "P", "countryCode": "RU", "fcodeName": "populated place", "toponymName": "Proletarskiy", "fclName": "city, village,...", "lng": "42.36639", "countryName": "Russia"}, {"geonameId": 504933, "countryId": "2017370", "lat": "44.48306", "adminCode1": "38", "name": "Prokhladnyy", "population": 0, "fcode": "PPL", "adminName1": "Krasnodarskiy", "fcl": "P", "countryCode": "RU", "fcodeName": "populated place", "toponymName": "Prokhladnyy", "fclName": "city, village,...", "lng": "41.54417", "countryName": "Russia"}, {"geonameId": 504934, "countryId": "2017370", "lat": "44.45", "adminCode1": "70", "name": "Prokhladnyy", "population": 0, "fcode": "PPL", "adminName1": "Stavropol'skiy", "fcl": "P", "countryCode": "RU", "fcodeName": "populated place", "toponymName": "Prokhladnyy", "fclName": "city, village,...", "lng": "42.23306", "countryName": "Russia"}, {"geonameId": 487164, "countryId": "2017370", "lat": "44.61667", "adminCode1": "70", "name": "Strizhament", "population": 0, "fcode": "PPL", "adminName1": "Stavropol'skiy", "fcl": "P", "countryCode": "RU", "fcodeName": "populated place", "toponymName": "Strizhament", "fclName": "city, village,...", "lng": "42", "countryName": "Russia"}, {"geonameId": 487345, "countryId": "2017370", "lat": "44.61639", "adminCode1": "70", "name": "Stoyalov", "population": 0, "fcode": "PPL", "adminName1": "Stavropol'skiy", "fcl": "P", "countryCode": "RU", "fcodeName": "populated place", "toponymName": "Stoyalov", "fclName": "city, village,...", "lng": "42.20028", "countryName": "Russia"}, {"geonameId": 489623, "countryId": "2017370", "lat": "44.7", "adminCode1": "70", "name": "Srednekolonskiy", "population": 0, "fcode": "PPL", "adminName1": "Stavropol'skiy", "fcl": "P", "countryCode": "RU", "fcodeName": "populated place", "toponymName": "Srednekolonskiy", "fclName": "city, village,...", "lng": "42.35", "countryName": "Russia"}, {"geonameId": 494445, "countryId": "2017370", "lat": "44.31694", "adminCode1": "38", "name": "Shilovka", "population": 0, "fcode": "PPL", "adminName1": "Krasnodarskiy", "fcl": "P", "countryCode": "RU", "fcodeName": "populated place", "toponymName": "Shilovka", "fclName": "city, village,...", "lng": "41.57806", "countryName": "Russia"}, {"geonameId": 484648, "countryId": "2017370", "lat": "44.51667", "adminCode1": "70", "name": "Tambiyevskiy", "population": 0, "fcode": "PPL", "adminName1": "Stavropol'skiy", "fcl": "P", "countryCode": "RU", "fcodeName": "populated place", "toponymName": "Tambiyevskiy", "fclName": "city, village,...", "lng": "41.76667", "countryName": "Russia"}, {"geonameId": 581952, "countryId": "2017370", "lat": "44.51", "adminCode1": "70", "name": "Andreyevskiy", "population": 0, "fcode": "PPL", "adminName1": "Stavropol'skiy", "fcl": "P", "countryCode": "RU", "fcodeName": "populated place", "toponymName": "Andreyevskiy", "fclName": "city, village,...", "lng": "41.82", "countryName": "Russia"}, {"geonameId": 841289, "countryId": "2017370", "lat": "44.11861", "adminCode1": "27", "name": "Kholodnorodnikovskoye", "population": 0, "fcode": "PPL", "adminName1": "Karachayevo-Cherkesiya", "fcl": "P", "countryCode": "RU", "fcodeName": "populated place", "toponymName": "Kholodnorodnikovskoye", "fclName": "city, village,...", "lng": "42.265", "countryName": "Russia"}, {"geonameId": 841440, "countryId": "2017370", "lat": "44.72806", "adminCode1": "70", "name": "Zavetnoye", "population": 0, "fcode": "PPL", "adminName1": "Stavropol'skiy", "fcl": "P", "countryCode": "RU", "fcodeName": "populated place", "toponymName": "Zavetnoye", "fclName": "city, village,...", "lng": "41.64972", "countryName": "Russia"}, {"geonameId": 805121, "countryId": "2017370", "lat": "44.7405", "adminCode1": "38", "name": "Velikobratskiy", "population": 0, "fcode": "PPLQ", "adminName1": "Krasnodarskiy", "fcl": "P", "countryCode": "RU", "fcodeName": "abandoned populated place", "toponymName": "Velikobratskiy", "fclName": "city, village,...", "lng": "41.5072", "countryName": "Russia"},