{"features": [{"properties": {"fcl": "P", "geonameId": 8330905, "countryId": "630336", "fcode": "PPL", "name": "Vetka", "countryName": "Belarus", "population": 0, "fclName": "city, village,...", "adminName1": "Mahilyowskaya Voblasts\u02bc", "adminCode1": "06", "fcodeName": "populated place", "countryCode": "BY", "toponymName": "Vetka"}, "geometry": {"coordinates": [29.8481, 54.0545], "type": "Point"}, "type": "Feature"}, {"properties": {"fcl": "P", "geonameId": 8194726, "countryId": "630336", "fcode": "PPL", "name": "Vetka", "countryName": "Belarus", "population": 0, "fclName": "city, village,...", "adminName1": "Gomel", "adminCode1": "02", "fcodeName": "populated place", "countryCode": "BY", "toponymName": "Vetka"}, "geometry": {"coordinates": [30.6303, 52.6738], "type": "Point"}, "type": "Feature"}, {"properties": {"fcl": "P", "geonameId": 814648, "countryId": "630336", "fcode": "PPL", "name": "Vyetka", "countryName": "Belarus", "population": 0, "fclName": "city, village,...", "adminName1": "Mahilyowskaya Voblasts\u02bc", "adminCode1": "06", "fcodeName": "populated place", "countryCode": "BY", "toponymName": "Vyetka"}, "geometry": {"coordinates": [32.4079, 53.237], "type": "Point"}, "type": "Feature"}, {"properties": {"fcl": "P", "geonameId": 620214, "countryId": "630336", "fcode": "PPLA2", "name": "Vyetka", "countryName": "Belarus", "population": 8969, "fclName": "city, village,...", "adminName1": "Gomel", "adminCode1": "02", "fcodeName": "seat of a second-order administrative division", "countryCode": "BY", "toponymName": "Vyetka"}, "geometry": {"coordinates": [31.1794, 52.5591], "type": "Point"}, "type": "Feature"}, {"properties": {"fcl": "P", "geonameId": 814526, "countryId": "630336", "fcode": "PPLX", "name": "Vetka Vir", "countryName": "Belarus", "population": 0, "fclName": "city, village,...", "adminName1": "Gomel", "adminCode1": "02", "fcodeName": "section of populated place", "countryCode": "BY", "toponymName": "Vetka Vir"}, "geometry": {"coordinates": [30.0935, 52.8833], "type": "Point"}, "type": "Feature"}, {"properties": {"fcl": "P", "geonameId": 626651, "countryId": "630336", "fcode": "PPL", "name": "Krasnaya Vetka", "countryName": "Belarus", "population": 0, "fclName": "city, village,...", "adminName1": "", "adminCode1": "00", "fcodeName": "populated place", "countryCode": "BY", "toponymName": "Krasnaya Vetka"}, "geometry": {"coordinates": [30.16667, 53.78333], "type": "Point"}, "type": "Feature"}, {"properties": {"fcl": "P", "geonameId": 626652, "countryId": "630336", "fcode": "PPL", "name": "Krasnaya Vetka", "countryName": "Belarus", "population": 0, "fclName": "city, village,...", "adminName1": "", "adminCode1": "00", "fcodeName": "populated place", "countryCode": "BY", "toponymName": "Krasnaya Vetka"}, "geometry": {"coordinates": [30.83333, 53.11667], "type": "Point"}, "type": "Feature"}, {"properties": {"fcl": "P", "geonameId": 814634, "countryId": "630336", "fcode": "PPL", "name": "Chervonaya Kvetka", "countryName": "Belarus", "population": 0, "fclName": "city, village,...", "adminName1": "Gomel", "adminCode1": "02", "fcodeName": "populated place", "countryCode": "BY", "toponymName": "Chervonaya Kvetka"}, "geometry": {"coordinates": [30.1044, 52.3927], "type": "Point"}, "type": "Feature"}], "type": "FeatureCollection"}