{"type": "FeatureCollection", "features": [{"properties": {"countryId": "2017370", "toponymName": "Velikoye", "adminCode1": "85", "geonameId": 476016, "fcl": "P", "name": "Velikoye", "countryName": "Russia", "fclName": "city, village,...", "fcode": "PPL", "adminName1": "Vologda", "countryCode": "RU", "population": 0, "fcodeName": "populated place"}, "geometry": {"coordinates": [39.48479, 59.39947], "type": "Point"}, "type": "feature"}, {"properties": {"countryId": "2017370", "toponymName": "Velikoye", "adminCode1": "85", "geonameId": 7494196, "fcl": "P", "name": "Velikoye", "countryName": "Russia", "fclName": "city, village,...", "fcode": "PPL", "adminName1": "Vologda", "countryCode": "RU", "population": 0, "fcodeName": "populated place"}, "geometry": {"coordinates": [38.9409, 59.0683], "type": "Point"}, "type": "feature"}, {"properties": {"countryId": "2017370", "toponymName": "Velikoye", "adminCode1": "85", "geonameId": 7495021, "fcl": "P", "name": "Velikoye", "countryName": "Russia", "fclName": "city, village,...", "fcode": "PPL", "adminName1": "Vologda", "countryCode": "RU", "population": 0, "fcodeName": "populated place"}, "geometry": {"coordinates": [39.9186, 59.3269], "type": "Point"}, "type": "feature"}, {"properties": {"countryId": "2017370", "toponymName": "Velikoye", "adminCode1": "37", "geonameId": 7460885, "fcl": "P", "name": "Velikoye", "countryName": "Russia", "fclName": "city, village,...", "fcode": "PPL", "adminName1": "Kostroma", "countryCode": "RU", "population": 0, "fcodeName": "populated place"}, "geometry": {"coordinates": [42.7055, 58.1205], "type": "Point"}, "type": "feature"}, {"properties": {"countryId": "2017370", "toponymName": "Velikoye", "adminCode1": "85", "geonameId": 476015, "fcl": "P", "name": "Velikoye", "countryName": "Russia", "fclName": "city, village,...", "fcode": "PPL", "adminName1": "Vologda", "countryCode": "RU", "population": 0, "fcodeName": "populated place"}, "geometry": {"coordinates": [37.01667, 59.53333], "type": "Point"}, "type": "feature"}, {"properties": {"countryId": "2017370", "toponymName": "Velikoye", "adminCode1": "88", "geonameId": 476019, "fcl": "P", "name": "Velikoye", "countryName": "Russia", "fclName": "city, village,...", "fcode": "PPL", "adminName1": "Jaroslavl", "countryCode": "RU", "population": 0, "fcodeName": "populated place"}, "geometry": {"coordinates": [39.77492, 57.35072], "type": "Point"}, "type": "feature"}, {"properties": {"countryId": "2017370", "toponymName": "Velikoye", "adminCode1": "85", "geonameId": 7495860, "fcl": "P", "name": "Velikoye", "countryName": "Russia", "fclName": "city, village,...", "fcode": "PPLQ", "adminName1": "Vologda", "countryCode": "RU", "population": 0, "fcodeName": "abandoned populated place"}, "geometry": {"coordinates": [39.26261, 59.37486], "type": "Point"}, "type": "feature"}, {"properties": {"countryId": "2017370", "toponymName": "Velikoye", "adminCode1": "06", "geonameId": 829256, "fcl": "P", "name": "Velikoye", "countryName": "Russia", "fclName": "city, village,...", "fcode": "PPL", "adminName1": "Arkhangelskaya", "countryCode": "RU", "population": 0, "fcodeName": "populated place"}, "geometry": {"coordinates": [42.22167, 61.53222], "type": "Point"}, "type": "feature"}, {"properties": {"countryId": "2017370", "toponymName": "Velikoye Selo", "adminCode1": "77", "geonameId": 475988, "fcl": "P", "name": "Velikoye Selo", "countryName": "Russia", "fclName": "city, village,...", "fcode": "PPL", "adminName1": "Tverskaya", "countryCode": "RU", "population": 0, "fcodeName": "populated place"}, "geometry": {"coordinates": [36.41012, 57.54271], "type": "Point"}, "type": "feature"}, {"properties": {"countryId": "2017370", "toponymName": "Velikoye Selo", "adminCode1": "88", "geonameId": 475983, "fcl": "P", "name": "Velikoye Selo", "countryName": "Russia", "fclName": "city, village,...", "fcode": "PPL", "adminName1": "Jaroslavl", "countryCode": "RU", "population": 0, "fcodeName": "populated place"}, "geometry": {"coordinates": [39.61348, 58.09509], "type": "Point"}, "type": "feature"}, {"properties": {"countryId": "2017370", "toponymName": "Velikoye Selo", "adminCode1": "85", "geonameId": 475978, "fcl": "P", "name": "Velikoye Selo", "countryName": "Russia", "fclName": "city, village,...", "fcode": "PPL", "adminName1": "Vologda", "countryCode": "RU", "population": 0, "fcodeName": "populated place"}, "geometry": {"coordinates": [37.32739, 59.90362], "type": "Point"}, "type": "feature"}, {"properties": {"countryId": "2017370", "toponymName": "Velikoye Pole", "adminCode1": "06", "geonameId": 476044, "fcl": "P", "name": "Velikoye Pole", "countryName": "Russia", "fclName": "city, village,...", "fcode": "PPL", "adminName1": "Arkhangelskaya", "countryCode": "RU", "population": 0, "fcodeName": "populated place"}, "geometry": {"coordinates": [41.0841, 60.8217], "type": "Point"}, "type": "feature"}, {"properties": {"countryId": "2017370", "toponymName": "Velikoye Selo", "adminCode1": "85", "geonameId": 7592102, "fcl": "P", "name": "Velikoye Selo", "countryName": "Russia", "fclName": "city, village,...", "fcode": "PPLQ", "adminName1": "Vologda", "countryCode": "RU", "population": 0, "fcodeName": "abandoned populated place"}, "geometry": {"coordinates": [36.3545, 59.9571], "type": "Point"}, "type": "feature"}, {"properties": {"countryId": "2017370", "toponymName": "Velikoye Pole", "adminCode1": "76", "geonameId": 475993, "fcl": "P", "name": "Velikoye Pole", "countryName": "Russia", "fclName": "city, village,...", "fcode": "PPL", "adminName1": "Tula", "countryCode": "RU", "population": 0, "fcodeName": "populated place"}, "geometry": {"coordinates": [38.09166, 54.48265], "type": "Point"}, "type": "feature"}]}