{"type": "FeatureCollection", "features": [{"properties": {"countryId": "630336", "toponymName": "Vetka", "adminCode1": "06", "geonameId": 8330905, "fcl": "P", "name": "Vetka", "countryName": "Belarus", "fclName": "city, village,...", "fcode": "PPL", "adminName1": "Mahilyowskaya Voblasts\u02bc", "countryCode": "BY", "population": 0, "fcodeName": "populated place"}, "geometry": {"coordinates": [29.8481, 54.0545], "type": "Point"}, "type": "feature"}, {"properties": {"countryId": "630336", "toponymName": "Vetka", "adminCode1": "02", "geonameId": 8194726, "fcl": "P", "name": "Vetka", "countryName": "Belarus", "fclName": "city, village,...", "fcode": "PPL", "adminName1": "Gomel", "countryCode": "BY", "population": 0, "fcodeName": "populated place"}, "geometry": {"coordinates": [30.6303, 52.6738], "type": "Point"}, "type": "feature"}, {"properties": {"countryId": "630336", "toponymName": "Vyetka", "adminCode1": "06", "geonameId": 814648, "fcl": "P", "name": "Vyetka", "countryName": "Belarus", "fclName": "city, village,...", "fcode": "PPL", "adminName1": "Mahilyowskaya Voblasts\u02bc", "countryCode": "BY", "population": 0, "fcodeName": "populated place"}, "geometry": {"coordinates": [32.4079, 53.237], "type": "Point"}, "type": "feature"}, {"properties": {"countryId": "630336", "toponymName": "Vyetka", "adminCode1": "02", "geonameId": 620214, "fcl": "P", "name": "Vyetka", "countryName": "Belarus", "fclName": "city, village,...", "fcode": "PPLA2", "adminName1": "Gomel", "countryCode": "BY", "population": 8969, "fcodeName": "seat of a second-order administrative division"}, "geometry": {"coordinates": [31.1794, 52.5591], "type": "Point"}, "type": "feature"}, {"properties": {"countryId": "630336", "toponymName": "Vetka Vir", "adminCode1": "02", "geonameId": 814526, "fcl": "P", "name": "Vetka Vir", "countryName": "Belarus", "fclName": "city, village,...", "fcode": "PPLX", "adminName1": "Gomel", "countryCode": "BY", "population": 0, "fcodeName": "section of populated place"}, "geometry": {"coordinates": [30.0935, 52.8833], "type": "Point"}, "type": "feature"}, {"properties": {"countryId": "630336", "toponymName": "Krasnaya Vetka", "adminCode1": "00", "geonameId": 626651, "fcl": "P", "name": "Krasnaya Vetka", "countryName": "Belarus", "fclName": "city, village,...", "fcode": "PPL", "adminName1": "", "countryCode": "BY", "population": 0, "fcodeName": "populated place"}, "geometry": {"coordinates": [30.16667, 53.78333], "type": "Point"}, "type": "feature"}, {"properties": {"countryId": "630336", "toponymName": "Krasnaya Vetka", "adminCode1": "00", "geonameId": 626652, "fcl": "P", "name": "Krasnaya Vetka", "countryName": "Belarus", "fclName": "city, village,...", "fcode": "PPL", "adminName1": "", "countryCode": "BY", "population": 0, "fcodeName": "populated place"}, "geometry": {"coordinates": [30.83333, 53.11667], "type": "Point"}, "type": "feature"}, {"properties": {"countryId": "630336", "toponymName": "Chervonaya Kvetka", "adminCode1": "02", "geonameId": 814634, "fcl": "P", "name": "Chervonaya Kvetka", "countryName": "Belarus", "fclName": "city, village,...", "fcode": "PPL", "adminName1": "Gomel", "countryCode": "BY", "population": 0, "fcodeName": "populated place"}, "geometry": {"coordinates": [30.1044, 52.3927], "type": "Point"}, "type": "feature"}]}