{"type": "FeatureCollection", "features": [{"type": "Feature", "geometry": {"coordinates": [39.48479, 59.39947], "type": "Point"}, "properties": {"countryCode": "RU", "countryId": "2017370", "fcodeName": "populated place", "adminName1": "Vologda", "fclName": "city, village,...", "fcl": "P", "countryName": "Russia", "fcode": "PPL", "geonameId": 476016, "population": 0, "adminCode1": "85", "name": "Velikoye", "toponymName": "Velikoye"}}, {"type": "Feature", "geometry": {"coordinates": [38.9409, 59.0683], "type": "Point"}, "properties": {"countryCode": "RU", "countryId": "2017370", "fcodeName": "populated place", "adminName1": "Vologda", "fclName": "city, village,...", "fcl": "P", "countryName": "Russia", "fcode": "PPL", "geonameId": 7494196, "population": 0, "adminCode1": "85", "name": "Velikoye", "toponymName": "Velikoye"}}, {"type": "Feature", "geometry": {"coordinates": [39.9186, 59.3269], "type": "Point"}, "properties": {"countryCode": "RU", "countryId": "2017370", "fcodeName": "populated place", "adminName1": "Vologda", "fclName": "city, village,...", "fcl": "P", "countryName": "Russia", "fcode": "PPL", "geonameId": 7495021, "population": 0, "adminCode1": "85", "name": "Velikoye", "toponymName": "Velikoye"}}, {"type": "Feature", "geometry": {"coordinates": [42.7055, 58.1205], "type": "Point"}, "properties": {"countryCode": "RU", "countryId": "2017370", "fcodeName": "populated place", "adminName1": "Kostroma", "fclName": "city, village,...", "fcl": "P", "countryName": "Russia", "fcode": "PPL", "geonameId": 7460885, "population": 0, "adminCode1": "37", "name": "Velikoye", "toponymName": "Velikoye"}}, {"type": "Feature", "geometry": {"coordinates": [37.01667, 59.53333], "type": "Point"}, "properties": {"countryCode": "RU", "countryId": "2017370", "fcodeName": "populated place", "adminName1": "Vologda", "fclName": "city, village,...", "fcl": "P", "countryName": "Russia", "fcode": "PPL", "geonameId": 476015, "population": 0, "adminCode1": "85", "name": "Velikoye", "toponymName": "Velikoye"}}, {"type": "Feature", "geometry": {"coordinates": [39.77492, 57.35072], "type": "Point"}, "properties": {"countryCode": "RU", "countryId": "2017370", "fcodeName": "populated place", "adminName1": "Jaroslavl", "fclName": "city, village,...", "fcl": "P", "countryName": "Russia", "fcode": "PPL", "geonameId": 476019, "population": 0, "adminCode1": "88", "name": "Velikoye", "toponymName": "Velikoye"}}, {"type": "Feature", "geometry": {"coordinates": [39.26261, 59.37486], "type": "Point"}, "properties": {"countryCode": "RU", "countryId": "2017370", "fcodeName": "abandoned populated place", "adminName1": "Vologda", "fclName": "city, village,...", "fcl": "P", "countryName": "Russia", "fcode": "PPLQ", "geonameId": 7495860, "population": 0, "adminCode1": "85", "name": "Velikoye", "toponymName": "Velikoye"}}, {"type": "Feature", "geometry": {"coordinates": [42.22167, 61.53222], "type": "Point"}, "properties": {"countryCode": "RU", "countryId": "2017370", "fcodeName": "populated place", "adminName1": "Arkhangelskaya", "fclName": "city, village,...", "fcl": "P", "countryName": "Russia", "fcode": "PPL", "geonameId": 829256, "population": 0, "adminCode1": "06", "name": "Velikoye", "toponymName": "Velikoye"}}, {"type": "Feature", "geometry": {"coordinates": [36.41012, 57.54271], "type": "Point"}, "properties": {"countryCode": "RU", "countryId": "2017370", "fcodeName": "populated place", "adminName1": "Tverskaya", "fclName": "city, village,...", "fcl": "P", "countryName": "Russia", "fcode": "PPL", "geonameId": 475988, "population": 0, "adminCode1": "77", "name": "Velikoye Selo", "toponymName": "Velikoye Selo"}}, {"type": "Feature", "geometry": {"coordinates": [39.61348, 58.09509], "type": "Point"}, "properties": {"countryCode": "RU", "countryId": "2017370", "fcodeName": "populated place", "adminName1": "Jaroslavl", "fclName": "city, village,...", "fcl": "P", "countryName": "Russia", "fcode": "PPL", "geonameId": 475983, "population": 0, "adminCode1": "88", "name": "Velikoye Selo", "toponymName": "Velikoye Selo"}}, {"type": "Feature", "geometry": {"coordinates": [37.32739, 59.90362], "type": "Point"}, "properties": {"countryCode": "RU", "countryId": "2017370", "fcodeName": "populated place", "adminName1": "Vologda", "fclName": "city, village,...", "fcl": "P", "countryName": "Russia", "fcode": "PPL", "geonameId": 475978, "population": 0, "adminCode1": "85", "name": "Velikoye Selo", "toponymName": "Velikoye Selo"}}, {"type": "Feature", "geometry": {"coordinates": [41.0841, 60.8217], "type": "Point"}, "properties": {"countryCode": "RU", "countryId": "2017370", "fcodeName": "populated place", "adminName1": "Arkhangelskaya", "fclName": "city, village,...", "fcl": "P", "countryName": "Russia", "fcode": "PPL", "geonameId": 476044, "population": 0, "adminCode1": "06", "name": "Velikoye Pole", "toponymName": "Velikoye Pole"}}, {"type": "Feature", "geometry": {"coordinates": [36.3545, 59.9571], "type": "Point"}, "properties": {"countryCode": "RU", "countryId": "2017370", "fcodeName": "abandoned populated place", "adminName1": "Vologda", "fclName": "city, village,...", "fcl": "P", "countryName": "Russia", "fcode": "PPLQ", "geonameId": 7592102, "population": 0, "adminCode1": "85", "name": "Velikoye Selo", "toponymName": "Velikoye Selo"}}, {"type": "Feature", "geometry": {"coordinates": [38.09166, 54.48265], "type": "Point"}, "properties": {"countryCode": "RU", "countryId": "2017370", "fcodeName": "populated place", "adminName1": "Tula", "fclName": "city, village,...", "fcl": "P", "countryName": "Russia", "fcode": "PPL", "geonameId": 475993, "population": 0, "adminCode1": "76", "name": "Velikoye Pole", "toponymName": "Velikoye Pole"}}]}