{"type": "FeatureCollection", "features": [{"properties": {"countryId": "2017370", "toponymName": "Gorodok", "adminCode1": "77", "geonameId": 559511, "fcl": "P", "name": "Gorodok", "countryName": "Russia", "fclName": "city, village,...", "fcode": "PPL", "adminName1": "Tverskaya", "countryCode": "RU", "population": 0, "fcodeName": "populated place"}, "geometry": {"coordinates": [34.88333, 56.56667], "type": "Point"}, "type": "feature"}, {"properties": {"countryId": "2017370", "toponymName": "Gorodok", "adminCode1": "47", "geonameId": 559515, "fcl": "P", "name": "Gorodok", "countryName": "Russia", "fclName": "city, village,...", "fcode": "PPL", "adminName1": "Moskovskaya", "countryCode": "RU", "population": 0, "fcodeName": "populated place"}, "geometry": {"coordinates": [38.69028, 55.78972], "type": "Point"}, "type": "feature"}, {"properties": {"countryId": "2017370", "toponymName": "Gorodok", "adminCode1": "69", "geonameId": 559516, "fcl": "P", "name": "Gorodok", "countryName": "Russia", "fclName": "city, village,...", "fcode": "PPL", "adminName1": "Smolensk", "countryCode": "RU", "population": 0, "fcodeName": "populated place"}, "geometry": {"coordinates": [35.0796, 55.75767], "type": "Point"}, "type": "feature"}, {"properties": {"countryId": "2017370", "toponymName": "Gorodok", "adminCode1": "47", "geonameId": 818208, "fcl": "P", "name": "Gorodok", "countryName": "Russia", "fclName": "city, village,...", "fcode": "PPL", "adminName1": "Moskovskaya", "countryCode": "RU", "population": 0, "fcodeName": "populated place"}, "geometry": {"coordinates": [37.22855, 55.4258], "type": "Point"}, "type": "feature"}, {"properties": {"countryId": "2017370", "toponymName": "Gorodok", "adminCode1": "69", "geonameId": 813690, "fcl": "P", "name": "Gorodok", "countryName": "Russia", "fclName": "city, village,...", "fcode": "PPL", "adminName1": "Smolensk", "countryCode": "RU", "population": 0, "fcodeName": "populated place"}, "geometry": {"coordinates": [34.8903, 55.87027], "type": "Point"}, "type": "feature"}, {"properties": {"countryId": "2017370", "toponymName": "Gorodok", "adminCode1": "69", "geonameId": 810443, "fcl": "P", "name": "Gorodok", "countryName": "Russia", "fclName": "city, village,...", "fcode": "PPL", "adminName1": "Smolensk", "countryCode": "RU", "population": 0, "fcodeName": "populated place"}, "geometry": {"coordinates": [34.42959, 55.17143], "type": "Point"}, "type": "feature"}, {"properties": {"countryId": "2017370", "toponymName": "Belyy Gorodok", "adminCode1": "77", "geonameId": 577548, "fcl": "P", "name": "Belyy Gorodok", "countryName": "Russia", "fclName": "city, village,...", "fcode": "PPL", "adminName1": "Tverskaya", "countryCode": "RU", "population": 2735, "fcodeName": "populated place"}, "geometry": {"coordinates": [37.5125, 56.965], "type": "Point"}, "type": "feature"}, {"properties": {"countryId": "2017370", "toponymName": "Gorodok", "adminCode1": "47", "geonameId": 559517, "fcl": "P", "name": "Gorodok", "countryName": "Russia", "fclName": "city, village,...", "fcode": "PPL", "adminName1": "Moskovskaya", "countryCode": "RU", "population": 0, "fcodeName": "populated place"}, "geometry": {"coordinates": [35.68022, 55.65462], "type": "Point"}, "type": "feature"}, {"properties": {"countryId": "2017370", "toponymName": "Gorodok", "adminCode1": "47", "geonameId": 559521, "fcl": "P", "name": "Gorodok", "countryName": "Russia", "fclName": "city, village,...", "fcode": "PPL", "adminName1": "Moskovskaya", "countryCode": "RU", "population": 0, "fcodeName": "populated place"}, "geometry": {"coordinates": [38.6, 55.03333], "type": "Point"}, "type": "feature"}, {"properties": {"countryId": "2017370", "toponymName": "Gorodok", "adminCode1": "25", "geonameId": 818453, "fcl": "P", "name": "Gorodok", "countryName": "Russia", "fclName": "city, village,...", "fcode": "PPL", "adminName1": "Kaluga", "countryCode": "RU", "population": 0, "fcodeName": "populated place"}, "geometry": {"coordinates": [36.09877, 54.48717], "type": "Point"}, "type": "feature"}, {"properties": {"countryId": "2017370", "toponymName": "Lesnoy Gorodok", "adminCode1": "47", "geonameId": 535695, "fcl": "P", "name": "Lesnoy Gorodok", "countryName": "Russia", "fclName": "city, village,...", "fcode": "PPL", "adminName1": "Moskovskaya", "countryCode": "RU", "population": 5056, "fcodeName": "populated place"}, "geometry": {"coordinates": [37.2083, 55.63893], "type": "Point"}, "type": "feature"}, {"properties": {"countryId": "2017370", "toponymName": "Gorodok", "adminCode1": "47", "geonameId": 559514, "fcl": "P", "name": "Radonezh", "countryName": "Russia", "fclName": "city, village,...", "fcode": "PPL", "adminName1": "Moskovskaya", "countryCode": "RU", "population": 20, "fcodeName": "populated place"}, "geometry": {"coordinates": [38.05, 56.21667], "type": "Point"}, "type": "feature"}, {"properties": {"countryId": "2017370", "toponymName": "Novyy Gorodok", "adminCode1": "77", "geonameId": 857290, "fcl": "P", "name": "Novyy Gorodok", "countryName": "Russia", "fclName": "city, village,...", "fcode": "PPL", "adminName1": "Tverskaya", "countryCode": "RU", "population": 0, "fcodeName": "populated place"}, "geometry": {"coordinates": [35.62427, 56.54748], "type": "Point"}, "type": "feature"}, {"properties": {"countryId": "2017370", "toponymName": "Gorodok Pisateley", "adminCode1": "47", "geonameId": 6417583, "fcl": "P", "name": "Gorodok Pisateley", "countryName": "Russia", "fclName": "city, village,...", "fcode": "PPL", "adminName1": "Moskovskaya", "countryCode": "RU", "population": 0, "fcodeName": "populated place"}, "geometry": {"coordinates": [37.31917, 55.65444], "type": "Point"}, "type": "feature"}, {"properties": {"countryId": "2017370", "toponymName": "Krasnyy Gorodok", "adminCode1": "25", "geonameId": 6651622, "fcl": "P", "name": "Krasnyy Gorodok", "countryName": "Russia", "fclName": "city, village,...", "fcode": "PPL", "adminName1": "Kaluga", "countryCode": "RU", "population": 0, "fcodeName": "populated place"}, "geometry": {"coordinates": [36.41037, 54.53853], "type": "Point"}, "type": "feature"}]}