{"type": "FeatureCollection", "features": [{"type": "Feature", "geometry": {"coordinates": [34.88333, 56.56667], "type": "Point"}, "properties": {"countryCode": "RU", "countryId": "2017370", "fcodeName": "populated place", "adminName1": "Tverskaya", "fclName": "city, village,...", "fcl": "P", "countryName": "Russia", "fcode": "PPL", "geonameId": 559511, "population": 0, "adminCode1": "77", "name": "Gorodok", "toponymName": "Gorodok"}}, {"type": "Feature", "geometry": {"coordinates": [38.69028, 55.78972], "type": "Point"}, "properties": {"countryCode": "RU", "countryId": "2017370", "fcodeName": "populated place", "adminName1": "Moskovskaya", "fclName": "city, village,...", "fcl": "P", "countryName": "Russia", "fcode": "PPL", "geonameId": 559515, "population": 0, "adminCode1": "47", "name": "Gorodok", "toponymName": "Gorodok"}}, {"type": "Feature", "geometry": {"coordinates": [35.0796, 55.75767], "type": "Point"}, "properties": {"countryCode": "RU", "countryId": "2017370", "fcodeName": "populated place", "adminName1": "Smolensk", "fclName": "city, village,...", "fcl": "P", "countryName": "Russia", "fcode": "PPL", "geonameId": 559516, "population": 0, "adminCode1": "69", "name": "Gorodok", "toponymName": "Gorodok"}}, {"type": "Feature", "geometry": {"coordinates": [37.22855, 55.4258], "type": "Point"}, "properties": {"countryCode": "RU", "countryId": "2017370", "fcodeName": "populated place", "adminName1": "Moskovskaya", "fclName": "city, village,...", "fcl": "P", "countryName": "Russia", "fcode": "PPL", "geonameId": 818208, "population": 0, "adminCode1": "47", "name": "Gorodok", "toponymName": "Gorodok"}}, {"type": "Feature", "geometry": {"coordinates": [34.8903, 55.87027], "type": "Point"}, "properties": {"countryCode": "RU", "countryId": "2017370", "fcodeName": "populated place", "adminName1": "Smolensk", "fclName": "city, village,...", "fcl": "P", "countryName": "Russia", "fcode": "PPL", "geonameId": 813690, "population": 0, "adminCode1": "69", "name": "Gorodok", "toponymName": "Gorodok"}}, {"type": "Feature", "geometry": {"coordinates": [34.42959, 55.17143], "type": "Point"}, "properties": {"countryCode": "RU", "countryId": "2017370", "fcodeName": "populated place", "adminName1": "Smolensk", "fclName": "city, village,...", "fcl": "P", "countryName": "Russia", "fcode": "PPL", "geonameId": 810443, "population": 0, "adminCode1": "69", "name": "Gorodok", "toponymName": "Gorodok"}}, {"type": "Feature", "geometry": {"coordinates": [37.5125, 56.965], "type": "Point"}, "properties": {"countryCode": "RU", "countryId": "2017370", "fcodeName": "populated place", "adminName1": "Tverskaya", "fclName": "city, village,...", "fcl": "P", "countryName": "Russia", "fcode": "PPL", "geonameId": 577548, "population": 2735, "adminCode1": "77", "name": "Belyy Gorodok", "toponymName": "Belyy Gorodok"}}, {"type": "Feature", "geometry": {"coordinates": [35.68022, 55.65462], "type": "Point"}, "properties": {"countryCode": "RU", "countryId": "2017370", "fcodeName": "populated place", "adminName1": "Moskovskaya", "fclName": "city, village,...", "fcl": "P", "countryName": "Russia", "fcode": "PPL", "geonameId": 559517, "population": 0, "adminCode1": "47", "name": "Gorodok", "toponymName": "Gorodok"}}, {"type": "Feature", "geometry": {"coordinates": [38.6, 55.03333], "type": "Point"}, "properties": {"countryCode": "RU", "countryId": "2017370", "fcodeName": "populated place", "adminName1": "Moskovskaya", "fclName": "city, village,...", "fcl": "P", "countryName": "Russia", "fcode": "PPL", "geonameId": 559521, "population": 0, "adminCode1": "47", "name": "Gorodok", "toponymName": "Gorodok"}}, {"type": "Feature", "geometry": {"coordinates": [36.09877, 54.48717], "type": "Point"}, "properties": {"countryCode": "RU", "countryId": "2017370", "fcodeName": "populated place", "adminName1": "Kaluga", "fclName": "city, village,...", "fcl": "P", "countryName": "Russia", "fcode": "PPL", "geonameId": 818453, "population": 0, "adminCode1": "25", "name": "Gorodok", "toponymName": "Gorodok"}}, {"type": "Feature", "geometry": {"coordinates": [37.2083, 55.63893], "type": "Point"}, "properties": {"countryCode": "RU", "countryId": "2017370", "fcodeName": "populated place", "adminName1": "Moskovskaya", "fclName": "city, village,...", "fcl": "P", "countryName": "Russia", "fcode": "PPL", "geonameId": 535695, "population": 5056, "adminCode1": "47", "name": "Lesnoy Gorodok", "toponymName": "Lesnoy Gorodok"}}, {"type": "Feature", "geometry": {"coordinates": [38.05, 56.21667], "type": "Point"}, "properties": {"countryCode": "RU", "countryId": "2017370", "fcodeName": "populated place", "adminName1": "Moskovskaya", "fclName": "city, village,...", "fcl": "P", "countryName": "Russia", "fcode": "PPL", "geonameId": 559514, "population": 20, "adminCode1": "47", "name": "Radonezh", "toponymName": "Gorodok"}}, {"type": "Feature", "geometry": {"coordinates": [35.62427, 56.54748], "type": "Point"}, "properties": {"countryCode": "RU", "countryId": "2017370", "fcodeName": "populated place", "adminName1": "Tverskaya", "fclName": "city, village,...", "fcl": "P", "countryName": "Russia", "fcode": "PPL", "geonameId": 857290, "population": 0, "adminCode1": "77", "name": "Novyy Gorodok", "toponymName": "Novyy Gorodok"}}, {"type": "Feature", "geometry": {"coordinates": [37.31917, 55.65444], "type": "Point"}, "properties": {"countryCode": "RU", "countryId": "2017370", "fcodeName": "populated place", "adminName1": "Moskovskaya", "fclName": "city, village,...", "fcl": "P", "countryName": "Russia", "fcode": "PPL", "geonameId": 6417583, "population": 0, "adminCode1": "47", "name": "Gorodok Pisateley", "toponymName": "Gorodok Pisateley"}}, {"type": "Feature", "geometry": {"coordinates": [36.41037, 54.53853], "type": "Point"}, "properties": {"countryCode": "RU", "countryId": "2017370", "fcodeName": "populated place", "adminName1": "Kaluga", "fclName": "city, village,...", "fcl": "P", "countryName": "Russia", "fcode": "PPL", "geonameId": 6651622, "population": 0, "adminCode1": "25", "name": "Krasnyy Gorodok", "toponymName": "Krasnyy Gorodok"}}]}