{"features": [{"properties": {"fcl": "P", "geonameId": 559511, "countryId": "2017370", "fcode": "PPL", "name": "Gorodok", "countryName": "Russia", "population": 0, "fclName": "city, village,...", "adminName1": "Tverskaya", "adminCode1": "77", "fcodeName": "populated place", "countryCode": "RU", "toponymName": "Gorodok"}, "geometry": {"coordinates": [34.88333, 56.56667], "type": "Point"}, "type": "Feature"}, {"properties": {"fcl": "P", "geonameId": 559515, "countryId": "2017370", "fcode": "PPL", "name": "Gorodok", "countryName": "Russia", "population": 0, "fclName": "city, village,...", "adminName1": "Moskovskaya", "adminCode1": "47", "fcodeName": "populated place", "countryCode": "RU", "toponymName": "Gorodok"}, "geometry": {"coordinates": [38.69028, 55.78972], "type": "Point"}, "type": "Feature"}, {"properties": {"fcl": "P", "geonameId": 559516, "countryId": "2017370", "fcode": "PPL", "name": "Gorodok", "countryName": "Russia", "population": 0, "fclName": "city, village,...", "adminName1": "Smolensk", "adminCode1": "69", "fcodeName": "populated place", "countryCode": "RU", "toponymName": "Gorodok"}, "geometry": {"coordinates": [35.0796, 55.75767], "type": "Point"}, "type": "Feature"}, {"properties": {"fcl": "P", "geonameId": 818208, "countryId": "2017370", "fcode": "PPL", "name": "Gorodok", "countryName": "Russia", "population": 0, "fclName": "city, village,...", "adminName1": "Moskovskaya", "adminCode1": "47", "fcodeName": "populated place", "countryCode": "RU", "toponymName": "Gorodok"}, "geometry": {"coordinates": [37.22855, 55.4258], "type": "Point"}, "type": "Feature"}, {"properties": {"fcl": "P", "geonameId": 813690, "countryId": "2017370", "fcode": "PPL", "name": "Gorodok", "countryName": "Russia", "population": 0, "fclName": "city, village,...", "adminName1": "Smolensk", "adminCode1": "69", "fcodeName": "populated place", "countryCode": "RU", "toponymName": "Gorodok"}, "geometry": {"coordinates": [34.8903, 55.87027], "type": "Point"}, "type": "Feature"}, {"properties": {"fcl": "P", "geonameId": 810443, "countryId": "2017370", "fcode": "PPL", "name": "Gorodok", "countryName": "Russia", "population": 0, "fclName": "city, village,...", "adminName1": "Smolensk", "adminCode1": "69", "fcodeName": "populated place", "countryCode": "RU", "toponymName": "Gorodok"}, "geometry": {"coordinates": [34.42959, 55.17143], "type": "Point"}, "type": "Feature"}, {"properties": {"fcl": "P", "geonameId": 577548, "countryId": "2017370", "fcode": "PPL", "name": "Belyy Gorodok", "countryName": "Russia", "population": 2735, "fclName": "city, village,...", "adminName1": "Tverskaya", "adminCode1": "77", "fcodeName": "populated place", "countryCode": "RU", "toponymName": "Belyy Gorodok"}, "geometry": {"coordinates": [37.5125, 56.965], "type": "Point"}, "type": "Feature"}, {"properties": {"fcl": "P", "geonameId": 559517, "countryId": "2017370", "fcode": "PPL", "name": "Gorodok", "countryName": "Russia", "population": 0, "fclName": "city, village,...", "adminName1": "Moskovskaya", "adminCode1": "47", "fcodeName": "populated place", "countryCode": "RU", "toponymName": "Gorodok"}, "geometry": {"coordinates": [35.68022, 55.65462], "type": "Point"}, "type": "Feature"}, {"properties": {"fcl": "P", "geonameId": 559521, "countryId": "2017370", "fcode": "PPL", "name": "Gorodok", "countryName": "Russia", "population": 0, "fclName": "city, village,...", "adminName1": "Moskovskaya", "adminCode1": "47", "fcodeName": "populated place", "countryCode": "RU", "toponymName": "Gorodok"}, "geometry": {"coordinates": [38.6, 55.03333], "type": "Point"}, "type": "Feature"}, {"properties": {"fcl": "P", "geonameId": 818453, "countryId": "2017370", "fcode": "PPL", "name": "Gorodok", "countryName": "Russia", "population": 0, "fclName": "city, village,...", "adminName1": "Kaluga", "adminCode1": "25", "fcodeName": "populated place", "countryCode": "RU", "toponymName": "Gorodok"}, "geometry": {"coordinates": [36.09877, 54.48717], "type": "Point"}, "type": "Feature"}, {"properties": {"fcl": "P", "geonameId": 535695, "countryId": "2017370", "fcode": "PPL", "name": "Lesnoy Gorodok", "countryName": "Russia", "population": 5056, "fclName": "city, village,...", "adminName1": "Moskovskaya", "adminCode1": "47", "fcodeName": "populated place", "countryCode": "RU", "toponymName": "Lesnoy Gorodok"}, "geometry": {"coordinates": [37.2083, 55.63893], "type": "Point"}, "type": "Feature"}, {"properties": {"fcl": "P", "geonameId": 559514, "countryId": "2017370", "fcode": "PPL", "name": "Radonezh", "countryName": "Russia", "population": 20, "fclName": "city, village,...", "adminName1": "Moskovskaya", "adminCode1": "47", "fcodeName": "populated place", "countryCode": "RU", "toponymName": "Gorodok"}, "geometry": {"coordinates": [38.05, 56.21667], "type": "Point"}, "type": "Feature"}, {"properties": {"fcl": "P", "geonameId": 857290, "countryId": "2017370", "fcode": "PPL", "name": "Novyy Gorodok", "countryName": "Russia", "population": 0, "fclName": "city, village,...", "adminName1": "Tverskaya", "adminCode1": "77", "fcodeName": "populated place", "countryCode": "RU", "toponymName": "Novyy Gorodok"}, "geometry": {"coordinates": [35.62427, 56.54748], "type": "Point"}, "type": "Feature"}, {"properties": {"fcl": "P", "geonameId": 6417583, "countryId": "2017370", "fcode": "PPL", "name": "Gorodok Pisateley", "countryName": "Russia", "population": 0, "fclName": "city, village,...", "adminName1": "Moskovskaya", "adminCode1": "47", "fcodeName": "populated place", "countryCode": "RU", "toponymName": "Gorodok Pisateley"}, "geometry": {"coordinates": [37.31917, 55.65444], "type": "Point"}, "type": "Feature"}, {"properties": {"fcl": "P", "geonameId": 6651622, "countryId": "2017370", "fcode": "PPL", "name": "Krasnyy Gorodok", "countryName": "Russia", "population": 0, "fclName": "city, village,...", "adminName1": "Kaluga", "adminCode1": "25", "fcodeName": "populated place", "countryCode": "RU", "toponymName": "Krasnyy Gorodok"}, "geometry": {"coordinates": [36.41037, 54.53853], "type": "Point"}, "type": "Feature"}], "type": "FeatureCollection"}