{"type": "FeatureCollection", "features": [{"properties": {"countryId": "690791", "toponymName": "Horodyshche", "adminCode1": "02", "geonameId": 708343, "fcl": "P", "name": "Gorodishche", "countryName": "Ukraine", "fclName": "city, village,...", "fcode": "PPL", "adminName1": "Chernihiv", "countryCode": "UA", "population": 0, "fcodeName": "populated place"}, "geometry": {"coordinates": [32.79354, 51.27761], "type": "Point"}, "type": "feature"}, {"properties": {"countryId": "690791", "toponymName": "Horodyshche", "adminCode1": "18", "geonameId": 708353, "fcl": "P", "name": "Gorodishche", "countryName": "Ukraine", "fclName": "city, village,...", "fcode": "PPL", "adminName1": "Poltava", "countryCode": "UA", "population": 0, "fcodeName": "populated place"}, "geometry": {"coordinates": [33.05362, 50.17122], "type": "Point"}, "type": "feature"}, {"properties": {"countryId": "690791", "toponymName": "Horodyshche", "adminCode1": "21", "geonameId": 708346, "fcl": "P", "name": "Horodyshche", "countryName": "Ukraine", "fclName": "city, village,...", "fcode": "PPL", "adminName1": "Sumy", "countryCode": "UA", "population": 0, "fcodeName": "populated place"}, "geometry": {"coordinates": [34.01625, 50.92938], "type": "Point"}, "type": "feature"}, {"properties": {"countryId": "690791", "toponymName": "Horodyshche", "adminCode1": "13", "geonameId": 8526754, "fcl": "P", "name": "Horodyshche", "countryName": "Ukraine", "fclName": "city, village,...", "fcode": "PPL", "adminName1": "Kiev", "countryCode": "UA", "population": 0, "fcodeName": "populated place"}, "geometry": {"coordinates": [31.00104, 50.26779], "type": "Point"}, "type": "feature"}, {"properties": {"countryId": "690791", "toponymName": "Horodyshche", "adminCode1": "01", "geonameId": 708366, "fcl": "P", "name": "Horodyshche", "countryName": "Ukraine", "fclName": "city, village,...", "fcode": "PPL", "adminName1": "Cherkasy", "countryCode": "UA", "population": 15063, "fcodeName": "populated place"}, "geometry": {"coordinates": [31.44513, 49.28489], "type": "Point"}, "type": "feature"}, {"properties": {"countryId": "690791", "toponymName": "Horodyshche", "adminCode1": "13", "geonameId": 708344, "fcl": "P", "name": "Horodyshche", "countryName": "Ukraine", "fclName": "city, village,...", "fcode": "PPLQ", "adminName1": "Kiev", "countryCode": "UA", "population": 0, "fcodeName": "abandoned populated place"}, "geometry": {"coordinates": [30.39121, 51.14015], "type": "Point"}, "type": "feature"}]}