{"type": "FeatureCollection", "features": [{"type": "Feature", "geometry": {"coordinates": [32.4524, 52.33994], "type": "Point"}, "properties": {"countryCode": "RU", "countryId": "2017370", "fcodeName": "populated place", "adminName1": "Brjansk", "fclName": "city, village,...", "fcl": "P", "countryName": "Russia", "fcode": "PPL", "geonameId": 816034, "population": 0, "adminCode1": "10", "name": "Gorki", "toponymName": "Gorki"}}, {"type": "Feature", "geometry": {"coordinates": [31.1997, 53.1634], "type": "Point"}, "properties": {"countryCode": "BY", "countryId": "630336", "fcodeName": "populated place", "adminName1": "Mahilyowskaya Voblasts\u02bc", "fclName": "city, village,...", "fcl": "P", "countryName": "Belarus", "fcode": "PPL", "geonameId": 628228, "population": 0, "adminCode1": "06", "name": "Gorki", "toponymName": "Gorki"}}, {"type": "Feature", "geometry": {"coordinates": [29.8677, 55.1026], "type": "Point"}, "properties": {"countryCode": "BY", "countryId": "630336", "fcodeName": "populated place", "adminName1": "Vitsyebskaya Voblasts\u02bc", "fclName": "city, village,...", "fcl": "P", "countryName": "Belarus", "fcode": "PPL", "geonameId": 8232849, "population": 0, "adminCode1": "07", "name": "Gorki", "toponymName": "Gorki"}}, {"type": "Feature", "geometry": {"coordinates": [31.4356, 53.7062], "type": "Point"}, "properties": {"countryCode": "BY", "countryId": "630336", "fcodeName": "populated place", "adminName1": "Mahilyowskaya Voblasts\u02bc", "fclName": "city, village,...", "fcl": "P", "countryName": "Belarus", "fcode": "PPL", "geonameId": 628225, "population": 0, "adminCode1": "06", "name": "Gorki", "toponymName": "Gorki"}}, {"type": "Feature", "geometry": {"coordinates": [31.3257, 53.5414], "type": "Point"}, "properties": {"countryCode": "BY", "countryId": "630336", "fcodeName": "populated place", "adminName1": "Mahilyowskaya Voblasts\u02bc", "fclName": "city, village,...", "fcl": "P", "countryName": "Belarus", "fcode": "PPL", "geonameId": 814262, "population": 0, "adminCode1": "06", "name": "Gorki", "toponymName": "Gorki"}}, {"type": "Feature", "geometry": {"coordinates": [30.9863, 54.2862], "type": "Point"}, "properties": {"countryCode": "BY", "countryId": "630336", "fcodeName": "seat of a second-order administrative division", "adminName1": "Mahilyowskaya Voblasts\u02bc", "fclName": "city, village,...", "fcl": "P", "countryName": "Belarus", "fcode": "PPLA2", "geonameId": 627905, "population": 33897, "adminCode1": "06", "name": "Horki", "toponymName": "Horki"}}, {"type": "Feature", "geometry": {"coordinates": [32.67521, 54.96786], "type": "Point"}, "properties": {"countryCode": "RU", "countryId": "2017370", "fcodeName": "populated place", "adminName1": "Smolensk", "fclName": "city, village,...", "fcl": "P", "countryName": "Russia", "fcode": "PPL", "geonameId": 574217, "population": 0, "adminCode1": "69", "name": "Gorki", "toponymName": "Gorki"}}, {"type": "Feature", "geometry": {"coordinates": [30.0321, 52.7901], "type": "Point"}, "properties": {"countryCode": "BY", "countryId": "630336", "fcodeName": "populated place", "adminName1": "Gomel", "fclName": "city, village,...", "fcl": "P", "countryName": "Belarus", "fcode": "PPL", "geonameId": 628220, "population": 0, "adminCode1": "02", "name": "Gorki", "toponymName": "Gorki"}}, {"type": "Feature", "geometry": {"coordinates": [31.7142, 53.475], "type": "Point"}, "properties": {"countryCode": "BY", "countryId": "630336", "fcodeName": "abandoned populated place", "adminName1": "Mahilyowskaya Voblasts\u02bc", "fclName": "city, village,...", "fcl": "P", "countryName": "Belarus", "fcode": "PPLQ", "geonameId": 628196, "population": 0, "adminCode1": "06", "name": "Gorki", "toponymName": "Gorki"}}, {"type": "Feature", "geometry": {"coordinates": [32.7, 54.95], "type": "Point"}, "properties": {"countryCode": "RU", "countryId": "2017370", "fcodeName": "populated place", "adminName1": "Smolensk", "fclName": "city, village,...", "fcl": "P", "countryName": "Russia", "fcode": "PPL", "geonameId": 530179, "population": 0, "adminCode1": "69", "name": "Malyye Gorki", "toponymName": "Malyye Gorki"}}, {"type": "Feature", "geometry": {"coordinates": [30.89528, 53.63417], "type": "Point"}, "properties": {"countryCode": "BY", "countryId": "630336", "fcodeName": "populated place", "adminName1": "Mahilyowskaya Voblasts\u02bc", "fclName": "city, village,...", "fcl": "P", "countryName": "Belarus", "fcode": "PPL", "geonameId": 814759, "population": 0, "adminCode1": "06", "name": "Gorki", "toponymName": "Gorki"}}]}