{"type": "FeatureCollection", "features": [{"properties": {"countryId": "2017370", "toponymName": "Gorki", "adminCode1": "10", "geonameId": 816034, "fcl": "P", "name": "Gorki", "countryName": "Russia", "fclName": "city, village,...", "fcode": "PPL", "adminName1": "Brjansk", "countryCode": "RU", "population": 0, "fcodeName": "populated place"}, "geometry": {"coordinates": [32.4524, 52.33994], "type": "Point"}, "type": "feature"}, {"properties": {"countryId": "630336", "toponymName": "Gorki", "adminCode1": "06", "geonameId": 628228, "fcl": "P", "name": "Gorki", "countryName": "Belarus", "fclName": "city, village,...", "fcode": "PPL", "adminName1": "Mahilyowskaya Voblasts\u02bc", "countryCode": "BY", "population": 0, "fcodeName": "populated place"}, "geometry": {"coordinates": [31.1997, 53.1634], "type": "Point"}, "type": "feature"}, {"properties": {"countryId": "630336", "toponymName": "Gorki", "adminCode1": "07", "geonameId": 8232849, "fcl": "P", "name": "Gorki", "countryName": "Belarus", "fclName": "city, village,...", "fcode": "PPL", "adminName1": "Vitsyebskaya Voblasts\u02bc", "countryCode": "BY", "population": 0, "fcodeName": "populated place"}, "geometry": {"coordinates": [29.8677, 55.1026], "type": "Point"}, "type": "feature"}, {"properties": {"countryId": "630336", "toponymName": "Gorki", "adminCode1": "06", "geonameId": 628225, "fcl": "P", "name": "Gorki", "countryName": "Belarus", "fclName": "city, village,...", "fcode": "PPL", "adminName1": "Mahilyowskaya Voblasts\u02bc", "countryCode": "BY", "population": 0, "fcodeName": "populated place"}, "geometry": {"coordinates": [31.4356, 53.7062], "type": "Point"}, "type": "feature"}, {"properties": {"countryId": "630336", "toponymName": "Gorki", "adminCode1": "06", "geonameId": 814262, "fcl": "P", "name": "Gorki", "countryName": "Belarus", "fclName": "city, village,...", "fcode": "PPL", "adminName1": "Mahilyowskaya Voblasts\u02bc", "countryCode": "BY", "population": 0, "fcodeName": "populated place"}, "geometry": {"coordinates": [31.3257, 53.5414], "type": "Point"}, "type": "feature"}, {"properties": {"countryId": "630336", "toponymName": "Horki", "adminCode1": "06", "geonameId": 627905, "fcl": "P", "name": "Horki", "countryName": "Belarus", "fclName": "city, village,...", "fcode": "PPLA2", "adminName1": "Mahilyowskaya Voblasts\u02bc", "countryCode": "BY", "population": 33897, "fcodeName": "seat of a second-order administrative division"}, "geometry": {"coordinates": [30.9863, 54.2862], "type": "Point"}, "type": "feature"}, {"properties": {"countryId": "2017370", "toponymName": "Gorki", "adminCode1": "69", "geonameId": 574217, "fcl": "P", "name": "Gorki", "countryName": "Russia", "fclName": "city, village,...", "fcode": "PPL", "adminName1": "Smolensk", "countryCode": "RU", "population": 0, "fcodeName": "populated place"}, "geometry": {"coordinates": [32.67521, 54.96786], "type": "Point"}, "type": "feature"}, {"properties": {"countryId": "630336", "toponymName": "Gorki", "adminCode1": "02", "geonameId": 628220, "fcl": "P", "name": "Gorki", "countryName": "Belarus", "fclName": "city, village,...", "fcode": "PPL", "adminName1": "Gomel", "countryCode": "BY", "population": 0, "fcodeName": "populated place"}, "geometry": {"coordinates": [30.0321, 52.7901], "type": "Point"}, "type": "feature"}, {"properties": {"countryId": "630336", "toponymName": "Gorki", "adminCode1": "06", "geonameId": 628196, "fcl": "P", "name": "Gorki", "countryName": "Belarus", "fclName": "city, village,...", "fcode": "PPLQ", "adminName1": "Mahilyowskaya Voblasts\u02bc", "countryCode": "BY", "population": 0, "fcodeName": "abandoned populated place"}, "geometry": {"coordinates": [31.7142, 53.475], "type": "Point"}, "type": "feature"}, {"properties": {"countryId": "2017370", "toponymName": "Malyye Gorki", "adminCode1": "69", "geonameId": 530179, "fcl": "P", "name": "Malyye Gorki", "countryName": "Russia", "fclName": "city, village,...", "fcode": "PPL", "adminName1": "Smolensk", "countryCode": "RU", "population": 0, "fcodeName": "populated place"}, "geometry": {"coordinates": [32.7, 54.95], "type": "Point"}, "type": "feature"}, {"properties": {"countryId": "630336", "toponymName": "Gorki", "adminCode1": "06", "geonameId": 814759, "fcl": "P", "name": "Gorki", "countryName": "Belarus", "fclName": "city, village,...", "fcode": "PPL", "adminName1": "Mahilyowskaya Voblasts\u02bc", "countryCode": "BY", "population": 0, "fcodeName": "populated place"}, "geometry": {"coordinates": [30.89528, 53.63417], "type": "Point"}, "type": "feature"}]}