{"type": "FeatureCollection", "features": [{"properties": {"countryId": "690791", "toponymName": "Gremyach", "adminCode1": "02", "geonameId": 708146, "fcl": "P", "name": "Gremyach", "countryName": "Ukraine", "fclName": "city, village,...", "fcode": "PPL", "adminName1": "Chernihiv", "countryCode": "UA", "population": 0, "fcodeName": "populated place"}, "geometry": {"coordinates": [33.28758, 52.33909], "type": "Point"}, "type": "feature"}, {"properties": {"countryId": "2017370", "toponymName": "Gremyach\u2019ye", "adminCode1": "56", "geonameId": 558849, "fcl": "P", "name": "Gremyach'ye", "countryName": "Russia", "fclName": "city, village,...", "fcode": "PPL", "adminName1": "Orjol", "countryCode": "RU", "population": 0, "fcodeName": "populated place"}, "geometry": {"coordinates": [37.14462, 52.59324], "type": "Point"}, "type": "feature"}, {"properties": {"countryId": "2017370", "toponymName": "Gremyach\u2019ye", "adminCode1": "41", "geonameId": 558850, "fcl": "P", "name": "Gremyach\u2019ye", "countryName": "Russia", "fclName": "city, village,...", "fcode": "PPL", "adminName1": "Kursk", "countryCode": "RU", "population": 0, "fcodeName": "populated place"}, "geometry": {"coordinates": [35.53992, 52.38581], "type": "Point"}, "type": "feature"}, {"properties": {"countryId": "2017370", "toponymName": "Pervoye Gremyach\u2019ye", "adminCode1": "41", "geonameId": 7665220, "fcl": "P", "name": "Pervoye Gremyach\u2019ye", "countryName": "Russia", "fclName": "city, village,...", "fcode": "PPL", "adminName1": "Kursk", "countryCode": "RU", "population": 0, "fcodeName": "populated place"}, "geometry": {"coordinates": [34.7409, 51.9214], "type": "Point"}, "type": "feature"}, {"properties": {"countryId": "2017370", "toponymName": "Vtoroye Gremyach\u2019ye", "adminCode1": "41", "geonameId": 7665219, "fcl": "P", "name": "Vtoroye Gremyach\u2019ye", "countryName": "Russia", "fclName": "city, village,...", "fcode": "PPLQ", "adminName1": "Kursk", "countryCode": "RU", "population": 0, "fcodeName": "abandoned populated place"}, "geometry": {"coordinates": [34.7503, 51.9264], "type": "Point"}, "type": "feature"}]}