{"type": "FeatureCollection", "features": [{"type": "Feature", "geometry": {"coordinates": [33.28758, 52.33909], "type": "Point"}, "properties": {"countryCode": "UA", "countryId": "690791", "fcodeName": "populated place", "adminName1": "Chernihiv", "fclName": "city, village,...", "fcl": "P", "countryName": "Ukraine", "fcode": "PPL", "geonameId": 708146, "population": 0, "adminCode1": "02", "name": "Gremyach", "toponymName": "Gremyach"}}, {"type": "Feature", "geometry": {"coordinates": [37.14462, 52.59324], "type": "Point"}, "properties": {"countryCode": "RU", "countryId": "2017370", "fcodeName": "populated place", "adminName1": "Orjol", "fclName": "city, village,...", "fcl": "P", "countryName": "Russia", "fcode": "PPL", "geonameId": 558849, "population": 0, "adminCode1": "56", "name": "Gremyach'ye", "toponymName": "Gremyach\u2019ye"}}, {"type": "Feature", "geometry": {"coordinates": [35.53992, 52.38581], "type": "Point"}, "properties": {"countryCode": "RU", "countryId": "2017370", "fcodeName": "populated place", "adminName1": "Kursk", "fclName": "city, village,...", "fcl": "P", "countryName": "Russia", "fcode": "PPL", "geonameId": 558850, "population": 0, "adminCode1": "41", "name": "Gremyach\u2019ye", "toponymName": "Gremyach\u2019ye"}}, {"type": "Feature", "geometry": {"coordinates": [34.7409, 51.9214], "type": "Point"}, "properties": {"countryCode": "RU", "countryId": "2017370", "fcodeName": "populated place", "adminName1": "Kursk", "fclName": "city, village,...", "fcl": "P", "countryName": "Russia", "fcode": "PPL", "geonameId": 7665220, "population": 0, "adminCode1": "41", "name": "Pervoye Gremyach\u2019ye", "toponymName": "Pervoye Gremyach\u2019ye"}}, {"type": "Feature", "geometry": {"coordinates": [34.7503, 51.9264], "type": "Point"}, "properties": {"countryCode": "RU", "countryId": "2017370", "fcodeName": "abandoned populated place", "adminName1": "Kursk", "fclName": "city, village,...", "fcl": "P", "countryName": "Russia", "fcode": "PPLQ", "geonameId": 7665219, "population": 0, "adminCode1": "41", "name": "Vtoroye Gremyach\u2019ye", "toponymName": "Vtoroye Gremyach\u2019ye"}}]}