{"type": "FeatureCollection", "features": [{"type": "Feature", "geometry": {"coordinates": [31.85639, 49.6739], "type": "Point"}, "properties": {"countryCode": "UA", "countryId": "690791", "fcodeName": "populated place", "adminName1": "Cherkasy", "fclName": "city, village,...", "fcl": "P", "countryName": "Ukraine", "fcode": "PPL", "geonameId": 709976, "population": 0, "adminCode1": "01", "name": "Dmitrovka", "toponymName": "Dmitrovka"}}, {"type": "Feature", "geometry": {"coordinates": [32.94765, 50.93679], "type": "Point"}, "properties": {"countryCode": "UA", "countryId": "690791", "fcodeName": "populated place", "adminName1": "Chernihiv", "fclName": "city, village,...", "fcl": "P", "countryName": "Ukraine", "fcode": "PPL", "geonameId": 709970, "population": 0, "adminCode1": "02", "name": "Dmitrovka", "toponymName": "Dmytrivka"}}, {"type": "Feature", "geometry": {"coordinates": [33.61042, 49.10972], "type": "Point"}, "properties": {"countryCode": "UA", "countryId": "690791", "fcodeName": "populated place", "adminName1": "Poltava", "fclName": "city, village,...", "fcl": "P", "countryName": "Ukraine", "fcode": "PPL", "geonameId": 709981, "population": 0, "adminCode1": "18", "name": "Dmitrovka", "toponymName": "Dmitrovka"}}, {"type": "Feature", "geometry": {"coordinates": [29.73, 50.03203], "type": "Point"}, "properties": {"countryCode": "UA", "countryId": "690791", "fcodeName": "populated place", "adminName1": "Kiev", "fclName": "city, village,...", "fcl": "P", "countryName": "Ukraine", "fcode": "PPL", "geonameId": 709973, "population": 0, "adminCode1": "13", "name": "Dmitrovka", "toponymName": "Dmitrovka"}}, {"type": "Feature", "geometry": {"coordinates": [30.17105, 50.4585], "type": "Point"}, "properties": {"countryCode": "UA", "countryId": "690791", "fcodeName": "populated place", "adminName1": "Kiev", "fclName": "city, village,...", "fcl": "P", "countryName": "Ukraine", "fcode": "PPL", "geonameId": 8516247, "population": 0, "adminCode1": "13", "name": "Dmytrivka", "toponymName": "Dmytrivka"}}, {"type": "Feature", "geometry": {"coordinates": [32.01038, 49.69101], "type": "Point"}, "properties": {"countryCode": "UA", "countryId": "690791", "fcodeName": "populated place", "adminName1": "Cherkasy", "fclName": "city, village,...", "fcl": "P", "countryName": "Ukraine", "fcode": "PPL", "geonameId": 699866, "population": 0, "adminCode1": "01", "name": "Nova Dmytrivka", "toponymName": "Nova Dmytrivka"}}, {"type": "Feature", "geometry": {"coordinates": [31.86154, 51.49007], "type": "Point"}, "properties": {"countryCode": "UA", "countryId": "690791", "fcodeName": "populated place", "adminName1": "Chernihiv", "fclName": "city, village,...", "fcl": "P", "countryName": "Ukraine", "fcode": "PPL", "geonameId": 709967, "population": 0, "adminCode1": "02", "name": "Dmytrivka", "toponymName": "Dmytrivka"}}, {"type": "Feature", "geometry": {"coordinates": [33.84674, 51.03098], "type": "Point"}, "properties": {"countryCode": "UA", "countryId": "690791", "fcodeName": "populated place", "adminName1": "Sumy", "fclName": "city, village,...", "fcl": "P", "countryName": "Ukraine", "fcode": "PPL", "geonameId": 709969, "population": 0, "adminCode1": "21", "name": "Dmytrivka", "toponymName": "Dmytrivka"}}, {"type": "Feature", "geometry": {"coordinates": [34.1713, 50.79599], "type": "Point"}, "properties": {"countryCode": "UA", "countryId": "690791", "fcodeName": "populated place", "adminName1": "Sumy", "fclName": "city, village,...", "fcl": "P", "countryName": "Ukraine", "fcode": "PPL", "geonameId": 710003, "population": 0, "adminCode1": "21", "name": "Dmytrivka", "toponymName": "Dmytrivka"}}]}