{"type": "FeatureCollection", "features": [{"properties": {"countryId": "690791", "toponymName": "Dmitrovka", "adminCode1": "01", "geonameId": 709976, "fcl": "P", "name": "Dmitrovka", "countryName": "Ukraine", "fclName": "city, village,...", "fcode": "PPL", "adminName1": "Cherkasy", "countryCode": "UA", "population": 0, "fcodeName": "populated place"}, "geometry": {"coordinates": [31.85639, 49.6739], "type": "Point"}, "type": "feature"}, {"properties": {"countryId": "690791", "toponymName": "Dmytrivka", "adminCode1": "02", "geonameId": 709970, "fcl": "P", "name": "Dmitrovka", "countryName": "Ukraine", "fclName": "city, village,...", "fcode": "PPL", "adminName1": "Chernihiv", "countryCode": "UA", "population": 0, "fcodeName": "populated place"}, "geometry": {"coordinates": [32.94765, 50.93679], "type": "Point"}, "type": "feature"}, {"properties": {"countryId": "690791", "toponymName": "Dmitrovka", "adminCode1": "18", "geonameId": 709981, "fcl": "P", "name": "Dmitrovka", "countryName": "Ukraine", "fclName": "city, village,...", "fcode": "PPL", "adminName1": "Poltava", "countryCode": "UA", "population": 0, "fcodeName": "populated place"}, "geometry": {"coordinates": [33.61042, 49.10972], "type": "Point"}, "type": "feature"}, {"properties": {"countryId": "690791", "toponymName": "Dmitrovka", "adminCode1": "13", "geonameId": 709973, "fcl": "P", "name": "Dmitrovka", "countryName": "Ukraine", "fclName": "city, village,...", "fcode": "PPL", "adminName1": "Kiev", "countryCode": "UA", "population": 0, "fcodeName": "populated place"}, "geometry": {"coordinates": [29.73, 50.03203], "type": "Point"}, "type": "feature"}, {"properties": {"countryId": "690791", "toponymName": "Dmytrivka", "adminCode1": "13", "geonameId": 8516247, "fcl": "P", "name": "Dmytrivka", "countryName": "Ukraine", "fclName": "city, village,...", "fcode": "PPL", "adminName1": "Kiev", "countryCode": "UA", "population": 0, "fcodeName": "populated place"}, "geometry": {"coordinates": [30.17105, 50.4585], "type": "Point"}, "type": "feature"}, {"properties": {"countryId": "690791", "toponymName": "Nova Dmytrivka", "adminCode1": "01", "geonameId": 699866, "fcl": "P", "name": "Nova Dmytrivka", "countryName": "Ukraine", "fclName": "city, village,...", "fcode": "PPL", "adminName1": "Cherkasy", "countryCode": "UA", "population": 0, "fcodeName": "populated place"}, "geometry": {"coordinates": [32.01038, 49.69101], "type": "Point"}, "type": "feature"}, {"properties": {"countryId": "690791", "toponymName": "Dmytrivka", "adminCode1": "02", "geonameId": 709967, "fcl": "P", "name": "Dmytrivka", "countryName": "Ukraine", "fclName": "city, village,...", "fcode": "PPL", "adminName1": "Chernihiv", "countryCode": "UA", "population": 0, "fcodeName": "populated place"}, "geometry": {"coordinates": [31.86154, 51.49007], "type": "Point"}, "type": "feature"}, {"properties": {"countryId": "690791", "toponymName": "Dmytrivka", "adminCode1": "21", "geonameId": 709969, "fcl": "P", "name": "Dmytrivka", "countryName": "Ukraine", "fclName": "city, village,...", "fcode": "PPL", "adminName1": "Sumy", "countryCode": "UA", "population": 0, "fcodeName": "populated place"}, "geometry": {"coordinates": [33.84674, 51.03098], "type": "Point"}, "type": "feature"}, {"properties": {"countryId": "690791", "toponymName": "Dmytrivka", "adminCode1": "21", "geonameId": 710003, "fcl": "P", "name": "Dmytrivka", "countryName": "Ukraine", "fclName": "city, village,...", "fcode": "PPL", "adminName1": "Sumy", "countryCode": "UA", "population": 0, "fcodeName": "populated place"}, "geometry": {"coordinates": [34.1713, 50.79599], "type": "Point"}, "type": "feature"}]}