{"type": "FeatureCollection", "features": [{"properties": {"countryId": "2017370", "toponymName": "Dubovoye", "adminCode1": "43", "geonameId": 564618, "fcl": "P", "name": "Dubovoye", "countryName": "Russia", "fclName": "city, village,...", "fcode": "PPL", "adminName1": "Lipetsk", "countryCode": "RU", "population": 0, "fcodeName": "populated place"}, "geometry": {"coordinates": [40.0814, 53.1273], "type": "Point"}, "type": "feature"}, {"properties": {"countryId": "2017370", "toponymName": "Dubovoye", "adminCode1": "84", "geonameId": 564622, "fcl": "P", "name": "Dubovoye", "countryName": "Russia", "fclName": "city, village,...", "fcode": "PPL", "adminName1": "Volgograd", "countryCode": "RU", "population": 0, "fcodeName": "populated place"}, "geometry": {"coordinates": [43.61932, 50.96407], "type": "Point"}, "type": "feature"}, {"properties": {"countryId": "2017370", "toponymName": "Dubovoye", "adminCode1": "62", "geonameId": 564616, "fcl": "P", "name": "Dubovoye", "countryName": "Russia", "fclName": "city, village,...", "fcode": "PPL", "adminName1": "Rjazan", "countryCode": "RU", "population": 0, "fcodeName": "populated place"}, "geometry": {"coordinates": [39.7042, 54.01], "type": "Point"}, "type": "feature"}, {"properties": {"countryId": "2017370", "toponymName": "Dubovoye", "adminCode1": "76", "geonameId": 564617, "fcl": "P", "name": "Dubovoye", "countryName": "Russia", "fclName": "city, village,...", "fcode": "PPL", "adminName1": "Tula", "countryCode": "RU", "population": 0, "fcodeName": "populated place"}, "geometry": {"coordinates": [38.40395, 53.97904], "type": "Point"}, "type": "feature"}, {"properties": {"countryId": "2017370", "toponymName": "Dubovoye", "adminCode1": "72", "geonameId": 564620, "fcl": "P", "name": "Dubovoye", "countryName": "Russia", "fclName": "city, village,...", "fcode": "PPL", "adminName1": "Tambov", "countryCode": "RU", "population": 0, "fcodeName": "populated place"}, "geometry": {"coordinates": [40.3005, 52.6081], "type": "Point"}, "type": "feature"}, {"properties": {"countryId": "2017370", "toponymName": "Dubovoye", "adminCode1": "43", "geonameId": 564649, "fcl": "P", "name": "Dubovoye", "countryName": "Russia", "fclName": "city, village,...", "fcode": "PPL", "adminName1": "Lipetsk", "countryCode": "RU", "population": 0, "fcodeName": "populated place"}, "geometry": {"coordinates": [40.3168, 52.3787], "type": "Point"}, "type": "feature"}, {"properties": {"countryId": "2017370", "toponymName": "Novoye Dubovoye", "adminCode1": "43", "geonameId": 517572, "fcl": "P", "name": "Novoye Dubovoye", "countryName": "Russia", "fclName": "city, village,...", "fcode": "PPL", "adminName1": "Lipetsk", "countryCode": "RU", "population": 0, "fcodeName": "populated place"}, "geometry": {"coordinates": [39.20965, 52.30755], "type": "Point"}, "type": "feature"}, {"properties": {"countryId": "2017370", "toponymName": "Staroye Dubovoye", "adminCode1": "43", "geonameId": 488465, "fcl": "P", "name": "Staroye Dubovoye", "countryName": "Russia", "fclName": "city, village,...", "fcode": "PPL", "adminName1": "Lipetsk", "countryCode": "RU", "population": 0, "fcodeName": "populated place"}, "geometry": {"coordinates": [39.03535, 52.24489], "type": "Point"}, "type": "feature"}]}