{"type": "FeatureCollection", "features": [{"type": "Feature", "geometry": {"coordinates": [40.0814, 53.1273], "type": "Point"}, "properties": {"countryCode": "RU", "countryId": "2017370", "fcodeName": "populated place", "adminName1": "Lipetsk", "fclName": "city, village,...", "fcl": "P", "countryName": "Russia", "fcode": "PPL", "geonameId": 564618, "population": 0, "adminCode1": "43", "name": "Dubovoye", "toponymName": "Dubovoye"}}, {"type": "Feature", "geometry": {"coordinates": [43.61932, 50.96407], "type": "Point"}, "properties": {"countryCode": "RU", "countryId": "2017370", "fcodeName": "populated place", "adminName1": "Volgograd", "fclName": "city, village,...", "fcl": "P", "countryName": "Russia", "fcode": "PPL", "geonameId": 564622, "population": 0, "adminCode1": "84", "name": "Dubovoye", "toponymName": "Dubovoye"}}, {"type": "Feature", "geometry": {"coordinates": [39.7042, 54.01], "type": "Point"}, "properties": {"countryCode": "RU", "countryId": "2017370", "fcodeName": "populated place", "adminName1": "Rjazan", "fclName": "city, village,...", "fcl": "P", "countryName": "Russia", "fcode": "PPL", "geonameId": 564616, "population": 0, "adminCode1": "62", "name": "Dubovoye", "toponymName": "Dubovoye"}}, {"type": "Feature", "geometry": {"coordinates": [38.40395, 53.97904], "type": "Point"}, "properties": {"countryCode": "RU", "countryId": "2017370", "fcodeName": "populated place", "adminName1": "Tula", "fclName": "city, village,...", "fcl": "P", "countryName": "Russia", "fcode": "PPL", "geonameId": 564617, "population": 0, "adminCode1": "76", "name": "Dubovoye", "toponymName": "Dubovoye"}}, {"type": "Feature", "geometry": {"coordinates": [40.3005, 52.6081], "type": "Point"}, "properties": {"countryCode": "RU", "countryId": "2017370", "fcodeName": "populated place", "adminName1": "Tambov", "fclName": "city, village,...", "fcl": "P", "countryName": "Russia", "fcode": "PPL", "geonameId": 564620, "population": 0, "adminCode1": "72", "name": "Dubovoye", "toponymName": "Dubovoye"}}, {"type": "Feature", "geometry": {"coordinates": [40.3168, 52.3787], "type": "Point"}, "properties": {"countryCode": "RU", "countryId": "2017370", "fcodeName": "populated place", "adminName1": "Lipetsk", "fclName": "city, village,...", "fcl": "P", "countryName": "Russia", "fcode": "PPL", "geonameId": 564649, "population": 0, "adminCode1": "43", "name": "Dubovoye", "toponymName": "Dubovoye"}}, {"type": "Feature", "geometry": {"coordinates": [39.20965, 52.30755], "type": "Point"}, "properties": {"countryCode": "RU", "countryId": "2017370", "fcodeName": "populated place", "adminName1": "Lipetsk", "fclName": "city, village,...", "fcl": "P", "countryName": "Russia", "fcode": "PPL", "geonameId": 517572, "population": 0, "adminCode1": "43", "name": "Novoye Dubovoye", "toponymName": "Novoye Dubovoye"}}, {"type": "Feature", "geometry": {"coordinates": [39.03535, 52.24489], "type": "Point"}, "properties": {"countryCode": "RU", "countryId": "2017370", "fcodeName": "populated place", "adminName1": "Lipetsk", "fclName": "city, village,...", "fcl": "P", "countryName": "Russia", "fcode": "PPL", "geonameId": 488465, "population": 0, "adminCode1": "43", "name": "Staroye Dubovoye", "toponymName": "Staroye Dubovoye"}}]}