{"type": "FeatureCollection", "features": [{"properties": {"countryId": "2017370", "toponymName": "Ivanovka", "adminCode1": "09", "geonameId": 555508, "fcl": "P", "name": "Ivanovka", "countryName": "Russia", "fclName": "city, village,...", "fcode": "PPL", "adminName1": "Belgorod", "countryCode": "RU", "population": 0, "fcodeName": "populated place"}, "geometry": {"coordinates": [37.29236, 50.97568], "type": "Point"}, "type": "feature"}, {"properties": {"countryId": "2017370", "toponymName": "Ivanovka", "adminCode1": "41", "geonameId": 555499, "fcl": "P", "name": "Ivanovka", "countryName": "Russia", "fclName": "city, village,...", "fcode": "PPL", "adminName1": "Kursk", "countryCode": "RU", "population": 0, "fcodeName": "populated place"}, "geometry": {"coordinates": [35.79167, 51.48639], "type": "Point"}, "type": "feature"}, {"properties": {"countryId": "2017370", "toponymName": "Ivanovka", "adminCode1": "09", "geonameId": 809669, "fcl": "P", "name": "Ivanovka", "countryName": "Russia", "fclName": "city, village,...", "fcode": "PPL", "adminName1": "Belgorod", "countryCode": "RU", "population": 0, "fcodeName": "populated place"}, "geometry": {"coordinates": [37.173, 50.95352], "type": "Point"}, "type": "feature"}, {"properties": {"countryId": "2017370", "toponymName": "Ivanovka", "adminCode1": "09", "geonameId": 555503, "fcl": "P", "name": "Ivanovka", "countryName": "Russia", "fclName": "city, village,...", "fcode": "PPL", "adminName1": "Belgorod", "countryCode": "RU", "population": 0, "fcodeName": "populated place"}, "geometry": {"coordinates": [37.38389, 51.36611], "type": "Point"}, "type": "feature"}, {"properties": {"countryId": "2017370", "toponymName": "Ivanovka", "adminCode1": "09", "geonameId": 555507, "fcl": "P", "name": "Ivanovka", "countryName": "Russia", "fclName": "city, village,...", "fcode": "PPL", "adminName1": "Belgorod", "countryCode": "RU", "population": 0, "fcodeName": "populated place"}, "geometry": {"coordinates": [37.855, 51.0951], "type": "Point"}, "type": "feature"}, {"properties": {"countryId": "2017370", "toponymName": "Ivanovka", "adminCode1": "09", "geonameId": 806205, "fcl": "P", "name": "Ivanovka", "countryName": "Russia", "fclName": "city, village,...", "fcode": "PPL", "adminName1": "Belgorod", "countryCode": "RU", "population": 0, "fcodeName": "populated place"}, "geometry": {"coordinates": [37.37796, 51.06316], "type": "Point"}, "type": "feature"}, {"properties": {"countryId": "2017370", "toponymName": "Ivanovka", "adminCode1": "41", "geonameId": 555501, "fcl": "P", "name": "Ivanovka", "countryName": "Russia", "fclName": "city, village,...", "fcode": "PPL", "adminName1": "Kursk", "countryCode": "RU", "population": 0, "fcodeName": "populated place"}, "geometry": {"coordinates": [36.71667, 51.43333], "type": "Point"}, "type": "feature"}, {"properties": {"countryId": "2017370", "toponymName": "Ivanovka", "adminCode1": "09", "geonameId": 7687768, "fcl": "P", "name": "Ivanovka", "countryName": "Russia", "fclName": "city, village,...", "fcode": "PPL", "adminName1": "Belgorod", "countryCode": "RU", "population": 0, "fcodeName": "populated place"}, "geometry": {"coordinates": [37.97839, 50.84993], "type": "Point"}, "type": "feature"}, {"properties": {"countryId": "2017370", "toponymName": "Ivanovka", "adminCode1": "09", "geonameId": 7687396, "fcl": "P", "name": "Ivanovka", "countryName": "Russia", "fclName": "city, village,...", "fcode": "PPL", "adminName1": "Belgorod", "countryCode": "RU", "population": 0, "fcodeName": "populated place"}, "geometry": {"coordinates": [37.23987, 50.65073], "type": "Point"}, "type": "feature"}, {"properties": {"countryId": "2017370", "toponymName": "Ivanovka", "adminCode1": "09", "geonameId": 807327, "fcl": "P", "name": "Ivanovka", "countryName": "Russia", "fclName": "city, village,...", "fcode": "PPL", "adminName1": "Belgorod", "countryCode": "RU", "population": 0, "fcodeName": "populated place"}, "geometry": {"coordinates": [36.72053, 50.43395], "type": "Point"}, "type": "feature"}, {"properties": {"countryId": "2017370", "toponymName": "Ivanovka", "adminCode1": "09", "geonameId": 809248, "fcl": "P", "name": "Ivanovka", "countryName": "Russia", "fclName": "city, village,...", "fcode": "PPL", "adminName1": "Belgorod", "countryCode": "RU", "population": 0, "fcodeName": "populated place"}, "geometry": {"coordinates": [36.64002, 50.93689], "type": "Point"}, "type": "feature"}, {"properties": {"countryId": "2017370", "toponymName": "Bol\u2019shaya Ivanovka", "adminCode1": "09", "geonameId": 575076, "fcl": "P", "name": "Bol'shaya Ivanovka", "countryName": "Russia", "fclName": "city, village,...", "fcode": "PPL", "adminName1": "Belgorod", "countryCode": "RU", "population": 0, "fcodeName": "populated place"}, "geometry": {"coordinates": [38.1821, 50.8611], "type": "Point"}, "type": "feature"}, {"properties": {"countryId": "2017370", "toponymName": "Slobodka-Ivanovka", "adminCode1": "41", "geonameId": 491892, "fcl": "P", "name": "Slobodka-Ivanovka", "countryName": "Russia", "fclName": "city, village,...", "fcode": "PPL", "adminName1": "Kursk", "countryCode": "RU", "population": 0, "fcodeName": "populated place"}, "geometry": {"coordinates": [34.3287, 51.5371], "type": "Point"}, "type": "feature"}, {"properties": {"countryId": "690791", "toponymName": "Nova Ivanivka", "adminCode1": "07", "geonameId": 699841, "fcl": "P", "name": "Novaya Ivanovka", "countryName": "Ukraine", "fclName": "city, village,...", "fcode": "PPL", "adminName1": "Kharkiv", "countryCode": "UA", "population": 0, "fcodeName": "populated place"}, "geometry": {"coordinates": [36.20243, 48.88826], "type": "Point"}, "type": "feature"}, {"properties": {"countryId": "690791", "toponymName": "Ivanovka", "adminCode1": "07", "geonameId": 707377, "fcl": "P", "name": "Ivanovka", "countryName": "Ukraine", "fclName": "city, village,...", "fcode": "PPL", "adminName1": "Kharkiv", "countryCode": "UA", "population": 0, "fcodeName": "populated place"}, "geometry": {"coordinates": [37.27917, 49.74194], "type": "Point"}, "type": "feature"}, {"properties": {"countryId": "690791", "toponymName": "Ivanovka", "adminCode1": "18", "geonameId": 707384, "fcl": "P", "name": "Ivanovka", "countryName": "Ukraine", "fclName": "city, village,...", "fcode": "PPL", "adminName1": "Poltava", "countryCode": "UA", "population": 0, "fcodeName": "populated place"}, "geometry": {"coordinates": [34.96667, 49.43333], "type": "Point"}, "type": "feature"}, {"properties": {"countryId": "690791", "toponymName": "Ivanovka", "adminCode1": "18", "geonameId": 707385, "fcl": "P", "name": "Ivanovka", "countryName": "Ukraine", "fclName": "city, village,...", "fcode": "PPL", "adminName1": "Poltava", "countryCode": "UA", "population": 0, "fcodeName": "populated place"}, "geometry": {"coordinates": [34.73333, 49.43333], "type": "Point"}, "type": "feature"}, {"properties": {"countryId": "690791", "toponymName": "Ivanovka", "adminCode1": "18", "geonameId": 707390, "fcl": "P", "name": "Ivanovka", "countryName": "Ukraine", "fclName": "city, village,...", "fcode": "PPL", "adminName1": "Poltava", "countryCode": "UA", "population": 0, "fcodeName": "populated place"}, "geometry": {"coordinates": [34.36945, 49.13932], "type": "Point"}, "type": "feature"}, {"properties": {"countryId": "690791", "toponymName": "Ivanovka", "adminCode1": "18", "geonameId": 707393, "fcl": "P", "name": "Ivanovka", "countryName": "Ukraine", "fclName": "city, village,...", "fcode": "PPL", "adminName1": "Poltava", "countryCode": "UA", "population": 0, "fcodeName": "populated place"}, "geometry": {"coordinates": [34.25, 49.01667], "type": "Point"}, "type": "feature"}, {"properties": {"countryId": "690791", "toponymName": "Ivanovka", "adminCode1": "04", "geonameId": 707395, "fcl": "P", "name": "Ivanovka", "countryName": "Ukraine", "fclName": "city, village,...", "fcode": "PPL", "adminName1": "Dnipropetrovsk", "countryCode": "UA", "population": 0, "fcodeName": "populated place"}, "geometry": {"coordinates": [34.36667, 48.98333], "type": "Point"}, "type": "feature"}, {"properties": {"countryId": "690791", "toponymName": "Ivanovka", "adminCode1": "04", "geonameId": 707396, "fcl": "P", "name": "Ivanovka", "countryName": "Ukraine", "fclName": "city, village,...", "fcode": "PPL", "adminName1": "Dnipropetrovsk", "countryCode": "UA", "population": 0, "fcodeName": "populated place"}, "geometry": {"coordinates": [34.51667, 48.96667], "type": "Point"}, "type": "feature"}, {"properties": {"countryId": "690791", "toponymName": "Ivanovka", "adminCode1": "07", "geonameId": 813218, "fcl": "P", "name": "Ivanovka", "countryName": "Ukraine", "fclName": "city, village,...", "fcode": "PPL", "adminName1": "Kharkiv", "countryCode": "UA", "population": 0, "fcodeName": "populated place"}, "geometry": {"coordinates": [37.59, 49.92472], "type": "Point"}, "type": "feature"}, {"properties": {"countryId": "690791", "toponymName": "Ivanovka", "adminCode1": "07", "geonameId": 806453, "fcl": "P", "name": "Ivanovka", "countryName": "Ukraine", "fclName": "city, village,...", "fcode": "PPL", "adminName1": "Kharkiv", "countryCode": "UA", "population": 0, "fcodeName": "populated place"}, "geometry": {"coordinates": [36.49833, 50.08583], "type": "Point"}, "type": "feature"}, {"properties": {"countryId": "690791", "toponymName": "Ivanovka", "adminCode1": "07", "geonameId": 806995, "fcl": "P", "name": "Ivanovka", "countryName": "Ukraine", "fclName": "city, village,...", "fcode": "PPL", "adminName1": "Kharkiv", "countryCode": "UA", "population": 0, "fcodeName": "populated place"}, "geometry": {"coordinates": [37.80083, 50.07611], "type": "Point"}, "type": "feature"}, {"properties": {"countryId": "690791", "toponymName": "Ivanovka", "adminCode1": "21", "geonameId": 807430, "fcl": "P", "name": "Ivanovka", "countryName": "Ukraine", "fclName": "city, village,...", "fcode": "PPL", "adminName1": "Sumy", "countryCode": "UA", "population": 0, "fcodeName": "populated place"}, "geometry": {"coordinates": [34.61, 50.86306], "type": "Point"}, "type": "feature"}, {"properties": {"countryId": "690791", "toponymName": "Ivanovka", "adminCode1": "21", "geonameId": 808009, "fcl": "P", "name": "Ivanovka", "countryName": "Ukraine", "fclName": "city, village,...", "fcode": "PPL", "adminName1": "Sumy", "countryCode": "UA", "population": 0, "fcodeName": "populated place"}, "geometry": {"coordinates": [35.02528, 50.18444], "type": "Point"}, "type": "feature"}, {"properties": {"countryId": "690791", "toponymName": "Zelenovka", "adminCode1": "18", "geonameId": 687381, "fcl": "P", "name": "Zelenovka", "countryName": "Ukraine", "fclName": "city, village,...", "fcode": "PPL", "adminName1": "Poltava", "countryCode": "UA", "population": 0, "fcodeName": "populated place"}, "geometry": {"coordinates": [34.4, 49.15], "type": "Point"}, "type": "feature"}, {"properties": {"countryId": "690791", "toponymName": "Novo-Ivanovka", "adminCode1": "07", "geonameId": 699535, "fcl": "P", "name": "Novo-Ivanovka", "countryName": "Ukraine", "fclName": "city, village,...", "fcode": "PPL", "adminName1": "Kharkiv", "countryCode": "UA", "population": 0, "fcodeName": "populated place"}, "geometry": {"coordinates": [35.33333, 49.86667], "type": "Point"}, "type": "feature"}, {"properties": {"countryId": "690791", "toponymName": "Stara Ivanivka", "adminCode1": "21", "geonameId": 692821, "fcl": "P", "name": "Staroivanovka", "countryName": "Ukraine", "fclName": "city, village,...", "fcode": "PPL", "adminName1": "Sumy", "countryCode": "UA", "population": 0, "fcodeName": "populated place"}, "geometry": {"coordinates": [34.8358, 50.37763], "type": "Point"}, "type": "feature"}, {"properties": {"countryId": "2017370", "toponymName": "Malaya Ivanovka", "adminCode1": "09", "geonameId": 7687843, "fcl": "P", "name": "Malaya Ivanovka", "countryName": "Russia", "fclName": "city, village,...", "fcode": "PPL", "adminName1": "Belgorod", "countryCode": "RU", "population": 0, "fcodeName": "populated place"}, "geometry": {"coordinates": [38.16161, 50.84932], "type": "Point"}, "type": "feature"}, {"properties": {"countryId": "2017370", "toponymName": "Ivanovka Vtoraya", "adminCode1": "09", "geonameId": 809769, "fcl": "P", "name": "Ivanovka Vtoraya", "countryName": "Russia", "fclName": "city, village,...", "fcode": "PPL", "adminName1": "Belgorod", "countryCode": "RU", "population": 0, "fcodeName": "populated place"}, "geometry": {"coordinates": [37.29972, 50.99278], "type": "Point"}, "type": "feature"}, {"properties": {"countryId": "690791", "toponymName": "Karla Marksa", "adminCode1": "04", "geonameId": 707397, "fcl": "P", "name": "Ivanovka", "countryName": "Ukraine", "fclName": "city, village,...", "fcode": "PPL", "adminName1": "Dnipropetrovsk", "countryCode": "UA", "population": 0, "fcodeName": "populated place"}, "geometry": {"coordinates": [34.97121, 48.84021], "type": "Point"}, "type": "feature"}, {"properties": {"countryId": "690791", "toponymName": "Ivanivka", "adminCode1": "05", "geonameId": 809798, "fcl": "P", "name": "Ivanivka", "countryName": "Ukraine", "fclName": "city, village,...", "fcode": "PPL", "adminName1": "Donetsk", "countryCode": "UA", "population": 0, "fcodeName": "populated place"}, "geometry": {"coordinates": [37.94667, 49.11417], "type": "Point"}, "type": "feature"}, {"properties": {"countryId": "690791", "toponymName": "Petro-Ivanovka", "adminCode1": "07", "geonameId": 806949, "fcl": "P", "name": "Petro-Ivanovka", "countryName": "Ukraine", "fclName": "city, village,...", "fcode": "PPL", "adminName1": "Kharkiv", "countryCode": "UA", "population": 0, "fcodeName": "populated place"}, "geometry": {"coordinates": [37.65639, 50.02222], "type": "Point"}, "type": "feature"}, {"properties": {"countryId": "2017370", "toponymName": "Novo-Ivanovka", "adminCode1": "09", "geonameId": 808849, "fcl": "P", "name": "Novo-Ivanovka", "countryName": "Russia", "fclName": "city, village,...", "fcode": "PPL", "adminName1": "Belgorod", "countryCode": "RU", "population": 0, "fcodeName": "populated place"}, "geometry": {"coordinates": [36.04611, 50.78639], "type": "Point"}, "type": "feature"}, {"properties": {"countryId": "690791", "toponymName": "Ivanivka", "adminCode1": "21", "geonameId": 707365, "fcl": "P", "name": "Ivanivka", "countryName": "Ukraine", "fclName": "city, village,...", "fcode": "PPL", "adminName1": "Sumy", "countryCode": "UA", "population": 0, "fcodeName": "populated place"}, "geometry": {"coordinates": [34.10939, 51.26026], "type": "Point"}, "type": "feature"}, {"properties": {"countryId": "690791", "toponymName": "Ivanivka", "adminCode1": "07", "geonameId": 707374, "fcl": "P", "name": "Ivanivka", "countryName": "Ukraine", "fclName": "city, village,...", "fcode": "PPL", "adminName1": "Kharkiv", "countryCode": "UA", "population": 0, "fcodeName": "populated place"}, "geometry": {"coordinates": [37.26348, 50.2468], "type": "Point"}, "type": "feature"}, {"properties": {"countryId": "690791", "toponymName": "Ivanivka", "adminCode1": "07", "geonameId": 707376, "fcl": "P", "name": "Ivanivka", "countryName": "Ukraine", "fclName": "city, village,...", "fcode": "PPL", "adminName1": "Kharkiv", "countryCode": "UA", "population": 0, "fcodeName": "populated place"}, "geometry": {"coordinates": [37.96959, 49.81806], "type": "Point"}, "type": "feature"}, {"properties": {"countryId": "690791", "toponymName": "Ivanivka", "adminCode1": "07", "geonameId": 707378, "fcl": "P", "name": "Ivanivka", "countryName": "Ukraine", "fclName": "city, village,...", "fcode": "PPL", "adminName1": "Kharkiv", "countryCode": "UA", "population": 0, "fcodeName": "populated place"}, "geometry": {"coordinates": [37.88829, 49.66411], "type": "Point"}, "type": "feature"}, {"properties": {"countryId": "690791", "toponymName": "Ivanivka", "adminCode1": "07", "geonameId": 707394, "fcl": "P", "name": "Ivanivka", "countryName": "Ukraine", "fclName": "city, village,...", "fcode": "PPL", "adminName1": "Kharkiv", "countryCode": "UA", "population": 0, "fcodeName": "populated place"}, "geometry": {"coordinates": [36.86188, 49.00526], "type": "Point"}, "type": "feature"}, {"properties": {"countryId": "690791", "toponymName": "Ivanivka", "adminCode1": "04", "geonameId": 707403, "fcl": "P", "name": "Ivanivka", "countryName": "Ukraine", "fclName": "city, village,...", "fcode": "PPL", "adminName1": "Dnipropetrovsk", "countryCode": "UA", "population": 0, "fcodeName": "populated place"}, "geometry": {"coordinates": [34.91341, 48.73548], "type": "Point"}, "type": "feature"}, {"properties": {"countryId": "690791", "toponymName": "Ivanivka", "adminCode1": "07", "geonameId": 811150, "fcl": "P", "name": "Ivanivka", "countryName": "Ukraine", "fclName": "city, village,...", "fcode": "PPL", "adminName1": "Kharkiv", "countryCode": "UA", "population": 0, "fcodeName": "populated place"}, "geometry": {"coordinates": [36.90548, 49.63596], "type": "Point"}, "type": "feature"}, {"properties": {"countryId": "690791", "toponymName": "Ivanivka", "adminCode1": "07", "geonameId": 813060, "fcl": "P", "name": "Ivanivka", "countryName": "Ukraine", "fclName": "city, village,...", "fcode": "PPL", "adminName1": "Kharkiv", "countryCode": "UA", "population": 0, "fcodeName": "populated place"}, "geometry": {"coordinates": [37.31523, 49.87732], "type": "Point"}, "type": "feature"}, {"properties": {"countryId": "690791", "toponymName": "Ivanivka", "adminCode1": "07", "geonameId": 808844, "fcl": "P", "name": "Ivanivka", "countryName": "Ukraine", "fclName": "city, village,...", "fcode": "PPL", "adminName1": "Kharkiv", "countryCode": "UA", "population": 0, "fcodeName": "populated place"}, "geometry": {"coordinates": [36.48611, 49.03328], "type": "Point"}, "type": "feature"}, {"properties": {"countryId": "690791", "toponymName": "Ivanivka", "adminCode1": "07", "geonameId": 809699, "fcl": "P", "name": "Ivanivka", "countryName": "Ukraine", "fclName": "city, village,...", "fcode": "PPL", "adminName1": "Kharkiv", "countryCode": "UA", "population": 0, "fcodeName": "populated place"}, "geometry": {"coordinates": [36.69943, 49.20984], "type": "Point"}, "type": "feature"}, {"properties": {"countryId": "690791", "toponymName": "Ivanivka", "adminCode1": "21", "geonameId": 8564638, "fcl": "P", "name": "Ivanivka", "countryName": "Ukraine", "fclName": "city, village,...", "fcode": "PPL", "adminName1": "Sumy", "countryCode": "UA", "population": 0, "fcodeName": "populated place"}, "geometry": {"coordinates": [33.62202, 50.52638], "type": "Point"}, "type": "feature"}, {"properties": {"countryId": "690791", "toponymName": "Ivanivka", "adminCode1": "07", "geonameId": 707388, "fcl": "P", "name": "Ivanivka", "countryName": "Ukraine", "fclName": "city, village,...", "fcode": "PPL", "adminName1": "Kharkiv", "countryCode": "UA", "population": 0, "fcodeName": "populated place"}, "geometry": {"coordinates": [37.10106, 49.2748], "type": "Point"}, "type": "feature"}, {"properties": {"countryId": "690791", "toponymName": "Novaya Ivanovka", "adminCode1": "07", "geonameId": 699840, "fcl": "P", "name": "Novaya Ivanovka", "countryName": "Ukraine", "fclName": "city, village,...", "fcode": "PPLH", "adminName1": "Kharkiv", "countryCode": "UA", "population": 0, "fcodeName": "historical populated place"}, "geometry": {"coordinates": [36.44668, 49.22006], "type": "Point"}, "type": "feature"}, {"properties": {"countryId": "2017370", "toponymName": "Novoivanovka", "adminCode1": "41", "geonameId": 518824, "fcl": "P", "name": "Novoivanovka", "countryName": "Russia", "fclName": "city, village,...", "fcode": "PPL", "adminName1": "Kursk", "countryCode": "RU", "population": 0, "fcodeName": "populated place"}, "geometry": {"coordinates": [35.1071, 51.3213], "type": "Point"}, "type": "feature"}, {"properties": {"countryId": "2017370", "toponymName": "Ivanovskiy", "adminCode1": "41", "geonameId": 518826, "fcl": "P", "name": "Ivanovskiy", "countryName": "Russia", "fclName": "city, village,...", "fcode": "PPL", "adminName1": "Kursk", "countryCode": "RU", "population": 0, "fcodeName": "populated place"}, "geometry": {"coordinates": [35.7846, 51.0573], "type": "Point"}, "type": "feature"}, {"properties": {"countryId": "2017370", "toponymName": "Novoivanovka", "adminCode1": "41", "geonameId": 519679, "fcl": "P", "name": "Novoivanovka", "countryName": "Russia", "fclName": "city, village,...", "fcode": "PPL", "adminName1": "Kursk", "countryCode": "RU", "population": 0, "fcodeName": "populated place"}, "geometry": {"coordinates": [34.79248, 51.26572], "type": "Point"}, "type": "feature"}, {"properties": {"countryId": "690791", "toponymName": "Ivanovka", "adminCode1": "04", "geonameId": 707398, "fcl": "P", "name": "Ivanovka", "countryName": "Ukraine", "fclName": "city, village,...", "fcode": "PPLH", "adminName1": "Dnipropetrovsk", "countryCode": "UA", "population": 0, "fcodeName": "historical populated place"}, "geometry": {"coordinates": [34.58333, 48.86667], "type": "Point"}, "type": "feature"}, {"properties": {"countryId": "690791", "toponymName": "Ivanovka", "adminCode1": "04", "geonameId": 707400, "fcl": "P", "name": "Ivanovka", "countryName": "Ukraine", "fclName": "city, village,...", "fcode": "PPLH", "adminName1": "Dnipropetrovsk", "countryCode": "UA", "population": 0, "fcodeName": "historical populated place"}, "geometry": {"coordinates": [34.9, 48.85], "type": "Point"}, "type": "feature"}, {"properties": {"countryId": "690791", "toponymName": "Ivanovka", "adminCode1": "07", "geonameId": 809554, "fcl": "P", "name": "Ivanovka", "countryName": "Ukraine", "fclName": "city, village,...", "fcode": "PPLH", "adminName1": "Kharkiv", "countryCode": "UA", "population": 0, "fcodeName": "historical populated place"}, "geometry": {"coordinates": [36.03528, 49.3325], "type": "Point"}, "type": "feature"}, {"properties": {"countryId": "690791", "toponymName": "Ivanovka", "adminCode1": "05", "geonameId": 809831, "fcl": "P", "name": "Ivanovka", "countryName": "Ukraine", "fclName": "city, village,...", "fcode": "PPLH", "adminName1": "Donetsk", "countryCode": "UA", "population": 0, "fcodeName": "historical populated place"}, "geometry": {"coordinates": [37.80778, 49.20639], "type": "Point"}, "type": "feature"}, {"properties": {"countryId": "690791", "toponymName": "Petro-Ivanivka", "adminCode1": "07", "geonameId": 697442, "fcl": "P", "name": "Petro-Ivanivka", "countryName": "Ukraine", "fclName": "city, village,...", "fcode": "PPL", "adminName1": "Kharkiv", "countryCode": "UA", "population": 0, "fcodeName": "populated place"}, "geometry": {"coordinates": [37.69248, 49.92949], "type": "Point"}, "type": "feature"}, {"properties": {"countryId": "690791", "toponymName": "Ivanivka", "adminCode1": "07", "geonameId": 6722153, "fcl": "P", "name": "Ivanivka", "countryName": "Ukraine", "fclName": "city, village,...", "fcode": "PPLX", "adminName1": "Kharkiv", "countryCode": "UA", "population": 0, "fcodeName": "section of populated place"}, "geometry": {"coordinates": [36.20221, 50.00516], "type": "Point"}, "type": "feature"}, {"properties": {"countryId": "690791", "toponymName": "Mykil\u2019s\u2019ke", "adminCode1": "07", "geonameId": 700061, "fcl": "P", "name": "Mykil\u2019s\u2019ke", "countryName": "Ukraine", "fclName": "city, village,...", "fcode": "PPL", "adminName1": "Kharkiv", "countryCode": "UA", "population": 0, "fcodeName": "populated place"}, "geometry": {"coordinates": [36.33103, 48.73556], "type": "Point"}, "type": "feature"}, {"properties": {"countryId": "690791", "toponymName": "Novo Ivanovka", "adminCode1": "07", "geonameId": 808841, "fcl": "P", "name": "Novo Ivanovka", "countryName": "Ukraine", "fclName": "city, village,...", "fcode": "PPLH", "adminName1": "Kharkiv", "countryCode": "UA", "population": 0, "fcodeName": "historical populated place"}, "geometry": {"coordinates": [36.34509, 49.08725], "type": "Point"}, "type": "feature"}]}