{"type": "FeatureCollection", "features": [{"type": "Feature", "geometry": {"coordinates": [37.29236, 50.97568], "type": "Point"}, "properties": {"countryCode": "RU", "countryId": "2017370", "fcodeName": "populated place", "adminName1": "Belgorod", "fclName": "city, village,...", "fcl": "P", "countryName": "Russia", "fcode": "PPL", "geonameId": 555508, "population": 0, "adminCode1": "09", "name": "Ivanovka", "toponymName": "Ivanovka"}}, {"type": "Feature", "geometry": {"coordinates": [35.79167, 51.48639], "type": "Point"}, "properties": {"countryCode": "RU", "countryId": "2017370", "fcodeName": "populated place", "adminName1": "Kursk", "fclName": "city, village,...", "fcl": "P", "countryName": "Russia", "fcode": "PPL", "geonameId": 555499, "population": 0, "adminCode1": "41", "name": "Ivanovka", "toponymName": "Ivanovka"}}, {"type": "Feature", "geometry": {"coordinates": [37.173, 50.95352], "type": "Point"}, "properties": {"countryCode": "RU", "countryId": "2017370", "fcodeName": "populated place", "adminName1": "Belgorod", "fclName": "city, village,...", "fcl": "P", "countryName": "Russia", "fcode": "PPL", "geonameId": 809669, "population": 0, "adminCode1": "09", "name": "Ivanovka", "toponymName": "Ivanovka"}}, {"type": "Feature", "geometry": {"coordinates": [37.38389, 51.36611], "type": "Point"}, "properties": {"countryCode": "RU", "countryId": "2017370", "fcodeName": "populated place", "adminName1": "Belgorod", "fclName": "city, village,...", "fcl": "P", "countryName": "Russia", "fcode": "PPL", "geonameId": 555503, "population": 0, "adminCode1": "09", "name": "Ivanovka", "toponymName": "Ivanovka"}}, {"type": "Feature", "geometry": {"coordinates": [37.855, 51.0951], "type": "Point"}, "properties": {"countryCode": "RU", "countryId": "2017370", "fcodeName": "populated place", "adminName1": "Belgorod", "fclName": "city, village,...", "fcl": "P", "countryName": "Russia", "fcode": "PPL", "geonameId": 555507, "population": 0, "adminCode1": "09", "name": "Ivanovka", "toponymName": "Ivanovka"}}, {"type": "Feature", "geometry": {"coordinates": [37.37796, 51.06316], "type": "Point"}, "properties": {"countryCode": "RU", "countryId": "2017370", "fcodeName": "populated place", "adminName1": "Belgorod", "fclName": "city, village,...", "fcl": "P", "countryName": "Russia", "fcode": "PPL", "geonameId": 806205, "population": 0, "adminCode1": "09", "name": "Ivanovka", "toponymName": "Ivanovka"}}, {"type": "Feature", "geometry": {"coordinates": [36.71667, 51.43333], "type": "Point"}, "properties": {"countryCode": "RU", "countryId": "2017370", "fcodeName": "populated place", "adminName1": "Kursk", "fclName": "city, village,...", "fcl": "P", "countryName": "Russia", "fcode": "PPL", "geonameId": 555501, "population": 0, "adminCode1": "41", "name": "Ivanovka", "toponymName": "Ivanovka"}}, {"type": "Feature", "geometry": {"coordinates": [37.97839, 50.84993], "type": "Point"}, "properties": {"countryCode": "RU", "countryId": "2017370", "fcodeName": "populated place", "adminName1": "Belgorod", "fclName": "city, village,...", "fcl": "P", "countryName": "Russia", "fcode": "PPL", "geonameId": 7687768, "population": 0, "adminCode1": "09", "name": "Ivanovka", "toponymName": "Ivanovka"}}, {"type": "Feature", "geometry": {"coordinates": [37.23987, 50.65073], "type": "Point"}, "properties": {"countryCode": "RU", "countryId": "2017370", "fcodeName": "populated place", "adminName1": "Belgorod", "fclName": "city, village,...", "fcl": "P", "countryName": "Russia", "fcode": "PPL", "geonameId": 7687396, "population": 0, "adminCode1": "09", "name": "Ivanovka", "toponymName": "Ivanovka"}}, {"type": "Feature", "geometry": {"coordinates": [36.72053, 50.43395], "type": "Point"}, "properties": {"countryCode": "RU", "countryId": "2017370", "fcodeName": "populated place", "adminName1": "Belgorod", "fclName": "city, village,...", "fcl": "P", "countryName": "Russia", "fcode": "PPL", "geonameId": 807327, "population": 0, "adminCode1": "09", "name": "Ivanovka", "toponymName": "Ivanovka"}}, {"type": "Feature", "geometry": {"coordinates": [36.64002, 50.93689], "type": "Point"}, "properties": {"countryCode": "RU", "countryId": "2017370", "fcodeName": "populated place", "adminName1": "Belgorod", "fclName": "city, village,...", "fcl": "P", "countryName": "Russia", "fcode": "PPL", "geonameId": 809248, "population": 0, "adminCode1": "09", "name": "Ivanovka", "toponymName": "Ivanovka"}}, {"type": "Feature", "geometry": {"coordinates": [38.1821, 50.8611], "type": "Point"}, "properties": {"countryCode": "RU", "countryId": "2017370", "fcodeName": "populated place", "adminName1": "Belgorod", "fclName": "city, village,...", "fcl": "P", "countryName": "Russia", "fcode": "PPL", "geonameId": 575076, "population": 0, "adminCode1": "09", "name": "Bol'shaya Ivanovka", "toponymName": "Bol\u2019shaya Ivanovka"}}, {"type": "Feature", "geometry": {"coordinates": [34.3287, 51.5371], "type": "Point"}, "properties": {"countryCode": "RU", "countryId": "2017370", "fcodeName": "populated place", "adminName1": "Kursk", "fclName": "city, village,...", "fcl": "P", "countryName": "Russia", "fcode": "PPL", "geonameId": 491892, "population": 0, "adminCode1": "41", "name": "Slobodka-Ivanovka", "toponymName": "Slobodka-Ivanovka"}}, {"type": "Feature", "geometry": {"coordinates": [36.20243, 48.88826], "type": "Point"}, "properties": {"countryCode": "UA", "countryId": "690791", "fcodeName": "populated place", "adminName1": "Kharkiv", "fclName": "city, village,...", "fcl": "P", "countryName": "Ukraine", "fcode": "PPL", "geonameId": 699841, "population": 0, "adminCode1": "07", "name": "Novaya Ivanovka", "toponymName": "Nova Ivanivka"}}, {"type": "Feature", "geometry": {"coordinates": [37.27917, 49.74194], "type": "Point"}, "properties": {"countryCode": "UA", "countryId": "690791", "fcodeName": "populated place", "adminName1": "Kharkiv", "fclName": "city, village,...", "fcl": "P", "countryName": "Ukraine", "fcode": "PPL", "geonameId": 707377, "population": 0, "adminCode1": "07", "name": "Ivanovka", "toponymName": "Ivanovka"}}, {"type": "Feature", "geometry": {"coordinates": [34.96667, 49.43333], "type": "Point"}, "properties": {"countryCode": "UA", "countryId": "690791", "fcodeName": "populated place", "adminName1": "Poltava", "fclName": "city, village,...", "fcl": "P", "countryName": "Ukraine", "fcode": "PPL", "geonameId": 707384, "population": 0, "adminCode1": "18", "name": "Ivanovka", "toponymName": "Ivanovka"}}, {"type": "Feature", "geometry": {"coordinates": [34.73333, 49.43333], "type": "Point"}, "properties": {"countryCode": "UA", "countryId": "690791", "fcodeName": "populated place", "adminName1": "Poltava", "fclName": "city, village,...", "fcl": "P", "countryName": "Ukraine", "fcode": "PPL", "geonameId": 707385, "population": 0, "adminCode1": "18", "name": "Ivanovka", "toponymName": "Ivanovka"}}, {"type": "Feature", "geometry": {"coordinates": [34.36945, 49.13932], "type": "Point"}, "properties": {"countryCode": "UA", "countryId": "690791", "fcodeName": "populated place", "adminName1": "Poltava", "fclName": "city, village,...", "fcl": "P", "countryName": "Ukraine", "fcode": "PPL", "geonameId": 707390, "population": 0, "adminCode1": "18", "name": "Ivanovka", "toponymName": "Ivanovka"}}, {"type": "Feature", "geometry": {"coordinates": [34.25, 49.01667], "type": "Point"}, "properties": {"countryCode": "UA", "countryId": "690791", "fcodeName": "populated place", "adminName1": "Poltava", "fclName": "city, village,...", "fcl": "P", "countryName": "Ukraine", "fcode": "PPL", "geonameId": 707393, "population": 0, "adminCode1": "18", "name": "Ivanovka", "toponymName": "Ivanovka"}}, {"type": "Feature", "geometry": {"coordinates": [34.36667, 48.98333], "type": "Point"}, "properties": {"countryCode": "UA", "countryId": "690791", "fcodeName": "populated place", "adminName1": "Dnipropetrovsk", "fclName": "city, village,...", "fcl": "P", "countryName": "Ukraine", "fcode": "PPL", "geonameId": 707395, "population": 0, "adminCode1": "04", "name": "Ivanovka", "toponymName": "Ivanovka"}}, {"type": "Feature", "geometry": {"coordinates": [34.51667, 48.96667], "type": "Point"}, "properties": {"countryCode": "UA", "countryId": "690791", "fcodeName": "populated place", "adminName1": "Dnipropetrovsk", "fclName": "city, village,...", "fcl": "P", "countryName": "Ukraine", "fcode": "PPL", "geonameId": 707396, "population": 0, "adminCode1": "04", "name": "Ivanovka", "toponymName": "Ivanovka"}}, {"type": "Feature", "geometry": {"coordinates": [37.59, 49.92472], "type": "Point"}, "properties": {"countryCode": "UA", "countryId": "690791", "fcodeName": "populated place", "adminName1": "Kharkiv", "fclName": "city, village,...", "fcl": "P", "countryName": "Ukraine", "fcode": "PPL", "geonameId": 813218, "population": 0, "adminCode1": "07", "name": "Ivanovka", "toponymName": "Ivanovka"}}, {"type": "Feature", "geometry": {"coordinates": [36.49833, 50.08583], "type": "Point"}, "properties": {"countryCode": "UA", "countryId": "690791", "fcodeName": "populated place", "adminName1": "Kharkiv", "fclName": "city, village,...", "fcl": "P", "countryName": "Ukraine", "fcode": "PPL", "geonameId": 806453, "population": 0, "adminCode1": "07", "name": "Ivanovka", "toponymName": "Ivanovka"}}, {"type": "Feature", "geometry": {"coordinates": [37.80083, 50.07611], "type": "Point"}, "properties": {"countryCode": "UA", "countryId": "690791", "fcodeName": "populated place", "adminName1": "Kharkiv", "fclName": "city, village,...", "fcl": "P", "countryName": "Ukraine", "fcode": "PPL", "geonameId": 806995, "population": 0, "adminCode1": "07", "name": "Ivanovka", "toponymName": "Ivanovka"}}, {"type": "Feature", "geometry": {"coordinates": [34.61, 50.86306], "type": "Point"}, "properties": {"countryCode": "UA", "countryId": "690791", "fcodeName": "populated place", "adminName1": "Sumy", "fclName": "city, village,...", "fcl": "P", "countryName": "Ukraine", "fcode": "PPL", "geonameId": 807430, "population": 0, "adminCode1": "21", "name": "Ivanovka", "toponymName": "Ivanovka"}}, {"type": "Feature", "geometry": {"coordinates": [35.02528, 50.18444], "type": "Point"}, "properties": {"countryCode": "UA", "countryId": "690791", "fcodeName": "populated place", "adminName1": "Sumy", "fclName": "city, village,...", "fcl": "P", "countryName": "Ukraine", "fcode": "PPL", "geonameId": 808009, "population": 0, "adminCode1": "21", "name": "Ivanovka", "toponymName": "Ivanovka"}}, {"type": "Feature", "geometry": {"coordinates": [34.4, 49.15], "type": "Point"}, "properties": {"countryCode": "UA", "countryId": "690791", "fcodeName": "populated place", "adminName1": "Poltava", "fclName": "city, village,...", "fcl": "P", "countryName": "Ukraine", "fcode": "PPL", "geonameId": 687381, "population": 0, "adminCode1": "18", "name": "Zelenovka", "toponymName": "Zelenovka"}}, {"type": "Feature", "geometry": {"coordinates": [35.33333, 49.86667], "type": "Point"}, "properties": {"countryCode": "UA", "countryId": "690791", "fcodeName": "populated place", "adminName1": "Kharkiv", "fclName": "city, village,...", "fcl": "P", "countryName": "Ukraine", "fcode": "PPL", "geonameId": 699535, "population": 0, "adminCode1": "07", "name": "Novo-Ivanovka", "toponymName": "Novo-Ivanovka"}}, {"type": "Feature", "geometry": {"coordinates": [34.8358, 50.37763], "type": "Point"}, "properties": {"countryCode": "UA", "countryId": "690791", "fcodeName": "populated place", "adminName1": "Sumy", "fclName": "city, village,...", "fcl": "P", "countryName": "Ukraine", "fcode": "PPL", "geonameId": 692821, "population": 0, "adminCode1": "21", "name": "Staroivanovka", "toponymName": "Stara Ivanivka"}}, {"type": "Feature", "geometry": {"coordinates": [38.16161, 50.84932], "type": "Point"}, "properties": {"countryCode": "RU", "countryId": "2017370", "fcodeName": "populated place", "adminName1": "Belgorod", "fclName": "city, village,...", "fcl": "P", "countryName": "Russia", "fcode": "PPL", "geonameId": 7687843, "population": 0, "adminCode1": "09", "name": "Malaya Ivanovka", "toponymName": "Malaya Ivanovka"}}, {"type": "Feature", "geometry": {"coordinates": [37.29972, 50.99278], "type": "Point"}, "properties": {"countryCode": "RU", "countryId": "2017370", "fcodeName": "populated place", "adminName1": "Belgorod", "fclName": "city, village,...", "fcl": "P", "countryName": "Russia", "fcode": "PPL", "geonameId": 809769, "population": 0, "adminCode1": "09", "name": "Ivanovka Vtoraya", "toponymName": "Ivanovka Vtoraya"}}, {"type": "Feature", "geometry": {"coordinates": [34.97121, 48.84021], "type": "Point"}, "properties": {"countryCode": "UA", "countryId": "690791", "fcodeName": "populated place", "adminName1": "Dnipropetrovsk", "fclName": "city, village,...", "fcl": "P", "countryName": "Ukraine", "fcode": "PPL", "geonameId": 707397, "population": 0, "adminCode1": "04", "name": "Ivanovka", "toponymName": "Karla Marksa"}}, {"type": "Feature", "geometry": {"coordinates": [37.94667, 49.11417], "type": "Point"}, "properties": {"countryCode": "UA", "countryId": "690791", "fcodeName": "populated place", "adminName1": "Donetsk", "fclName": "city, village,...", "fcl": "P", "countryName": "Ukraine", "fcode": "PPL", "geonameId": 809798, "population": 0, "adminCode1": "05", "name": "Ivanivka", "toponymName": "Ivanivka"}}, {"type": "Feature", "geometry": {"coordinates": [37.65639, 50.02222], "type": "Point"}, "properties": {"countryCode": "UA", "countryId": "690791", "fcodeName": "populated place", "adminName1": "Kharkiv", "fclName": "city, village,...", "fcl": "P", "countryName": "Ukraine", "fcode": "PPL", "geonameId": 806949, "population": 0, "adminCode1": "07", "name": "Petro-Ivanovka", "toponymName": "Petro-Ivanovka"}}, {"type": "Feature", "geometry": {"coordinates": [36.04611, 50.78639], "type": "Point"}, "properties": {"countryCode": "RU", "countryId": "2017370", "fcodeName": "populated place", "adminName1": "Belgorod", "fclName": "city, village,...", "fcl": "P", "countryName": "Russia", "fcode": "PPL", "geonameId": 808849, "population": 0, "adminCode1": "09", "name": "Novo-Ivanovka", "toponymName": "Novo-Ivanovka"}}, {"type": "Feature", "geometry": {"coordinates": [34.10939, 51.26026], "type": "Point"}, "properties": {"countryCode": "UA", "countryId": "690791", "fcodeName": "populated place", "adminName1": "Sumy", "fclName": "city, village,...", "fcl": "P", "countryName": "Ukraine", "fcode": "PPL", "geonameId": 707365, "population": 0, "adminCode1": "21", "name": "Ivanivka", "toponymName": "Ivanivka"}}, {"type": "Feature", "geometry": {"coordinates": [37.26348, 50.2468], "type": "Point"}, "properties": {"countryCode": "UA", "countryId": "690791", "fcodeName": "populated place", "adminName1": "Kharkiv", "fclName": "city, village,...", "fcl": "P", "countryName": "Ukraine", "fcode": "PPL", "geonameId": 707374, "population": 0, "adminCode1": "07", "name": "Ivanivka", "toponymName": "Ivanivka"}}, {"type": "Feature", "geometry": {"coordinates": [37.96959, 49.81806], "type": "Point"}, "properties": {"countryCode": "UA", "countryId": "690791", "fcodeName": "populated place", "adminName1": "Kharkiv", "fclName": "city, village,...", "fcl": "P", "countryName": "Ukraine", "fcode": "PPL", "geonameId": 707376, "population": 0, "adminCode1": "07", "name": "Ivanivka", "toponymName": "Ivanivka"}}, {"type": "Feature", "geometry": {"coordinates": [37.88829, 49.66411], "type": "Point"}, "properties": {"countryCode": "UA", "countryId": "690791", "fcodeName": "populated place", "adminName1": "Kharkiv", "fclName": "city, village,...", "fcl": "P", "countryName": "Ukraine", "fcode": "PPL", "geonameId": 707378, "population": 0, "adminCode1": "07", "name": "Ivanivka", "toponymName": "Ivanivka"}}, {"type": "Feature", "geometry": {"coordinates": [36.86188, 49.00526], "type": "Point"}, "properties": {"countryCode": "UA", "countryId": "690791", "fcodeName": "populated place", "adminName1": "Kharkiv", "fclName": "city, village,...", "fcl": "P", "countryName": "Ukraine", "fcode": "PPL", "geonameId": 707394, "population": 0, "adminCode1": "07", "name": "Ivanivka", "toponymName": "Ivanivka"}}, {"type": "Feature", "geometry": {"coordinates": [34.91341, 48.73548], "type": "Point"}, "properties": {"countryCode": "UA", "countryId": "690791", "fcodeName": "populated place", "adminName1": "Dnipropetrovsk", "fclName": "city, village,...", "fcl": "P", "countryName": "Ukraine", "fcode": "PPL", "geonameId": 707403, "population": 0, "adminCode1": "04", "name": "Ivanivka", "toponymName": "Ivanivka"}}, {"type": "Feature", "geometry": {"coordinates": [36.90548, 49.63596], "type": "Point"}, "properties": {"countryCode": "UA", "countryId": "690791", "fcodeName": "populated place", "adminName1": "Kharkiv", "fclName": "city, village,...", "fcl": "P", "countryName": "Ukraine", "fcode": "PPL", "geonameId": 811150, "population": 0, "adminCode1": "07", "name": "Ivanivka", "toponymName": "Ivanivka"}}, {"type": "Feature", "geometry": {"coordinates": [37.31523, 49.87732], "type": "Point"}, "properties": {"countryCode": "UA", "countryId": "690791", "fcodeName": "populated place", "adminName1": "Kharkiv", "fclName": "city, village,...", "fcl": "P", "countryName": "Ukraine", "fcode": "PPL", "geonameId": 813060, "population": 0, "adminCode1": "07", "name": "Ivanivka", "toponymName": "Ivanivka"}}, {"type": "Feature", "geometry": {"coordinates": [36.48611, 49.03328], "type": "Point"}, "properties": {"countryCode": "UA", "countryId": "690791", "fcodeName": "populated place", "adminName1": "Kharkiv", "fclName": "city, village,...", "fcl": "P", "countryName": "Ukraine", "fcode": "PPL", "geonameId": 808844, "population": 0, "adminCode1": "07", "name": "Ivanivka", "toponymName": "Ivanivka"}}, {"type": "Feature", "geometry": {"coordinates": [36.69943, 49.20984], "type": "Point"}, "properties": {"countryCode": "UA", "countryId": "690791", "fcodeName": "populated place", "adminName1": "Kharkiv", "fclName": "city, village,...", "fcl": "P", "countryName": "Ukraine", "fcode": "PPL", "geonameId": 809699, "population": 0, "adminCode1": "07", "name": "Ivanivka", "toponymName": "Ivanivka"}}, {"type": "Feature", "geometry": {"coordinates": [33.62202, 50.52638], "type": "Point"}, "properties": {"countryCode": "UA", "countryId": "690791", "fcodeName": "populated place", "adminName1": "Sumy", "fclName": "city, village,...", "fcl": "P", "countryName": "Ukraine", "fcode": "PPL", "geonameId": 8564638, "population": 0, "adminCode1": "21", "name": "Ivanivka", "toponymName": "Ivanivka"}}, {"type": "Feature", "geometry": {"coordinates": [37.10106, 49.2748], "type": "Point"}, "properties": {"countryCode": "UA", "countryId": "690791", "fcodeName": "populated place", "adminName1": "Kharkiv", "fclName": "city, village,...", "fcl": "P", "countryName": "Ukraine", "fcode": "PPL", "geonameId": 707388, "population": 0, "adminCode1": "07", "name": "Ivanivka", "toponymName": "Ivanivka"}}, {"type": "Feature", "geometry": {"coordinates": [36.44668, 49.22006], "type": "Point"}, "properties": {"countryCode": "UA", "countryId": "690791", "fcodeName": "historical populated place", "adminName1": "Kharkiv", "fclName": "city, village,...", "fcl": "P", "countryName": "Ukraine", "fcode": "PPLH", "geonameId": 699840, "population": 0, "adminCode1": "07", "name": "Novaya Ivanovka", "toponymName": "Novaya Ivanovka"}}, {"type": "Feature", "geometry": {"coordinates": [35.1071, 51.3213], "type": "Point"}, "properties": {"countryCode": "RU", "countryId": "2017370", "fcodeName": "populated place", "adminName1": "Kursk", "fclName": "city, village,...", "fcl": "P", "countryName": "Russia", "fcode": "PPL", "geonameId": 518824, "population": 0, "adminCode1": "41", "name": "Novoivanovka", "toponymName": "Novoivanovka"}}, {"type": "Feature", "geometry": {"coordinates": [35.7846, 51.0573], "type": "Point"}, "properties": {"countryCode": "RU", "countryId": "2017370", "fcodeName": "populated place", "adminName1": "Kursk", "fclName": "city, village,...", "fcl": "P", "countryName": "Russia", "fcode": "PPL", "geonameId": 518826, "population": 0, "adminCode1": "41", "name": "Ivanovskiy", "toponymName": "Ivanovskiy"}}, {"type": "Feature", "geometry": {"coordinates": [34.79248, 51.26572], "type": "Point"}, "properties": {"countryCode": "RU", "countryId": "2017370", "fcodeName": "populated place", "adminName1": "Kursk", "fclName": "city, village,...", "fcl": "P", "countryName": "Russia", "fcode": "PPL", "geonameId": 519679, "population": 0, "adminCode1": "41", "name": "Novoivanovka", "toponymName": "Novoivanovka"}}, {"type": "Feature", "geometry": {"coordinates": [34.58333, 48.86667], "type": "Point"}, "properties": {"countryCode": "UA", "countryId": "690791", "fcodeName": "historical populated place", "adminName1": "Dnipropetrovsk", "fclName": "city, village,...", "fcl": "P", "countryName": "Ukraine", "fcode": "PPLH", "geonameId": 707398, "population": 0, "adminCode1": "04", "name": "Ivanovka", "toponymName": "Ivanovka"}}, {"type": "Feature", "geometry": {"coordinates": [34.9, 48.85], "type": "Point"}, "properties": {"countryCode": "UA", "countryId": "690791", "fcodeName": "historical populated place", "adminName1": "Dnipropetrovsk", "fclName": "city, village,...", "fcl": "P", "countryName": "Ukraine", "fcode": "PPLH", "geonameId": 707400, "population": 0, "adminCode1": "04", "name": "Ivanovka", "toponymName": "Ivanovka"}}, {"type": "Feature", "geometry": {"coordinates": [36.03528, 49.3325], "type": "Point"}, "properties": {"countryCode": "UA", "countryId": "690791", "fcodeName": "historical populated place", "adminName1": "Kharkiv", "fclName": "city, village,...", "fcl": "P", "countryName": "Ukraine", "fcode": "PPLH", "geonameId": 809554, "population": 0, "adminCode1": "07", "name": "Ivanovka", "toponymName": "Ivanovka"}}, {"type": "Feature", "geometry": {"coordinates": [37.80778, 49.20639], "type": "Point"}, "properties": {"countryCode": "UA", "countryId": "690791", "fcodeName": "historical populated place", "adminName1": "Donetsk", "fclName": "city, village,...", "fcl": "P", "countryName": "Ukraine", "fcode": "PPLH", "geonameId": 809831, "population": 0, "adminCode1": "05", "name": "Ivanovka", "toponymName": "Ivanovka"}}, {"type": "Feature", "geometry": {"coordinates": [37.69248, 49.92949], "type": "Point"}, "properties": {"countryCode": "UA", "countryId": "690791", "fcodeName": "populated place", "adminName1": "Kharkiv", "fclName": "city, village,...", "fcl": "P", "countryName": "Ukraine", "fcode": "PPL", "geonameId": 697442, "population": 0, "adminCode1": "07", "name": "Petro-Ivanivka", "toponymName": "Petro-Ivanivka"}}, {"type": "Feature", "geometry": {"coordinates": [36.20221, 50.00516], "type": "Point"}, "properties": {"countryCode": "UA", "countryId": "690791", "fcodeName": "section of populated place", "adminName1": "Kharkiv", "fclName": "city, village,...", "fcl": "P", "countryName": "Ukraine", "fcode": "PPLX", "geonameId": 6722153, "population": 0, "adminCode1": "07", "name": "Ivanivka", "toponymName": "Ivanivka"}}, {"type": "Feature", "geometry": {"coordinates": [36.33103, 48.73556], "type": "Point"}, "properties": {"countryCode": "UA", "countryId": "690791", "fcodeName": "populated place", "adminName1": "Kharkiv", "fclName": "city, village,...", "fcl": "P", "countryName": "Ukraine", "fcode": "PPL", "geonameId": 700061, "population": 0, "adminCode1": "07", "name": "Mykil\u2019s\u2019ke", "toponymName": "Mykil\u2019s\u2019ke"}}, {"type": "Feature", "geometry": {"coordinates": [36.34509, 49.08725], "type": "Point"}, "properties": {"countryCode": "UA", "countryId": "690791", "fcodeName": "historical populated place", "adminName1": "Kharkiv", "fclName": "city, village,...", "fcl": "P", "countryName": "Ukraine", "fcode": "PPLH", "geonameId": 808841, "population": 0, "adminCode1": "07", "name": "Novo Ivanovka", "toponymName": "Novo Ivanovka"}}]}