{"type": "FeatureCollection", "features": [{"properties": {"countryId": "690791", "toponymName": "Karlovka", "adminCode1": "05", "geonameId": 706752, "fcl": "P", "name": "Karlovka", "countryName": "Ukraine", "fclName": "city, village,...", "fcode": "PPL", "adminName1": "Donetsk", "countryCode": "UA", "population": 0, "fcodeName": "populated place"}, "geometry": {"coordinates": [37.45, 47.58333], "type": "Point"}, "type": "feature"}, {"properties": {"countryId": "690791", "toponymName": "Karlovka", "adminCode1": "04", "geonameId": 706750, "fcl": "P", "name": "Karlovka", "countryName": "Ukraine", "fclName": "city, village,...", "fcode": "PPL", "adminName1": "Dnipropetrovsk", "countryCode": "UA", "population": 0, "fcodeName": "populated place"}, "geometry": {"coordinates": [34.35, 48.95], "type": "Point"}, "type": "feature"}, {"properties": {"countryId": "690791", "toponymName": "Karlovka", "adminCode1": "16", "geonameId": 706751, "fcl": "P", "name": "Karlovka", "countryName": "Ukraine", "fclName": "city, village,...", "fcode": "PPL", "adminName1": "Mykolaiv", "countryCode": "UA", "population": 0, "fcodeName": "populated place"}, "geometry": {"coordinates": [31.0, 47.68333], "type": "Point"}, "type": "feature"}, {"properties": {"countryId": "690791", "toponymName": "Karlovka", "adminCode1": "16", "geonameId": 706753, "fcl": "P", "name": "Karlovka", "countryName": "Ukraine", "fclName": "city, village,...", "fcode": "PPL", "adminName1": "Mykolaiv", "countryCode": "UA", "population": 0, "fcodeName": "populated place"}, "geometry": {"coordinates": [32.1259, 47.50368], "type": "Point"}, "type": "feature"}, {"properties": {"countryId": "690791", "toponymName": "Karlivka", "adminCode1": "18", "geonameId": 706749, "fcl": "P", "name": "Karlivka", "countryName": "Ukraine", "fclName": "city, village,...", "fcode": "PPLA2", "adminName1": "Poltava", "countryCode": "UA", "population": 17226, "fcodeName": "seat of a second-order administrative division"}, "geometry": {"coordinates": [35.12947, 49.45668], "type": "Point"}, "type": "feature"}, {"properties": {"countryId": "690791", "toponymName": "Klyshchiyivka", "adminCode1": "05", "geonameId": 705666, "fcl": "P", "name": "Klyshchiyivka", "countryName": "Ukraine", "fclName": "city, village,...", "fcode": "PPL", "adminName1": "Donetsk", "countryCode": "UA", "population": 0, "fcodeName": "populated place"}, "geometry": {"coordinates": [37.96052, 48.53001], "type": "Point"}, "type": "feature"}, {"properties": {"countryId": "690791", "toponymName": "Bykoza", "adminCode1": "17", "geonameId": 711018, "fcl": "P", "name": "Bykoza", "countryName": "Ukraine", "fclName": "city, village,...", "fcode": "PPL", "adminName1": "Odessa", "countryCode": "UA", "population": 0, "fcodeName": "populated place"}, "geometry": {"coordinates": [30.17777, 46.19004], "type": "Point"}, "type": "feature"}, {"properties": {"countryId": "690791", "toponymName": "Krupskoye", "adminCode1": "10", "geonameId": 703935, "fcl": "P", "name": "Krupskoye", "countryName": "Ukraine", "fclName": "city, village,...", "fcode": "PPL", "adminName1": "Kirovohrad", "countryCode": "UA", "population": 0, "fcodeName": "populated place"}, "geometry": {"coordinates": [32.05591, 48.44327], "type": "Point"}, "type": "feature"}, {"properties": {"countryId": "690791", "toponymName": "Vil\u2019khuvatka", "adminCode1": "07", "geonameId": 706748, "fcl": "P", "name": "Vil\u2019khuvatka", "countryName": "Ukraine", "fclName": "city, village,...", "fcode": "PPL", "adminName1": "Kharkiv", "countryCode": "UA", "population": 0, "fcodeName": "populated place"}, "geometry": {"coordinates": [35.93333, 49.76667], "type": "Point"}, "type": "feature"}]}