{"type": "FeatureCollection", "features": [{"type": "Feature", "geometry": {"coordinates": [37.45, 47.58333], "type": "Point"}, "properties": {"countryCode": "UA", "countryId": "690791", "fcodeName": "populated place", "adminName1": "Donetsk", "fclName": "city, village,...", "fcl": "P", "countryName": "Ukraine", "fcode": "PPL", "geonameId": 706752, "population": 0, "adminCode1": "05", "name": "Karlovka", "toponymName": "Karlovka"}}, {"type": "Feature", "geometry": {"coordinates": [34.35, 48.95], "type": "Point"}, "properties": {"countryCode": "UA", "countryId": "690791", "fcodeName": "populated place", "adminName1": "Dnipropetrovsk", "fclName": "city, village,...", "fcl": "P", "countryName": "Ukraine", "fcode": "PPL", "geonameId": 706750, "population": 0, "adminCode1": "04", "name": "Karlovka", "toponymName": "Karlovka"}}, {"type": "Feature", "geometry": {"coordinates": [31.0, 47.68333], "type": "Point"}, "properties": {"countryCode": "UA", "countryId": "690791", "fcodeName": "populated place", "adminName1": "Mykolaiv", "fclName": "city, village,...", "fcl": "P", "countryName": "Ukraine", "fcode": "PPL", "geonameId": 706751, "population": 0, "adminCode1": "16", "name": "Karlovka", "toponymName": "Karlovka"}}, {"type": "Feature", "geometry": {"coordinates": [32.1259, 47.50368], "type": "Point"}, "properties": {"countryCode": "UA", "countryId": "690791", "fcodeName": "populated place", "adminName1": "Mykolaiv", "fclName": "city, village,...", "fcl": "P", "countryName": "Ukraine", "fcode": "PPL", "geonameId": 706753, "population": 0, "adminCode1": "16", "name": "Karlovka", "toponymName": "Karlovka"}}, {"type": "Feature", "geometry": {"coordinates": [35.12947, 49.45668], "type": "Point"}, "properties": {"countryCode": "UA", "countryId": "690791", "fcodeName": "seat of a second-order administrative division", "adminName1": "Poltava", "fclName": "city, village,...", "fcl": "P", "countryName": "Ukraine", "fcode": "PPLA2", "geonameId": 706749, "population": 17226, "adminCode1": "18", "name": "Karlivka", "toponymName": "Karlivka"}}, {"type": "Feature", "geometry": {"coordinates": [37.96052, 48.53001], "type": "Point"}, "properties": {"countryCode": "UA", "countryId": "690791", "fcodeName": "populated place", "adminName1": "Donetsk", "fclName": "city, village,...", "fcl": "P", "countryName": "Ukraine", "fcode": "PPL", "geonameId": 705666, "population": 0, "adminCode1": "05", "name": "Klyshchiyivka", "toponymName": "Klyshchiyivka"}}, {"type": "Feature", "geometry": {"coordinates": [30.17777, 46.19004], "type": "Point"}, "properties": {"countryCode": "UA", "countryId": "690791", "fcodeName": "populated place", "adminName1": "Odessa", "fclName": "city, village,...", "fcl": "P", "countryName": "Ukraine", "fcode": "PPL", "geonameId": 711018, "population": 0, "adminCode1": "17", "name": "Bykoza", "toponymName": "Bykoza"}}, {"type": "Feature", "geometry": {"coordinates": [32.05591, 48.44327], "type": "Point"}, "properties": {"countryCode": "UA", "countryId": "690791", "fcodeName": "populated place", "adminName1": "Kirovohrad", "fclName": "city, village,...", "fcl": "P", "countryName": "Ukraine", "fcode": "PPL", "geonameId": 703935, "population": 0, "adminCode1": "10", "name": "Krupskoye", "toponymName": "Krupskoye"}}, {"type": "Feature", "geometry": {"coordinates": [35.93333, 49.76667], "type": "Point"}, "properties": {"countryCode": "UA", "countryId": "690791", "fcodeName": "populated place", "adminName1": "Kharkiv", "fclName": "city, village,...", "fcl": "P", "countryName": "Ukraine", "fcode": "PPL", "geonameId": 706748, "population": 0, "adminCode1": "07", "name": "Vil\u2019khuvatka", "toponymName": "Vil\u2019khuvatka"}}]}