{"type": "FeatureCollection", "features": [{"type": "Feature", "geometry": {"coordinates": [38.79353, 52.86449], "type": "Point"}, "properties": {"countryCode": "RU", "countryId": "2017370", "fcodeName": "populated place", "adminName1": "Lipetsk", "fclName": "city, village,...", "fcl": "P", "countryName": "Russia", "fcode": "PPL", "geonameId": 542109, "population": 4021, "adminCode1": "43", "name": "Krasnoye", "toponymName": "Krasnoye"}}, {"type": "Feature", "geometry": {"coordinates": [35.16698, 53.44825], "type": "Point"}, "properties": {"countryCode": "RU", "countryId": "2017370", "fcodeName": "populated place", "adminName1": "Kaluga", "fclName": "city, village,...", "fcl": "P", "countryName": "Russia", "fcode": "PPL", "geonameId": 542104, "population": 0, "adminCode1": "25", "name": "Krasnoye", "toponymName": "Krasnoye"}}, {"type": "Feature", "geometry": {"coordinates": [37.27156, 53.79453], "type": "Point"}, "properties": {"countryCode": "RU", "countryId": "2017370", "fcodeName": "populated place", "adminName1": "Tula", "fclName": "city, village,...", "fcl": "P", "countryName": "Russia", "fcode": "PPL", "geonameId": 542096, "population": 0, "adminCode1": "76", "name": "Krasnoye", "toponymName": "Krasnoye"}}, {"type": "Feature", "geometry": {"coordinates": [38.78138, 53.72504], "type": "Point"}, "properties": {"countryCode": "RU", "countryId": "2017370", "fcodeName": "populated place", "adminName1": "Tula", "fclName": "city, village,...", "fcl": "P", "countryName": "Russia", "fcode": "PPL", "geonameId": 542098, "population": 0, "adminCode1": "76", "name": "Krasnoye", "toponymName": "Krasnoye"}}, {"type": "Feature", "geometry": {"coordinates": [37.33732, 53.59457], "type": "Point"}, "properties": {"countryCode": "RU", "countryId": "2017370", "fcodeName": "populated place", "adminName1": "Tula", "fclName": "city, village,...", "fcl": "P", "countryName": "Russia", "fcode": "PPL", "geonameId": 542100, "population": 0, "adminCode1": "76", "name": "Krasnoye", "toponymName": "Krasnoye"}}, {"type": "Feature", "geometry": {"coordinates": [37.85517, 53.36874], "type": "Point"}, "properties": {"countryCode": "RU", "countryId": "2017370", "fcodeName": "populated place", "adminName1": "Tula", "fclName": "city, village,...", "fcl": "P", "countryName": "Russia", "fcode": "PPL", "geonameId": 542105, "population": 0, "adminCode1": "76", "name": "Krasnoye", "toponymName": "Krasnoye"}}, {"type": "Feature", "geometry": {"coordinates": [37.45833, 53.0315], "type": "Point"}, "properties": {"countryCode": "RU", "countryId": "2017370", "fcodeName": "populated place", "adminName1": "Orjol", "fclName": "city, village,...", "fcl": "P", "countryName": "Russia", "fcode": "PPL", "geonameId": 542108, "population": 0, "adminCode1": "56", "name": "Krasnoye", "toponymName": "Krasnoye"}}, {"type": "Feature", "geometry": {"coordinates": [37.23845, 52.62685], "type": "Point"}, "properties": {"countryCode": "RU", "countryId": "2017370", "fcodeName": "populated place", "adminName1": "Orjol", "fclName": "city, village,...", "fcl": "P", "countryName": "Russia", "fcode": "PPL", "geonameId": 542111, "population": 0, "adminCode1": "56", "name": "Krasnoye", "toponymName": "Krasnoye"}}, {"type": "Feature", "geometry": {"coordinates": [36.69161, 53.96757], "type": "Point"}, "properties": {"countryCode": "RU", "countryId": "2017370", "fcodeName": "populated place", "adminName1": "Tula", "fclName": "city, village,...", "fcl": "P", "countryName": "Russia", "fcode": "PPL", "geonameId": 823615, "population": 0, "adminCode1": "76", "name": "Krasnoye", "toponymName": "Krasnoye"}}, {"type": "Feature", "geometry": {"coordinates": [39.1629, 52.7295], "type": "Point"}, "properties": {"countryCode": "RU", "countryId": "2017370", "fcodeName": "populated place", "adminName1": "Lipetsk", "fclName": "city, village,...", "fcl": "P", "countryName": "Russia", "fcode": "PPL", "geonameId": 7452165, "population": 0, "adminCode1": "43", "name": "Krasnoye", "toponymName": "Krasnoye"}}, {"type": "Feature", "geometry": {"coordinates": [36.84166, 52.25104], "type": "Point"}, "properties": {"countryCode": "RU", "countryId": "2017370", "fcodeName": "populated place", "adminName1": "Orjol", "fclName": "city, village,...", "fcl": "P", "countryName": "Russia", "fcode": "PPL", "geonameId": 542021, "population": 0, "adminCode1": "56", "name": "Krasnoye", "toponymName": "Krasnoye"}}, {"type": "Feature", "geometry": {"coordinates": [33.69678, 52.56279], "type": "Point"}, "properties": {"countryCode": "RU", "countryId": "2017370", "fcodeName": "populated place", "adminName1": "Brjansk", "fclName": "city, village,...", "fcl": "P", "countryName": "Russia", "fcode": "PPL", "geonameId": 542112, "population": 0, "adminCode1": "10", "name": "Krasnoye", "toponymName": "Krasnoye"}}, {"type": "Feature", "geometry": {"coordinates": [37.41781, 53.31832], "type": "Point"}, "properties": {"countryCode": "RU", "countryId": "2017370", "fcodeName": "populated place", "adminName1": "Tula", "fclName": "city, village,...", "fcl": "P", "countryName": "Russia", "fcode": "PPL", "geonameId": 542106, "population": 0, "adminCode1": "76", "name": "Krasnoye", "toponymName": "Krasnoye"}}, {"type": "Feature", "geometry": {"coordinates": [36.73333, 52.83333], "type": "Point"}, "properties": {"countryCode": "RU", "countryId": "2017370", "fcodeName": "populated place", "adminName1": "Orjol", "fclName": "city, village,...", "fcl": "P", "countryName": "Russia", "fcode": "PPL", "geonameId": 542110, "population": 0, "adminCode1": "56", "name": "Krasnoye", "toponymName": "Krasnoye"}}, {"type": "Feature", "geometry": {"coordinates": [38.31008, 52.36712], "type": "Point"}, "properties": {"countryCode": "RU", "countryId": "2017370", "fcodeName": "populated place", "adminName1": "Lipetsk", "fclName": "city, village,...", "fcl": "P", "countryName": "Russia", "fcode": "PPL", "geonameId": 510791, "population": 0, "adminCode1": "43", "name": "Krasnoye", "toponymName": "Krasnoye"}}, {"type": "Feature", "geometry": {"coordinates": [36.73378, 52.82734], "type": "Point"}, "properties": {"countryCode": "RU", "countryId": "2017370", "fcodeName": "populated place", "adminName1": "Orjol", "fclName": "city, village,...", "fcl": "P", "countryName": "Russia", "fcode": "PPL", "geonameId": 542017, "population": 0, "adminCode1": "56", "name": "Krasnoye", "toponymName": "Krasnoye"}}, {"type": "Feature", "geometry": {"coordinates": [38.82577, 53.93967], "type": "Point"}, "properties": {"countryCode": "RU", "countryId": "2017370", "fcodeName": "populated place", "adminName1": "Rjazan", "fclName": "city, village,...", "fcl": "P", "countryName": "Russia", "fcode": "PPL", "geonameId": 542095, "population": 0, "adminCode1": "62", "name": "Krasnoye", "toponymName": "Krasnoye"}}, {"type": "Feature", "geometry": {"coordinates": [36.75044, 53.66624], "type": "Point"}, "properties": {"countryCode": "RU", "countryId": "2017370", "fcodeName": "populated place", "adminName1": "Tula", "fclName": "city, village,...", "fcl": "P", "countryName": "Russia", "fcode": "PPL", "geonameId": 542099, "population": 0, "adminCode1": "76", "name": "Krasnoye", "toponymName": "Krasnoye"}}, {"type": "Feature", "geometry": {"coordinates": [34.65302, 53.55644], "type": "Point"}, "properties": {"countryCode": "RU", "countryId": "2017370", "fcodeName": "populated place", "adminName1": "Kaluga", "fclName": "city, village,...", "fcl": "P", "countryName": "Russia", "fcode": "PPL", "geonameId": 542102, "population": 0, "adminCode1": "25", "name": "Krasnoye", "toponymName": "Krasnoye"}}, {"type": "Feature", "geometry": {"coordinates": [38.7296, 53.22321], "type": "Point"}, "properties": {"countryCode": "RU", "countryId": "2017370", "fcodeName": "populated place", "adminName1": "Lipetsk", "fclName": "city, village,...", "fcl": "P", "countryName": "Russia", "fcode": "PPL", "geonameId": 820352, "population": 0, "adminCode1": "43", "name": "Krasnoye", "toponymName": "Krasnoye"}}, {"type": "Feature", "geometry": {"coordinates": [33.91499, 53.06817], "type": "Point"}, "properties": {"countryCode": "RU", "countryId": "2017370", "fcodeName": "populated place", "adminName1": "Brjansk", "fclName": "city, village,...", "fcl": "P", "countryName": "Russia", "fcode": "PPL", "geonameId": 542107, "population": 0, "adminCode1": "10", "name": "Krasnoye", "toponymName": "Krasnoye"}}, {"type": "Feature", "geometry": {"coordinates": [37.11058, 52.97919], "type": "Point"}, "properties": {"countryCode": "RU", "countryId": "2017370", "fcodeName": "populated place", "adminName1": "Orjol", "fclName": "city, village,...", "fcl": "P", "countryName": "Russia", "fcode": "PPL", "geonameId": 541986, "population": 0, "adminCode1": "56", "name": "Krasnoye Zarech\u2019ye", "toponymName": "Krasnoye Zarech\u2019ye"}}, {"type": "Feature", "geometry": {"coordinates": [36.61556, 51.96262], "type": "Point"}, "properties": {"countryCode": "RU", "countryId": "2017370", "fcodeName": "populated place", "adminName1": "Kursk", "fclName": "city, village,...", "fcl": "P", "countryName": "Russia", "fcode": "PPL", "geonameId": 521105, "population": 0, "adminCode1": "41", "name": "Nizhne-Krasnoye", "toponymName": "Nizhne-Krasnoye"}}, {"type": "Feature", "geometry": {"coordinates": [34.58472, 53.72], "type": "Point"}, "properties": {"countryCode": "RU", "countryId": "2017370", "fcodeName": "populated place", "adminName1": "Kaluga", "fclName": "city, village,...", "fcl": "P", "countryName": "Russia", "fcode": "PPL", "geonameId": 541964, "population": 0, "adminCode1": "25", "name": "Krasnoye Znamya", "toponymName": "Krasnoye Znamya"}}, {"type": "Feature", "geometry": {"coordinates": [38.30008, 52.43144], "type": "Point"}, "properties": {"countryCode": "RU", "countryId": "2017370", "fcodeName": "populated place", "adminName1": "Lipetsk", "fclName": "city, village,...", "fcl": "P", "countryName": "Russia", "fcode": "PPL", "geonameId": 541992, "population": 0, "adminCode1": "43", "name": "Krasnoye Utro", "toponymName": "Krasnoye Utro"}}, {"type": "Feature", "geometry": {"coordinates": [36.73273, 53.4725], "type": "Point"}, "properties": {"countryCode": "RU", "countryId": "2017370", "fcodeName": "populated place", "adminName1": "Tula", "fclName": "city, village,...", "fcl": "P", "countryName": "Russia", "fcode": "PPL", "geonameId": 541993, "population": 0, "adminCode1": "76", "name": "Krasnoye Turgenevo", "toponymName": "Krasnoye Turgenevo"}}, {"type": "Feature", "geometry": {"coordinates": [32.95333, 53.78056], "type": "Point"}, "properties": {"countryCode": "RU", "countryId": "2017370", "fcodeName": "populated place", "adminName1": "Smolensk", "fclName": "city, village,...", "fcl": "P", "countryName": "Russia", "fcode": "PPL", "geonameId": 541995, "population": 0, "adminCode1": "69", "name": "Krasnoye Solnyshko", "toponymName": "Krasnoye Solnyshko"}}, {"type": "Feature", "geometry": {"coordinates": [37.23333, 52.98333], "type": "Point"}, "properties": {"countryCode": "RU", "countryId": "2017370", "fcodeName": "populated place", "adminName1": "Orjol", "fclName": "city, village,...", "fcl": "P", "countryName": "Russia", "fcode": "PPL", "geonameId": 542007, "population": 0, "adminCode1": "56", "name": "Krasnoye Rossoshnoye", "toponymName": "Krasnoye Rossoshnoye"}}, {"type": "Feature", "geometry": {"coordinates": [37.17722, 53.17306], "type": "Point"}, "properties": {"countryCode": "RU", "countryId": "2017370", "fcodeName": "populated place", "adminName1": "Orjol", "fclName": "city, village,...", "fcl": "P", "countryName": "Russia", "fcode": "PPL", "geonameId": 542027, "population": 0, "adminCode1": "56", "name": "Krasnoye Korsakovo", "toponymName": "Krasnoye Korsakovo"}}, {"type": "Feature", "geometry": {"coordinates": [36.6937, 52.75072], "type": "Point"}, "properties": {"countryCode": "RU", "countryId": "2017370", "fcodeName": "populated place", "adminName1": "Orjol", "fclName": "city, village,...", "fcl": "P", "countryName": "Russia", "fcode": "PPL", "geonameId": 542562, "population": 0, "adminCode1": "56", "name": "Krasnoye Znamya", "toponymName": "Krasnoye Znamya"}}, {"type": "Feature", "geometry": {"coordinates": [35.77966, 53.25781], "type": "Point"}, "properties": {"countryCode": "RU", "countryId": "2017370", "fcodeName": "populated place", "adminName1": "Orjol", "fclName": "city, village,...", "fcl": "P", "countryName": "Russia", "fcode": "PPL", "geonameId": 816522, "population": 0, "adminCode1": "56", "name": "Krasnoye Znamya", "toponymName": "Krasnoye Znamya"}}, {"type": "Feature", "geometry": {"coordinates": [35.5325, 52.89167], "type": "Point"}, "properties": {"countryCode": "RU", "countryId": "2017370", "fcodeName": "populated place", "adminName1": "Orjol", "fclName": "city, village,...", "fcl": "P", "countryName": "Russia", "fcode": "PPL", "geonameId": 818080, "population": 0, "adminCode1": "56", "name": "Krasnoye Solntse", "toponymName": "Krasnoye Solntse"}}, {"type": "Feature", "geometry": {"coordinates": [35.2834, 52.6236], "type": "Point"}, "properties": {"countryCode": "RU", "countryId": "2017370", "fcodeName": "populated place", "adminName1": "Orjol", "fclName": "city, village,...", "fcl": "P", "countryName": "Russia", "fcode": "PPL", "geonameId": 818557, "population": 0, "adminCode1": "56", "name": "Krasnoye Znamya", "toponymName": "Krasnoye Znamya"}}, {"type": "Feature", "geometry": {"coordinates": [37.29234, 53.32668], "type": "Point"}, "properties": {"countryCode": "RU", "countryId": "2017370", "fcodeName": "populated place", "adminName1": "Tula", "fclName": "city, village,...", "fcl": "P", "countryName": "Russia", "fcode": "PPL", "geonameId": 821831, "population": 0, "adminCode1": "76", "name": "Krasnoye Ozero", "toponymName": "Krasnoye Ozero"}}, {"type": "Feature", "geometry": {"coordinates": [37.4175, 53.34278], "type": "Point"}, "properties": {"countryCode": "RU", "countryId": "2017370", "fcodeName": "populated place", "adminName1": "Tula", "fclName": "city, village,...", "fcl": "P", "countryName": "Russia", "fcode": "PPL", "geonameId": 821903, "population": 0, "adminCode1": "76", "name": "Krasnoye Utro", "toponymName": "Krasnoye Utro"}}, {"type": "Feature", "geometry": {"coordinates": [35.34417, 53.12972], "type": "Point"}, "properties": {"countryCode": "RU", "countryId": "2017370", "fcodeName": "populated place", "adminName1": "Orjol", "fclName": "city, village,...", "fcl": "P", "countryName": "Russia", "fcode": "PPL", "geonameId": 815130, "population": 0, "adminCode1": "56", "name": "Krasnoye Ozero", "toponymName": "Krasnoye Ozero"}}, {"type": "Feature", "geometry": {"coordinates": [38.60691, 53.02291], "type": "Point"}, "properties": {"countryCode": "RU", "countryId": "2017370", "fcodeName": "abandoned populated place", "adminName1": "Lipetsk", "fclName": "city, village,...", "fcl": "P", "countryName": "Russia", "fcode": "PPLQ", "geonameId": 471005, "population": 0, "adminCode1": "43", "name": "Krasnoye Vtoroye", "toponymName": "Krasnoye Vtoroye"}}, {"type": "Feature", "geometry": {"coordinates": [34.5213, 52.5658], "type": "Point"}, "properties": {"countryCode": "RU", "countryId": "2017370", "fcodeName": "populated place", "adminName1": "Brjansk", "fclName": "city, village,...", "fcl": "P", "countryName": "Russia", "fcode": "PPL", "geonameId": 7665343, "population": 0, "adminCode1": "10", "name": "Krasnoye Pole", "toponymName": "Krasnoye Pole"}}, {"type": "Feature", "geometry": {"coordinates": [33.9743, 53.1789], "type": "Point"}, "properties": {"countryCode": "RU", "countryId": "2017370", "fcodeName": "populated place", "adminName1": "Brjansk", "fclName": "city, village,...", "fcl": "P", "countryName": "Russia", "fcode": "PPL", "geonameId": 864072, "population": 0, "adminCode1": "10", "name": "Krasnoye Znamya", "toponymName": "Krasnoye Znamya"}}]}