{"type": "FeatureCollection", "features": [{"properties": {"countryId": "2017370", "toponymName": "Krasnoye", "adminCode1": "43", "geonameId": 542109, "fcl": "P", "name": "Krasnoye", "countryName": "Russia", "fclName": "city, village,...", "fcode": "PPL", "adminName1": "Lipetsk", "countryCode": "RU", "population": 4021, "fcodeName": "populated place"}, "geometry": {"coordinates": [38.79353, 52.86449], "type": "Point"}, "type": "feature"}, {"properties": {"countryId": "2017370", "toponymName": "Krasnoye", "adminCode1": "25", "geonameId": 542104, "fcl": "P", "name": "Krasnoye", "countryName": "Russia", "fclName": "city, village,...", "fcode": "PPL", "adminName1": "Kaluga", "countryCode": "RU", "population": 0, "fcodeName": "populated place"}, "geometry": {"coordinates": [35.16698, 53.44825], "type": "Point"}, "type": "feature"}, {"properties": {"countryId": "2017370", "toponymName": "Krasnoye", "adminCode1": "76", "geonameId": 542096, "fcl": "P", "name": "Krasnoye", "countryName": "Russia", "fclName": "city, village,...", "fcode": "PPL", "adminName1": "Tula", "countryCode": "RU", "population": 0, "fcodeName": "populated place"}, "geometry": {"coordinates": [37.27156, 53.79453], "type": "Point"}, "type": "feature"}, {"properties": {"countryId": "2017370", "toponymName": "Krasnoye", "adminCode1": "76", "geonameId": 542098, "fcl": "P", "name": "Krasnoye", "countryName": "Russia", "fclName": "city, village,...", "fcode": "PPL", "adminName1": "Tula", "countryCode": "RU", "population": 0, "fcodeName": "populated place"}, "geometry": {"coordinates": [38.78138, 53.72504], "type": "Point"}, "type": "feature"}, {"properties": {"countryId": "2017370", "toponymName": "Krasnoye", "adminCode1": "76", "geonameId": 542100, "fcl": "P", "name": "Krasnoye", "countryName": "Russia", "fclName": "city, village,...", "fcode": "PPL", "adminName1": "Tula", "countryCode": "RU", "population": 0, "fcodeName": "populated place"}, "geometry": {"coordinates": [37.33732, 53.59457], "type": "Point"}, "type": "feature"}, {"properties": {"countryId": "2017370", "toponymName": "Krasnoye", "adminCode1": "76", "geonameId": 542105, "fcl": "P", "name": "Krasnoye", "countryName": "Russia", "fclName": "city, village,...", "fcode": "PPL", "adminName1": "Tula", "countryCode": "RU", "population": 0, "fcodeName": "populated place"}, "geometry": {"coordinates": [37.85517, 53.36874], "type": "Point"}, "type": "feature"}, {"properties": {"countryId": "2017370", "toponymName": "Krasnoye", "adminCode1": "56", "geonameId": 542108, "fcl": "P", "name": "Krasnoye", "countryName": "Russia", "fclName": "city, village,...", "fcode": "PPL", "adminName1": "Orjol", "countryCode": "RU", "population": 0, "fcodeName": "populated place"}, "geometry": {"coordinates": [37.45833, 53.0315], "type": "Point"}, "type": "feature"}, {"properties": {"countryId": "2017370", "toponymName": "Krasnoye", "adminCode1": "56", "geonameId": 542111, "fcl": "P", "name": "Krasnoye", "countryName": "Russia", "fclName": "city, village,...", "fcode": "PPL", "adminName1": "Orjol", "countryCode": "RU", "population": 0, "fcodeName": "populated place"}, "geometry": {"coordinates": [37.23845, 52.62685], "type": "Point"}, "type": "feature"}, {"properties": {"countryId": "2017370", "toponymName": "Krasnoye", "adminCode1": "76", "geonameId": 823615, "fcl": "P", "name": "Krasnoye", "countryName": "Russia", "fclName": "city, village,...", "fcode": "PPL", "adminName1": "Tula", "countryCode": "RU", "population": 0, "fcodeName": "populated place"}, "geometry": {"coordinates": [36.69161, 53.96757], "type": "Point"}, "type": "feature"}, {"properties": {"countryId": "2017370", "toponymName": "Krasnoye", "adminCode1": "43", "geonameId": 7452165, "fcl": "P", "name": "Krasnoye", "countryName": "Russia", "fclName": "city, village,...", "fcode": "PPL", "adminName1": "Lipetsk", "countryCode": "RU", "population": 0, "fcodeName": "populated place"}, "geometry": {"coordinates": [39.1629, 52.7295], "type": "Point"}, "type": "feature"}, {"properties": {"countryId": "2017370", "toponymName": "Krasnoye", "adminCode1": "56", "geonameId": 542021, "fcl": "P", "name": "Krasnoye", "countryName": "Russia", "fclName": "city, village,...", "fcode": "PPL", "adminName1": "Orjol", "countryCode": "RU", "population": 0, "fcodeName": "populated place"}, "geometry": {"coordinates": [36.84166, 52.25104], "type": "Point"}, "type": "feature"}, {"properties": {"countryId": "2017370", "toponymName": "Krasnoye", "adminCode1": "10", "geonameId": 542112, "fcl": "P", "name": "Krasnoye", "countryName": "Russia", "fclName": "city, village,...", "fcode": "PPL", "adminName1": "Brjansk", "countryCode": "RU", "population": 0, "fcodeName": "populated place"}, "geometry": {"coordinates": [33.69678, 52.56279], "type": "Point"}, "type": "feature"}, {"properties": {"countryId": "2017370", "toponymName": "Krasnoye", "adminCode1": "76", "geonameId": 542106, "fcl": "P", "name": "Krasnoye", "countryName": "Russia", "fclName": "city, village,...", "fcode": "PPL", "adminName1": "Tula", "countryCode": "RU", "population": 0, "fcodeName": "populated place"}, "geometry": {"coordinates": [37.41781, 53.31832], "type": "Point"}, "type": "feature"}, {"properties": {"countryId": "2017370", "toponymName": "Krasnoye", "adminCode1": "56", "geonameId": 542110, "fcl": "P", "name": "Krasnoye", "countryName": "Russia", "fclName": "city, village,...", "fcode": "PPL", "adminName1": "Orjol", "countryCode": "RU", "population": 0, "fcodeName": "populated place"}, "geometry": {"coordinates": [36.73333, 52.83333], "type": "Point"}, "type": "feature"}, {"properties": {"countryId": "2017370", "toponymName": "Krasnoye", "adminCode1": "43", "geonameId": 510791, "fcl": "P", "name": "Krasnoye", "countryName": "Russia", "fclName": "city, village,...", "fcode": "PPL", "adminName1": "Lipetsk", "countryCode": "RU", "population": 0, "fcodeName": "populated place"}, "geometry": {"coordinates": [38.31008, 52.36712], "type": "Point"}, "type": "feature"}, {"properties": {"countryId": "2017370", "toponymName": "Krasnoye", "adminCode1": "56", "geonameId": 542017, "fcl": "P", "name": "Krasnoye", "countryName": "Russia", "fclName": "city, village,...", "fcode": "PPL", "adminName1": "Orjol", "countryCode": "RU", "population": 0, "fcodeName": "populated place"}, "geometry": {"coordinates": [36.73378, 52.82734], "type": "Point"}, "type": "feature"}, {"properties": {"countryId": "2017370", "toponymName": "Krasnoye", "adminCode1": "62", "geonameId": 542095, "fcl": "P", "name": "Krasnoye", "countryName": "Russia", "fclName": "city, village,...", "fcode": "PPL", "adminName1": "Rjazan", "countryCode": "RU", "population": 0, "fcodeName": "populated place"}, "geometry": {"coordinates": [38.82577, 53.93967], "type": "Point"}, "type": "feature"}, {"properties": {"countryId": "2017370", "toponymName": "Krasnoye", "adminCode1": "76", "geonameId": 542099, "fcl": "P", "name": "Krasnoye", "countryName": "Russia", "fclName": "city, village,...", "fcode": "PPL", "adminName1": "Tula", "countryCode": "RU", "population": 0, "fcodeName": "populated place"}, "geometry": {"coordinates": [36.75044, 53.66624], "type": "Point"}, "type": "feature"}, {"properties": {"countryId": "2017370", "toponymName": "Krasnoye", "adminCode1": "25", "geonameId": 542102, "fcl": "P", "name": "Krasnoye", "countryName": "Russia", "fclName": "city, village,...", "fcode": "PPL", "adminName1": "Kaluga", "countryCode": "RU", "population": 0, "fcodeName": "populated place"}, "geometry": {"coordinates": [34.65302, 53.55644], "type": "Point"}, "type": "feature"}, {"properties": {"countryId": "2017370", "toponymName": "Krasnoye", "adminCode1": "43", "geonameId": 820352, "fcl": "P", "name": "Krasnoye", "countryName": "Russia", "fclName": "city, village,...", "fcode": "PPL", "adminName1": "Lipetsk", "countryCode": "RU", "population": 0, "fcodeName": "populated place"}, "geometry": {"coordinates": [38.7296, 53.22321], "type": "Point"}, "type": "feature"}, {"properties": {"countryId": "2017370", "toponymName": "Krasnoye", "adminCode1": "10", "geonameId": 542107, "fcl": "P", "name": "Krasnoye", "countryName": "Russia", "fclName": "city, village,...", "fcode": "PPL", "adminName1": "Brjansk", "countryCode": "RU", "population": 0, "fcodeName": "populated place"}, "geometry": {"coordinates": [33.91499, 53.06817], "type": "Point"}, "type": "feature"}, {"properties": {"countryId": "2017370", "toponymName": "Krasnoye Zarech\u2019ye", "adminCode1": "56", "geonameId": 541986, "fcl": "P", "name": "Krasnoye Zarech\u2019ye", "countryName": "Russia", "fclName": "city, village,...", "fcode": "PPL", "adminName1": "Orjol", "countryCode": "RU", "population": 0, "fcodeName": "populated place"}, "geometry": {"coordinates": [37.11058, 52.97919], "type": "Point"}, "type": "feature"}, {"properties": {"countryId": "2017370", "toponymName": "Nizhne-Krasnoye", "adminCode1": "41", "geonameId": 521105, "fcl": "P", "name": "Nizhne-Krasnoye", "countryName": "Russia", "fclName": "city, village,...", "fcode": "PPL", "adminName1": "Kursk", "countryCode": "RU", "population": 0, "fcodeName": "populated place"}, "geometry": {"coordinates": [36.61556, 51.96262], "type": "Point"}, "type": "feature"}, {"properties": {"countryId": "2017370", "toponymName": "Krasnoye Znamya", "adminCode1": "25", "geonameId": 541964, "fcl": "P", "name": "Krasnoye Znamya", "countryName": "Russia", "fclName": "city, village,...", "fcode": "PPL", "adminName1": "Kaluga", "countryCode": "RU", "population": 0, "fcodeName": "populated place"}, "geometry": {"coordinates": [34.58472, 53.72], "type": "Point"}, "type": "feature"}, {"properties": {"countryId": "2017370", "toponymName": "Krasnoye Utro", "adminCode1": "43", "geonameId": 541992, "fcl": "P", "name": "Krasnoye Utro", "countryName": "Russia", "fclName": "city, village,...", "fcode": "PPL", "adminName1": "Lipetsk", "countryCode": "RU", "population": 0, "fcodeName": "populated place"}, "geometry": {"coordinates": [38.30008, 52.43144], "type": "Point"}, "type": "feature"}, {"properties": {"countryId": "2017370", "toponymName": "Krasnoye Turgenevo", "adminCode1": "76", "geonameId": 541993, "fcl": "P", "name": "Krasnoye Turgenevo", "countryName": "Russia", "fclName": "city, village,...", "fcode": "PPL", "adminName1": "Tula", "countryCode": "RU", "population": 0, "fcodeName": "populated place"}, "geometry": {"coordinates": [36.73273, 53.4725], "type": "Point"}, "type": "feature"}, {"properties": {"countryId": "2017370", "toponymName": "Krasnoye Solnyshko", "adminCode1": "69", "geonameId": 541995, "fcl": "P", "name": "Krasnoye Solnyshko", "countryName": "Russia", "fclName": "city, village,...", "fcode": "PPL", "adminName1": "Smolensk", "countryCode": "RU", "population": 0, "fcodeName": "populated place"}, "geometry": {"coordinates": [32.95333, 53.78056], "type": "Point"}, "type": "feature"}, {"properties": {"countryId": "2017370", "toponymName": "Krasnoye Rossoshnoye", "adminCode1": "56", "geonameId": 542007, "fcl": "P", "name": "Krasnoye Rossoshnoye", "countryName": "Russia", "fclName": "city, village,...", "fcode": "PPL", "adminName1": "Orjol", "countryCode": "RU", "population": 0, "fcodeName": "populated place"}, "geometry": {"coordinates": [37.23333, 52.98333], "type": "Point"}, "type": "feature"}, {"properties": {"countryId": "2017370", "toponymName": "Krasnoye Korsakovo", "adminCode1": "56", "geonameId": 542027, "fcl": "P", "name": "Krasnoye Korsakovo", "countryName": "Russia", "fclName": "city, village,...", "fcode": "PPL", "adminName1": "Orjol", "countryCode": "RU", "population": 0, "fcodeName": "populated place"}, "geometry": {"coordinates": [37.17722, 53.17306], "type": "Point"}, "type": "feature"}, {"properties": {"countryId": "2017370", "toponymName": "Krasnoye Znamya", "adminCode1": "56", "geonameId": 542562, "fcl": "P", "name": "Krasnoye Znamya", "countryName": "Russia", "fclName": "city, village,...", "fcode": "PPL", "adminName1": "Orjol", "countryCode": "RU", "population": 0, "fcodeName": "populated place"}, "geometry": {"coordinates": [36.6937, 52.75072], "type": "Point"}, "type": "feature"}, {"properties": {"countryId": "2017370", "toponymName": "Krasnoye Znamya", "adminCode1": "56", "geonameId": 816522, "fcl": "P", "name": "Krasnoye Znamya", "countryName": "Russia", "fclName": "city, village,...", "fcode": "PPL", "adminName1": "Orjol", "countryCode": "RU", "population": 0, "fcodeName": "populated place"}, "geometry": {"coordinates": [35.77966, 53.25781], "type": "Point"}, "type": "feature"}, {"properties": {"countryId": "2017370", "toponymName": "Krasnoye Solntse", "adminCode1": "56", "geonameId": 818080, "fcl": "P", "name": "Krasnoye Solntse", "countryName": "Russia", "fclName": "city, village,...", "fcode": "PPL", "adminName1": "Orjol", "countryCode": "RU", "population": 0, "fcodeName": "populated place"}, "geometry": {"coordinates": [35.5325, 52.89167], "type": "Point"}, "type": "feature"}, {"properties": {"countryId": "2017370", "toponymName": "Krasnoye Znamya", "adminCode1": "56", "geonameId": 818557, "fcl": "P", "name": "Krasnoye Znamya", "countryName": "Russia", "fclName": "city, village,...", "fcode": "PPL", "adminName1": "Orjol", "countryCode": "RU", "population": 0, "fcodeName": "populated place"}, "geometry": {"coordinates": [35.2834, 52.6236], "type": "Point"}, "type": "feature"}, {"properties": {"countryId": "2017370", "toponymName": "Krasnoye Ozero", "adminCode1": "76", "geonameId": 821831, "fcl": "P", "name": "Krasnoye Ozero", "countryName": "Russia", "fclName": "city, village,...", "fcode": "PPL", "adminName1": "Tula", "countryCode": "RU", "population": 0, "fcodeName": "populated place"}, "geometry": {"coordinates": [37.29234, 53.32668], "type": "Point"}, "type": "feature"}, {"properties": {"countryId": "2017370", "toponymName": "Krasnoye Utro", "adminCode1": "76", "geonameId": 821903, "fcl": "P", "name": "Krasnoye Utro", "countryName": "Russia", "fclName": "city, village,...", "fcode": "PPL", "adminName1": "Tula", "countryCode": "RU", "population": 0, "fcodeName": "populated place"}, "geometry": {"coordinates": [37.4175, 53.34278], "type": "Point"}, "type": "feature"}, {"properties": {"countryId": "2017370", "toponymName": "Krasnoye Ozero", "adminCode1": "56", "geonameId": 815130, "fcl": "P", "name": "Krasnoye Ozero", "countryName": "Russia", "fclName": "city, village,...", "fcode": "PPL", "adminName1": "Orjol", "countryCode": "RU", "population": 0, "fcodeName": "populated place"}, "geometry": {"coordinates": [35.34417, 53.12972], "type": "Point"}, "type": "feature"}, {"properties": {"countryId": "2017370", "toponymName": "Krasnoye Vtoroye", "adminCode1": "43", "geonameId": 471005, "fcl": "P", "name": "Krasnoye Vtoroye", "countryName": "Russia", "fclName": "city, village,...", "fcode": "PPLQ", "adminName1": "Lipetsk", "countryCode": "RU", "population": 0, "fcodeName": "abandoned populated place"}, "geometry": {"coordinates": [38.60691, 53.02291], "type": "Point"}, "type": "feature"}, {"properties": {"countryId": "2017370", "toponymName": "Krasnoye Pole", "adminCode1": "10", "geonameId": 7665343, "fcl": "P", "name": "Krasnoye Pole", "countryName": "Russia", "fclName": "city, village,...", "fcode": "PPL", "adminName1": "Brjansk", "countryCode": "RU", "population": 0, "fcodeName": "populated place"}, "geometry": {"coordinates": [34.5213, 52.5658], "type": "Point"}, "type": "feature"}, {"properties": {"countryId": "2017370", "toponymName": "Krasnoye Znamya", "adminCode1": "10", "geonameId": 864072, "fcl": "P", "name": "Krasnoye Znamya", "countryName": "Russia", "fclName": "city, village,...", "fcode": "PPL", "adminName1": "Brjansk", "countryCode": "RU", "population": 0, "fcodeName": "populated place"}, "geometry": {"coordinates": [33.9743, 53.1789], "type": "Point"}, "type": "feature"}]}