{"type": "FeatureCollection", "features": [{"properties": {"countryId": "690791", "toponymName": "Lyman", "adminCode1": "07", "geonameId": 703071, "fcl": "P", "name": "Lyman", "countryName": "Ukraine", "fclName": "city, village,...", "fcode": "PPL", "adminName1": "Kharkiv", "countryCode": "UA", "population": 4008, "fcodeName": "populated place"}, "geometry": {"coordinates": [36.4703, 49.59769], "type": "Point"}, "type": "feature"}, {"properties": {"countryId": "690791", "toponymName": "Krasnyy Lyman", "adminCode1": "05", "geonameId": 704204, "fcl": "P", "name": "Krasniy Liman", "countryName": "Ukraine", "fclName": "city, village,...", "fcode": "PPLA2", "adminName1": "Donetsk", "countryCode": "UA", "population": 28200, "fcodeName": "seat of a second-order administrative division"}, "geometry": {"coordinates": [37.80225, 48.98836], "type": "Point"}, "type": "feature"}, {"properties": {"countryId": "690791", "toponymName": "Lyman Druhyy", "adminCode1": "07", "geonameId": 703057, "fcl": "P", "name": "Lyman Druhyy", "countryName": "Ukraine", "fclName": "city, village,...", "fcode": "PPL", "adminName1": "Kharkiv", "countryCode": "UA", "population": 0, "fcodeName": "populated place"}, "geometry": {"coordinates": [37.87361, 49.95444], "type": "Point"}, "type": "feature"}, {"properties": {"countryId": "690791", "toponymName": "Lyman Druhyy", "adminCode1": "18", "geonameId": 703058, "fcl": "P", "name": "Lyman Druhyy", "countryName": "Ukraine", "fclName": "city, village,...", "fcode": "PPL", "adminName1": "Poltava", "countryCode": "UA", "population": 0, "fcodeName": "populated place"}, "geometry": {"coordinates": [33.98303, 49.68809], "type": "Point"}, "type": "feature"}, {"properties": {"countryId": "690791", "toponymName": "Lyman Pershyy", "adminCode1": "07", "geonameId": 703063, "fcl": "P", "name": "Lyman Pershyy", "countryName": "Ukraine", "fclName": "city, village,...", "fcode": "PPL", "adminName1": "Kharkiv", "countryCode": "UA", "population": 0, "fcodeName": "populated place"}, "geometry": {"coordinates": [37.70472, 49.79056], "type": "Point"}, "type": "feature"}, {"properties": {"countryId": "690791", "toponymName": "Chervonyy Lyman", "adminCode1": "07", "geonameId": 704203, "fcl": "P", "name": "Chervonyy Lyman", "countryName": "Ukraine", "fclName": "city, village,...", "fcode": "PPL", "adminName1": "Kharkiv", "countryCode": "UA", "population": 0, "fcodeName": "populated place"}, "geometry": {"coordinates": [36.80778, 49.11222], "type": "Point"}, "type": "feature"}, {"properties": {"countryId": "690791", "toponymName": "Novyy Lyman", "adminCode1": "07", "geonameId": 811168, "fcl": "P", "name": "Novyy Lyman", "countryName": "Ukraine", "fclName": "city, village,...", "fcode": "PPL", "adminName1": "Kharkiv", "countryCode": "UA", "population": 0, "fcodeName": "populated place"}, "geometry": {"coordinates": [37.01013, 49.68883], "type": "Point"}, "type": "feature"}, {"properties": {"countryId": "690791", "toponymName": "Liman Pervyy", "adminCode1": "18", "geonameId": 703064, "fcl": "P", "name": "Liman Pervyy", "countryName": "Ukraine", "fclName": "city, village,...", "fcode": "PPL", "adminName1": "Poltava", "countryCode": "UA", "population": 0, "fcodeName": "populated place"}, "geometry": {"coordinates": [34.12335, 49.46012], "type": "Point"}, "type": "feature"}, {"properties": {"countryId": "690791", "toponymName": "Lyman", "adminCode1": "07", "geonameId": 808842, "fcl": "P", "name": "Lyman", "countryName": "Ukraine", "fclName": "city, village,...", "fcode": "PPL", "adminName1": "Kharkiv", "countryCode": "UA", "population": 0, "fcodeName": "populated place"}, "geometry": {"coordinates": [36.60026, 49.00386], "type": "Point"}, "type": "feature"}, {"properties": {"countryId": "690791", "toponymName": "Zhovtneve", "adminCode1": "07", "geonameId": 687068, "fcl": "P", "name": "Zhovtneve", "countryName": "Ukraine", "fclName": "city, village,...", "fcode": "PPL", "adminName1": "Kharkiv", "countryCode": "UA", "population": 0, "fcodeName": "populated place"}, "geometry": {"coordinates": [36.90385, 50.24281], "type": "Point"}, "type": "feature"}, {"properties": {"countryId": "690791", "toponymName": "Krasna Hipka", "adminCode1": "07", "geonameId": 808495, "fcl": "P", "name": "Krasna Hipka", "countryName": "Ukraine", "fclName": "city, village,...", "fcode": "PPL", "adminName1": "Kharkiv", "countryCode": "UA", "population": 0, "fcodeName": "populated place"}, "geometry": {"coordinates": [36.05861, 49.02222], "type": "Point"}, "type": "feature"}]}