{"type": "FeatureCollection", "features": [{"type": "Feature", "geometry": {"coordinates": [36.4703, 49.59769], "type": "Point"}, "properties": {"countryCode": "UA", "countryId": "690791", "fcodeName": "populated place", "adminName1": "Kharkiv", "fclName": "city, village,...", "fcl": "P", "countryName": "Ukraine", "fcode": "PPL", "geonameId": 703071, "population": 4008, "adminCode1": "07", "name": "Lyman", "toponymName": "Lyman"}}, {"type": "Feature", "geometry": {"coordinates": [37.80225, 48.98836], "type": "Point"}, "properties": {"countryCode": "UA", "countryId": "690791", "fcodeName": "seat of a second-order administrative division", "adminName1": "Donetsk", "fclName": "city, village,...", "fcl": "P", "countryName": "Ukraine", "fcode": "PPLA2", "geonameId": 704204, "population": 28200, "adminCode1": "05", "name": "Krasniy Liman", "toponymName": "Krasnyy Lyman"}}, {"type": "Feature", "geometry": {"coordinates": [37.87361, 49.95444], "type": "Point"}, "properties": {"countryCode": "UA", "countryId": "690791", "fcodeName": "populated place", "adminName1": "Kharkiv", "fclName": "city, village,...", "fcl": "P", "countryName": "Ukraine", "fcode": "PPL", "geonameId": 703057, "population": 0, "adminCode1": "07", "name": "Lyman Druhyy", "toponymName": "Lyman Druhyy"}}, {"type": "Feature", "geometry": {"coordinates": [33.98303, 49.68809], "type": "Point"}, "properties": {"countryCode": "UA", "countryId": "690791", "fcodeName": "populated place", "adminName1": "Poltava", "fclName": "city, village,...", "fcl": "P", "countryName": "Ukraine", "fcode": "PPL", "geonameId": 703058, "population": 0, "adminCode1": "18", "name": "Lyman Druhyy", "toponymName": "Lyman Druhyy"}}, {"type": "Feature", "geometry": {"coordinates": [37.70472, 49.79056], "type": "Point"}, "properties": {"countryCode": "UA", "countryId": "690791", "fcodeName": "populated place", "adminName1": "Kharkiv", "fclName": "city, village,...", "fcl": "P", "countryName": "Ukraine", "fcode": "PPL", "geonameId": 703063, "population": 0, "adminCode1": "07", "name": "Lyman Pershyy", "toponymName": "Lyman Pershyy"}}, {"type": "Feature", "geometry": {"coordinates": [36.80778, 49.11222], "type": "Point"}, "properties": {"countryCode": "UA", "countryId": "690791", "fcodeName": "populated place", "adminName1": "Kharkiv", "fclName": "city, village,...", "fcl": "P", "countryName": "Ukraine", "fcode": "PPL", "geonameId": 704203, "population": 0, "adminCode1": "07", "name": "Chervonyy Lyman", "toponymName": "Chervonyy Lyman"}}, {"type": "Feature", "geometry": {"coordinates": [37.01013, 49.68883], "type": "Point"}, "properties": {"countryCode": "UA", "countryId": "690791", "fcodeName": "populated place", "adminName1": "Kharkiv", "fclName": "city, village,...", "fcl": "P", "countryName": "Ukraine", "fcode": "PPL", "geonameId": 811168, "population": 0, "adminCode1": "07", "name": "Novyy Lyman", "toponymName": "Novyy Lyman"}}, {"type": "Feature", "geometry": {"coordinates": [34.12335, 49.46012], "type": "Point"}, "properties": {"countryCode": "UA", "countryId": "690791", "fcodeName": "populated place", "adminName1": "Poltava", "fclName": "city, village,...", "fcl": "P", "countryName": "Ukraine", "fcode": "PPL", "geonameId": 703064, "population": 0, "adminCode1": "18", "name": "Liman Pervyy", "toponymName": "Liman Pervyy"}}, {"type": "Feature", "geometry": {"coordinates": [36.60026, 49.00386], "type": "Point"}, "properties": {"countryCode": "UA", "countryId": "690791", "fcodeName": "populated place", "adminName1": "Kharkiv", "fclName": "city, village,...", "fcl": "P", "countryName": "Ukraine", "fcode": "PPL", "geonameId": 808842, "population": 0, "adminCode1": "07", "name": "Lyman", "toponymName": "Lyman"}}, {"type": "Feature", "geometry": {"coordinates": [36.90385, 50.24281], "type": "Point"}, "properties": {"countryCode": "UA", "countryId": "690791", "fcodeName": "populated place", "adminName1": "Kharkiv", "fclName": "city, village,...", "fcl": "P", "countryName": "Ukraine", "fcode": "PPL", "geonameId": 687068, "population": 0, "adminCode1": "07", "name": "Zhovtneve", "toponymName": "Zhovtneve"}}, {"type": "Feature", "geometry": {"coordinates": [36.05861, 49.02222], "type": "Point"}, "properties": {"countryCode": "UA", "countryId": "690791", "fcodeName": "populated place", "adminName1": "Kharkiv", "fclName": "city, village,...", "fcl": "P", "countryName": "Ukraine", "fcode": "PPL", "geonameId": 808495, "population": 0, "adminCode1": "07", "name": "Krasna Hipka", "toponymName": "Krasna Hipka"}}]}