{"type": "FeatureCollection", "features": [{"properties": {"countryId": "2017370", "toponymName": "Petrovskoye", "adminCode1": "69", "geonameId": 509871, "fcl": "P", "name": "Petrovskoye", "countryName": "Russia", "fclName": "city, village,...", "fcode": "PPL", "adminName1": "Smolensk", "countryCode": "RU", "population": 0, "fcodeName": "populated place"}, "geometry": {"coordinates": [33.37119, 54.00881], "type": "Point"}, "type": "feature"}, {"properties": {"countryId": "2017370", "toponymName": "Petrovskoye", "adminCode1": "76", "geonameId": 509872, "fcl": "P", "name": "Petrovskoye", "countryName": "Russia", "fclName": "city, village,...", "fcode": "PPL", "adminName1": "Tula", "countryCode": "RU", "population": 0, "fcodeName": "populated place"}, "geometry": {"coordinates": [36.5383, 53.93736], "type": "Point"}, "type": "feature"}, {"properties": {"countryId": "2017370", "toponymName": "Petrovskoye", "adminCode1": "56", "geonameId": 509876, "fcl": "P", "name": "Petrovskoye", "countryName": "Russia", "fclName": "city, village,...", "fcode": "PPL", "adminName1": "Orjol", "countryCode": "RU", "population": 0, "fcodeName": "populated place"}, "geometry": {"coordinates": [36.76828, 53.17043], "type": "Point"}, "type": "feature"}, {"properties": {"countryId": "2017370", "toponymName": "Petrovskoye", "adminCode1": "76", "geonameId": 509875, "fcl": "P", "name": "Petrovskoye", "countryName": "Russia", "fclName": "city, village,...", "fcode": "PPL", "adminName1": "Tula", "countryCode": "RU", "population": 0, "fcodeName": "populated place"}, "geometry": {"coordinates": [36.75965, 53.46816], "type": "Point"}, "type": "feature"}, {"properties": {"countryId": "2017370", "toponymName": "Petrovskoye", "adminCode1": "76", "geonameId": 509877, "fcl": "P", "name": "Petrovskoye", "countryName": "Russia", "fclName": "city, village,...", "fcode": "PPL", "adminName1": "Tula", "countryCode": "RU", "population": 0, "fcodeName": "populated place"}, "geometry": {"coordinates": [38.36362, 53.06532], "type": "Point"}, "type": "feature"}, {"properties": {"countryId": "2017370", "toponymName": "Petrovskoye", "adminCode1": "10", "geonameId": 509879, "fcl": "P", "name": "Petrovskoye", "countryName": "Russia", "fclName": "city, village,...", "fcode": "PPL", "adminName1": "Brjansk", "countryCode": "RU", "population": 0, "fcodeName": "populated place"}, "geometry": {"coordinates": [33.10056, 52.77972], "type": "Point"}, "type": "feature"}, {"properties": {"countryId": "2017370", "toponymName": "Petrovskoye", "adminCode1": "43", "geonameId": 509882, "fcl": "P", "name": "Petrovskoye", "countryName": "Russia", "fclName": "city, village,...", "fcode": "PPL", "adminName1": "Lipetsk", "countryCode": "RU", "population": 0, "fcodeName": "populated place"}, "geometry": {"coordinates": [38.06115, 52.62445], "type": "Point"}, "type": "feature"}, {"properties": {"countryId": "2017370", "toponymName": "Petrovskoye", "adminCode1": "43", "geonameId": 509886, "fcl": "P", "name": "Petrovskoye", "countryName": "Russia", "fclName": "city, village,...", "fcode": "PPL", "adminName1": "Lipetsk", "countryCode": "RU", "population": 0, "fcodeName": "populated place"}, "geometry": {"coordinates": [38.32293, 52.15569], "type": "Point"}, "type": "feature"}, {"properties": {"countryId": "2017370", "toponymName": "Petrovskoye", "adminCode1": "43", "geonameId": 509888, "fcl": "P", "name": "Petrovskoye", "countryName": "Russia", "fclName": "city, village,...", "fcode": "PPL", "adminName1": "Lipetsk", "countryCode": "RU", "population": 0, "fcodeName": "populated place"}, "geometry": {"coordinates": [38.16667, 52.06667], "type": "Point"}, "type": "feature"}, {"properties": {"countryId": "2017370", "toponymName": "Petrovskoye", "adminCode1": "76", "geonameId": 822023, "fcl": "P", "name": "Petrovskoye", "countryName": "Russia", "fclName": "city, village,...", "fcode": "PPL", "adminName1": "Tula", "countryCode": "RU", "population": 0, "fcodeName": "populated place"}, "geometry": {"coordinates": [38.67872, 53.97289], "type": "Point"}, "type": "feature"}, {"properties": {"countryId": "2017370", "toponymName": "Petrovskoye", "adminCode1": "56", "geonameId": 815508, "fcl": "P", "name": "Petrovskoye", "countryName": "Russia", "fclName": "city, village,...", "fcode": "PPL", "adminName1": "Orjol", "countryCode": "RU", "population": 0, "fcodeName": "populated place"}, "geometry": {"coordinates": [35.87394, 53.19023], "type": "Point"}, "type": "feature"}, {"properties": {"countryId": "2017370", "toponymName": "Petrovskoye", "adminCode1": "86", "geonameId": 7452264, "fcl": "P", "name": "Petrovskoye", "countryName": "Russia", "fclName": "city, village,...", "fcode": "PPL", "adminName1": "Voronezj", "countryCode": "RU", "population": 0, "fcodeName": "populated place"}, "geometry": {"coordinates": [39.1932, 52.0088], "type": "Point"}, "type": "feature"}, {"properties": {"countryId": "2017370", "toponymName": "Petrovskoye", "adminCode1": "76", "geonameId": 509873, "fcl": "P", "name": "Petrovskoye", "countryName": "Russia", "fclName": "city, village,...", "fcode": "PPL", "adminName1": "Tula", "countryCode": "RU", "population": 0, "fcodeName": "populated place"}, "geometry": {"coordinates": [37.67074, 53.65714], "type": "Point"}, "type": "feature"}, {"properties": {"countryId": "2017370", "toponymName": "Petrovskoye", "adminCode1": "56", "geonameId": 509982, "fcl": "P", "name": "Petrovskoye", "countryName": "Russia", "fclName": "city, village,...", "fcode": "PPL", "adminName1": "Orjol", "countryCode": "RU", "population": 0, "fcodeName": "populated place"}, "geometry": {"coordinates": [36.67222, 52.76364], "type": "Point"}, "type": "feature"}, {"properties": {"countryId": "2017370", "toponymName": "Makaro-Petrovskoye", "adminCode1": "41", "geonameId": 532241, "fcl": "P", "name": "Makaro-Petrovskoye", "countryName": "Russia", "fclName": "city, village,...", "fcode": "PPL", "adminName1": "Kursk", "countryCode": "RU", "population": 0, "fcodeName": "populated place"}, "geometry": {"coordinates": [35.0715, 51.9563], "type": "Point"}, "type": "feature"}, {"properties": {"countryId": "2017370", "toponymName": "Shagaro-Petrovskoye", "adminCode1": "41", "geonameId": 816267, "fcl": "P", "name": "Shagaro-Petrovskoye", "countryName": "Russia", "fclName": "city, village,...", "fcode": "PPL", "adminName1": "Kursk", "countryCode": "RU", "population": 0, "fcodeName": "populated place"}, "geometry": {"coordinates": [34.9829, 52.0646], "type": "Point"}, "type": "feature"}]}