{"type": "FeatureCollection", "features": [{"type": "Feature", "geometry": {"coordinates": [33.37119, 54.00881], "type": "Point"}, "properties": {"countryCode": "RU", "countryId": "2017370", "fcodeName": "populated place", "adminName1": "Smolensk", "fclName": "city, village,...", "fcl": "P", "countryName": "Russia", "fcode": "PPL", "geonameId": 509871, "population": 0, "adminCode1": "69", "name": "Petrovskoye", "toponymName": "Petrovskoye"}}, {"type": "Feature", "geometry": {"coordinates": [36.5383, 53.93736], "type": "Point"}, "properties": {"countryCode": "RU", "countryId": "2017370", "fcodeName": "populated place", "adminName1": "Tula", "fclName": "city, village,...", "fcl": "P", "countryName": "Russia", "fcode": "PPL", "geonameId": 509872, "population": 0, "adminCode1": "76", "name": "Petrovskoye", "toponymName": "Petrovskoye"}}, {"type": "Feature", "geometry": {"coordinates": [36.76828, 53.17043], "type": "Point"}, "properties": {"countryCode": "RU", "countryId": "2017370", "fcodeName": "populated place", "adminName1": "Orjol", "fclName": "city, village,...", "fcl": "P", "countryName": "Russia", "fcode": "PPL", "geonameId": 509876, "population": 0, "adminCode1": "56", "name": "Petrovskoye", "toponymName": "Petrovskoye"}}, {"type": "Feature", "geometry": {"coordinates": [36.75965, 53.46816], "type": "Point"}, "properties": {"countryCode": "RU", "countryId": "2017370", "fcodeName": "populated place", "adminName1": "Tula", "fclName": "city, village,...", "fcl": "P", "countryName": "Russia", "fcode": "PPL", "geonameId": 509875, "population": 0, "adminCode1": "76", "name": "Petrovskoye", "toponymName": "Petrovskoye"}}, {"type": "Feature", "geometry": {"coordinates": [38.36362, 53.06532], "type": "Point"}, "properties": {"countryCode": "RU", "countryId": "2017370", "fcodeName": "populated place", "adminName1": "Tula", "fclName": "city, village,...", "fcl": "P", "countryName": "Russia", "fcode": "PPL", "geonameId": 509877, "population": 0, "adminCode1": "76", "name": "Petrovskoye", "toponymName": "Petrovskoye"}}, {"type": "Feature", "geometry": {"coordinates": [33.10056, 52.77972], "type": "Point"}, "properties": {"countryCode": "RU", "countryId": "2017370", "fcodeName": "populated place", "adminName1": "Brjansk", "fclName": "city, village,...", "fcl": "P", "countryName": "Russia", "fcode": "PPL", "geonameId": 509879, "population": 0, "adminCode1": "10", "name": "Petrovskoye", "toponymName": "Petrovskoye"}}, {"type": "Feature", "geometry": {"coordinates": [38.06115, 52.62445], "type": "Point"}, "properties": {"countryCode": "RU", "countryId": "2017370", "fcodeName": "populated place", "adminName1": "Lipetsk", "fclName": "city, village,...", "fcl": "P", "countryName": "Russia", "fcode": "PPL", "geonameId": 509882, "population": 0, "adminCode1": "43", "name": "Petrovskoye", "toponymName": "Petrovskoye"}}, {"type": "Feature", "geometry": {"coordinates": [38.32293, 52.15569], "type": "Point"}, "properties": {"countryCode": "RU", "countryId": "2017370", "fcodeName": "populated place", "adminName1": "Lipetsk", "fclName": "city, village,...", "fcl": "P", "countryName": "Russia", "fcode": "PPL", "geonameId": 509886, "population": 0, "adminCode1": "43", "name": "Petrovskoye", "toponymName": "Petrovskoye"}}, {"type": "Feature", "geometry": {"coordinates": [38.16667, 52.06667], "type": "Point"}, "properties": {"countryCode": "RU", "countryId": "2017370", "fcodeName": "populated place", "adminName1": "Lipetsk", "fclName": "city, village,...", "fcl": "P", "countryName": "Russia", "fcode": "PPL", "geonameId": 509888, "population": 0, "adminCode1": "43", "name": "Petrovskoye", "toponymName": "Petrovskoye"}}, {"type": "Feature", "geometry": {"coordinates": [38.67872, 53.97289], "type": "Point"}, "properties": {"countryCode": "RU", "countryId": "2017370", "fcodeName": "populated place", "adminName1": "Tula", "fclName": "city, village,...", "fcl": "P", "countryName": "Russia", "fcode": "PPL", "geonameId": 822023, "population": 0, "adminCode1": "76", "name": "Petrovskoye", "toponymName": "Petrovskoye"}}, {"type": "Feature", "geometry": {"coordinates": [35.87394, 53.19023], "type": "Point"}, "properties": {"countryCode": "RU", "countryId": "2017370", "fcodeName": "populated place", "adminName1": "Orjol", "fclName": "city, village,...", "fcl": "P", "countryName": "Russia", "fcode": "PPL", "geonameId": 815508, "population": 0, "adminCode1": "56", "name": "Petrovskoye", "toponymName": "Petrovskoye"}}, {"type": "Feature", "geometry": {"coordinates": [39.1932, 52.0088], "type": "Point"}, "properties": {"countryCode": "RU", "countryId": "2017370", "fcodeName": "populated place", "adminName1": "Voronezj", "fclName": "city, village,...", "fcl": "P", "countryName": "Russia", "fcode": "PPL", "geonameId": 7452264, "population": 0, "adminCode1": "86", "name": "Petrovskoye", "toponymName": "Petrovskoye"}}, {"type": "Feature", "geometry": {"coordinates": [37.67074, 53.65714], "type": "Point"}, "properties": {"countryCode": "RU", "countryId": "2017370", "fcodeName": "populated place", "adminName1": "Tula", "fclName": "city, village,...", "fcl": "P", "countryName": "Russia", "fcode": "PPL", "geonameId": 509873, "population": 0, "adminCode1": "76", "name": "Petrovskoye", "toponymName": "Petrovskoye"}}, {"type": "Feature", "geometry": {"coordinates": [36.67222, 52.76364], "type": "Point"}, "properties": {"countryCode": "RU", "countryId": "2017370", "fcodeName": "populated place", "adminName1": "Orjol", "fclName": "city, village,...", "fcl": "P", "countryName": "Russia", "fcode": "PPL", "geonameId": 509982, "population": 0, "adminCode1": "56", "name": "Petrovskoye", "toponymName": "Petrovskoye"}}, {"type": "Feature", "geometry": {"coordinates": [35.0715, 51.9563], "type": "Point"}, "properties": {"countryCode": "RU", "countryId": "2017370", "fcodeName": "populated place", "adminName1": "Kursk", "fclName": "city, village,...", "fcl": "P", "countryName": "Russia", "fcode": "PPL", "geonameId": 532241, "population": 0, "adminCode1": "41", "name": "Makaro-Petrovskoye", "toponymName": "Makaro-Petrovskoye"}}, {"type": "Feature", "geometry": {"coordinates": [34.9829, 52.0646], "type": "Point"}, "properties": {"countryCode": "RU", "countryId": "2017370", "fcodeName": "populated place", "adminName1": "Kursk", "fclName": "city, village,...", "fcl": "P", "countryName": "Russia", "fcode": "PPL", "geonameId": 816267, "population": 0, "adminCode1": "41", "name": "Shagaro-Petrovskoye", "toponymName": "Shagaro-Petrovskoye"}}]}