{"type": "FeatureCollection", "features": [{"type": "Feature", "geometry": {"coordinates": [37.63101, 53.0502], "type": "Point"}, "properties": {"countryCode": "RU", "countryId": "2017370", "fcodeName": "populated place", "adminName1": "Orjol", "fclName": "city, village,...", "fcl": "P", "countryName": "Russia", "fcode": "PPL", "geonameId": 508859, "population": 0, "adminCode1": "56", "name": "Ploskoye", "toponymName": "Ploskoye"}}, {"type": "Feature", "geometry": {"coordinates": [38.6202, 53.0488], "type": "Point"}, "properties": {"countryCode": "RU", "countryId": "2017370", "fcodeName": "populated place", "adminName1": "Tula", "fclName": "city, village,...", "fcl": "P", "countryName": "Russia", "fcode": "PPL", "geonameId": 7457275, "population": 0, "adminCode1": "76", "name": "Ploskoye", "toponymName": "Ploskoye"}}, {"type": "Feature", "geometry": {"coordinates": [37.13856, 54.35432], "type": "Point"}, "properties": {"countryCode": "RU", "countryId": "2017370", "fcodeName": "populated place", "adminName1": "Tula", "fclName": "city, village,...", "fcl": "P", "countryName": "Russia", "fcode": "PPL", "geonameId": 508832, "population": 0, "adminCode1": "76", "name": "Ploskoye", "toponymName": "Ploskoye"}}, {"type": "Feature", "geometry": {"coordinates": [38.71374, 53.17339], "type": "Point"}, "properties": {"countryCode": "RU", "countryId": "2017370", "fcodeName": "populated place", "adminName1": "Lipetsk", "fclName": "city, village,...", "fcl": "P", "countryName": "Russia", "fcode": "PPL", "geonameId": 820348, "population": 0, "adminCode1": "43", "name": "Ploskoye", "toponymName": "Ploskoye"}}, {"type": "Feature", "geometry": {"coordinates": [35.85126, 53.51387], "type": "Point"}, "properties": {"countryCode": "RU", "countryId": "2017370", "fcodeName": "populated place", "adminName1": "Orjol", "fclName": "city, village,...", "fcl": "P", "countryName": "Russia", "fcode": "PPL", "geonameId": 508858, "population": 0, "adminCode1": "56", "name": "Ploskaya", "toponymName": "Ploskaya"}}, {"type": "Feature", "geometry": {"coordinates": [39.4309, 54.1324], "type": "Point"}, "properties": {"countryCode": "RU", "countryId": "2017370", "fcodeName": "populated place", "adminName1": "Rjazan", "fclName": "city, village,...", "fcl": "P", "countryName": "Russia", "fcode": "PPL", "geonameId": 7690419, "population": 0, "adminCode1": "62", "name": "Ploskoye", "toponymName": "Ploskoye"}}, {"type": "Feature", "geometry": {"coordinates": [38.7156, 54.2268], "type": "Point"}, "properties": {"countryCode": "RU", "countryId": "2017370", "fcodeName": "populated place", "adminName1": "Tula", "fclName": "city, village,...", "fcl": "P", "countryName": "Russia", "fcode": "PPL", "geonameId": 7690528, "population": 0, "adminCode1": "76", "name": "Ploskoye", "toponymName": "Ploskoye"}}]}