{"type": "FeatureCollection", "features": [{"properties": {"countryId": "2017370", "toponymName": "Ploskoye", "adminCode1": "56", "geonameId": 508859, "fcl": "P", "name": "Ploskoye", "countryName": "Russia", "fclName": "city, village,...", "fcode": "PPL", "adminName1": "Orjol", "countryCode": "RU", "population": 0, "fcodeName": "populated place"}, "geometry": {"coordinates": [37.63101, 53.0502], "type": "Point"}, "type": "feature"}, {"properties": {"countryId": "2017370", "toponymName": "Ploskoye", "adminCode1": "76", "geonameId": 7457275, "fcl": "P", "name": "Ploskoye", "countryName": "Russia", "fclName": "city, village,...", "fcode": "PPL", "adminName1": "Tula", "countryCode": "RU", "population": 0, "fcodeName": "populated place"}, "geometry": {"coordinates": [38.6202, 53.0488], "type": "Point"}, "type": "feature"}, {"properties": {"countryId": "2017370", "toponymName": "Ploskoye", "adminCode1": "76", "geonameId": 508832, "fcl": "P", "name": "Ploskoye", "countryName": "Russia", "fclName": "city, village,...", "fcode": "PPL", "adminName1": "Tula", "countryCode": "RU", "population": 0, "fcodeName": "populated place"}, "geometry": {"coordinates": [37.13856, 54.35432], "type": "Point"}, "type": "feature"}, {"properties": {"countryId": "2017370", "toponymName": "Ploskoye", "adminCode1": "43", "geonameId": 820348, "fcl": "P", "name": "Ploskoye", "countryName": "Russia", "fclName": "city, village,...", "fcode": "PPL", "adminName1": "Lipetsk", "countryCode": "RU", "population": 0, "fcodeName": "populated place"}, "geometry": {"coordinates": [38.71374, 53.17339], "type": "Point"}, "type": "feature"}, {"properties": {"countryId": "2017370", "toponymName": "Ploskaya", "adminCode1": "56", "geonameId": 508858, "fcl": "P", "name": "Ploskaya", "countryName": "Russia", "fclName": "city, village,...", "fcode": "PPL", "adminName1": "Orjol", "countryCode": "RU", "population": 0, "fcodeName": "populated place"}, "geometry": {"coordinates": [35.85126, 53.51387], "type": "Point"}, "type": "feature"}, {"properties": {"countryId": "2017370", "toponymName": "Ploskoye", "adminCode1": "62", "geonameId": 7690419, "fcl": "P", "name": "Ploskoye", "countryName": "Russia", "fclName": "city, village,...", "fcode": "PPL", "adminName1": "Rjazan", "countryCode": "RU", "population": 0, "fcodeName": "populated place"}, "geometry": {"coordinates": [39.4309, 54.1324], "type": "Point"}, "type": "feature"}, {"properties": {"countryId": "2017370", "toponymName": "Ploskoye", "adminCode1": "76", "geonameId": 7690528, "fcl": "P", "name": "Ploskoye", "countryName": "Russia", "fclName": "city, village,...", "fcode": "PPL", "adminName1": "Tula", "countryCode": "RU", "population": 0, "fcodeName": "populated place"}, "geometry": {"coordinates": [38.7156, 54.2268], "type": "Point"}, "type": "feature"}]}