{"type": "FeatureCollection", "features": [{"properties": {"countryId": "2017370", "toponymName": "Spas", "adminCode1": "88", "geonameId": 489875, "fcl": "P", "name": "Spas", "countryName": "Russia", "fclName": "city, village,...", "fcode": "PPL", "adminName1": "Jaroslavl", "countryCode": "RU", "population": 0, "fcodeName": "populated place"}, "geometry": {"coordinates": [39.05842, 58.03246], "type": "Point"}, "type": "feature"}, {"properties": {"countryId": "2017370", "toponymName": "Spas", "adminCode1": "37", "geonameId": 489754, "fcl": "P", "name": "Spas", "countryName": "Russia", "fclName": "city, village,...", "fcode": "PPL", "adminName1": "Kostroma", "countryCode": "RU", "population": 0, "fcodeName": "populated place"}, "geometry": {"coordinates": [46.72044, 59.16276], "type": "Point"}, "type": "feature"}, {"properties": {"countryId": "2017370", "toponymName": "Spas", "adminCode1": "85", "geonameId": 489872, "fcl": "P", "name": "Spas", "countryName": "Russia", "fclName": "city, village,...", "fcode": "PPL", "adminName1": "Vologda", "countryCode": "RU", "population": 0, "fcodeName": "populated place"}, "geometry": {"coordinates": [40.20818, 59.12552], "type": "Point"}, "type": "feature"}, {"properties": {"countryId": "2017370", "toponymName": "Spas", "adminCode1": "37", "geonameId": 489877, "fcl": "P", "name": "Spas", "countryName": "Russia", "fclName": "city, village,...", "fcode": "PPL", "adminName1": "Kostroma", "countryCode": "RU", "population": 0, "fcodeName": "populated place"}, "geometry": {"coordinates": [41.02888, 57.45277], "type": "Point"}, "type": "feature"}, {"properties": {"countryId": "2017370", "toponymName": "Spas", "adminCode1": "37", "geonameId": 489876, "fcl": "P", "name": "Spas", "countryName": "Russia", "fclName": "city, village,...", "fcode": "PPL", "adminName1": "Kostroma", "countryCode": "RU", "population": 0, "fcodeName": "populated place"}, "geometry": {"coordinates": [40.76802, 57.9047], "type": "Point"}, "type": "feature"}, {"properties": {"countryId": "2017370", "toponymName": "Spas-Lom", "adminCode1": "85", "geonameId": 489854, "fcl": "P", "name": "Spas-Lom", "countryName": "Russia", "fclName": "city, village,...", "fcode": "PPL", "adminName1": "Vologda", "countryCode": "RU", "population": 0, "fcodeName": "populated place"}, "geometry": {"coordinates": [38.81711, 58.95181], "type": "Point"}, "type": "feature"}, {"properties": {"countryId": "2017370", "toponymName": "Spas", "adminCode1": "88", "geonameId": 7079479, "fcl": "P", "name": "Spas", "countryName": "Russia", "fclName": "city, village,...", "fcode": "PPL", "adminName1": "Jaroslavl", "countryCode": "RU", "population": 0, "fcodeName": "populated place"}, "geometry": {"coordinates": [39.8887, 57.8018], "type": "Point"}, "type": "feature"}, {"properties": {"countryId": "2017370", "toponymName": "Spas-Talitsa", "adminCode1": "33", "geonameId": 489846, "fcl": "P", "name": "Spas-Talitsa", "countryName": "Russia", "fclName": "city, village,...", "fcode": "PPL", "adminName1": "Kirov", "countryCode": "RU", "population": 0, "fcodeName": "populated place"}, "geometry": {"coordinates": [49.00348, 58.40507], "type": "Point"}, "type": "feature"}, {"properties": {"countryId": "2017370", "toponymName": "Spas-Il\u2019d\u2019", "adminCode1": "88", "geonameId": 489864, "fcl": "P", "name": "Spas-Il'd'", "countryName": "Russia", "fclName": "city, village,...", "fcode": "PPL", "adminName1": "Jaroslavl", "countryCode": "RU", "population": 0, "fcodeName": "populated place"}, "geometry": {"coordinates": [38.07636, 57.99174], "type": "Point"}, "type": "feature"}, {"properties": {"countryId": "2017370", "toponymName": "Spas Yamshchiki", "adminCode1": "37", "geonameId": 489733, "fcl": "P", "name": "Spas Yamshchiki", "countryName": "Russia", "fclName": "city, village,...", "fcode": "PPL", "adminName1": "Kostroma", "countryCode": "RU", "population": 0, "fcodeName": "populated place"}, "geometry": {"coordinates": [41.17237, 57.70077], "type": "Point"}, "type": "feature"}, {"properties": {"countryId": "2017370", "toponymName": "Spas-Nurma", "adminCode1": "85", "geonameId": 6313448, "fcl": "P", "name": "Spas-Nurma", "countryName": "Russia", "fclName": "city, village,...", "fcode": "PPL", "adminName1": "Vologda", "countryCode": "RU", "population": 0, "fcodeName": "populated place"}, "geometry": {"coordinates": [40.37305, 58.73159], "type": "Point"}, "type": "feature"}, {"properties": {"countryId": "2017370", "toponymName": "Spas-Sen\u2019ga", "adminCode1": "85", "geonameId": 489832, "fcl": "P", "name": "Spas-Sen\u2019ga", "countryName": "Russia", "fclName": "city, village,...", "fcode": "PPL", "adminName1": "Vologda", "countryCode": "RU", "population": 0, "fcodeName": "populated place"}, "geometry": {"coordinates": [40.7, 58.91667], "type": "Point"}, "type": "feature"}, {"properties": {"countryId": "2017370", "toponymName": "Spas", "adminCode1": "37", "geonameId": 489874, "fcl": "P", "name": "Spas", "countryName": "Russia", "fclName": "city, village,...", "fcode": "PPL", "adminName1": "Kostroma", "countryCode": "RU", "population": 0, "fcodeName": "populated place"}, "geometry": {"coordinates": [41.41569, 58.412], "type": "Point"}, "type": "feature"}, {"properties": {"countryId": "2017370", "toponymName": "Spas-Vitaliy", "adminCode1": "88", "geonameId": 6641622, "fcl": "P", "name": "Spas-Vitaliy", "countryName": "Russia", "fclName": "city, village,...", "fcode": "PPL", "adminName1": "Jaroslavl", "countryCode": "RU", "population": 0, "fcodeName": "populated place"}, "geometry": {"coordinates": [40.19023, 57.80043], "type": "Point"}, "type": "feature"}, {"properties": {"countryId": "2017370", "toponymName": "Spas-Ramen\u2019ye", "adminCode1": "88", "geonameId": 7079009, "fcl": "P", "name": "Spas-Ramen\u2019ye", "countryName": "Russia", "fclName": "city, village,...", "fcode": "PPL", "adminName1": "Jaroslavl", "countryCode": "RU", "population": 0, "fcodeName": "populated place"}, "geometry": {"coordinates": [39.20209, 57.55106], "type": "Point"}, "type": "feature"}, {"properties": {"countryId": "2017370", "toponymName": "Spas-Pen\u2019ye", "adminCode1": "37", "geonameId": 6283017, "fcl": "P", "name": "Spas-Pen\u2019ye", "countryName": "Russia", "fclName": "city, village,...", "fcode": "PPLQ", "adminName1": "Kostroma", "countryCode": "RU", "population": 0, "fcodeName": "abandoned populated place"}, "geometry": {"coordinates": [41.88408, 57.82647], "type": "Point"}, "type": "feature"}, {"properties": {"countryId": "2017370", "toponymName": "Spas-Verkhov\u2019ye", "adminCode1": "37", "geonameId": 489759, "fcl": "P", "name": "Spas-Verkhov\u2019ye", "countryName": "Russia", "fclName": "city, village,...", "fcode": "PPL", "adminName1": "Kostroma", "countryCode": "RU", "population": 0, "fcodeName": "populated place"}, "geometry": {"coordinates": [41.98678, 58.13349], "type": "Point"}, "type": "feature"}, {"properties": {"countryId": "2017370", "toponymName": "Zabor\u2019ye", "adminCode1": "37", "geonameId": 465814, "fcl": "P", "name": "Zabor'ye", "countryName": "Russia", "fclName": "city, village,...", "fcode": "PPL", "adminName1": "Kostroma", "countryCode": "RU", "population": 0, "fcodeName": "populated place"}, "geometry": {"coordinates": [42.41504, 57.68621], "type": "Point"}, "type": "feature"}, {"properties": {"countryId": "2017370", "toponymName": "Spas-Buraki", "adminCode1": "37", "geonameId": 6610681, "fcl": "P", "name": "Spas-Buraki", "countryName": "Russia", "fclName": "city, village,...", "fcode": "PPL", "adminName1": "Kostroma", "countryCode": "RU", "population": 0, "fcodeName": "populated place"}, "geometry": {"coordinates": [41.20856, 58.03302], "type": "Point"}, "type": "feature"}, {"properties": {"countryId": "2017370", "toponymName": "Shartanovo", "adminCode1": "37", "geonameId": 495633, "fcl": "P", "name": "Shartanovo", "countryName": "Russia", "fclName": "city, village,...", "fcode": "PPL", "adminName1": "Kostroma", "countryCode": "RU", "population": 0, "fcodeName": "populated place"}, "geometry": {"coordinates": [43.27584, 59.07009], "type": "Point"}, "type": "feature"}, {"properties": {"countryId": "2017370", "toponymName": "Spass", "adminCode1": "88", "geonameId": 7078838, "fcl": "P", "name": "Spass", "countryName": "Russia", "fclName": "city, village,...", "fcode": "PPL", "adminName1": "Jaroslavl", "countryCode": "RU", "population": 0, "fcodeName": "populated place"}, "geometry": {"coordinates": [39.8405, 57.41824], "type": "Point"}, "type": "feature"}, {"properties": {"countryId": "2017370", "toponymName": "Zhilino", "adminCode1": "37", "geonameId": 463029, "fcl": "P", "name": "Zhilino", "countryName": "Russia", "fclName": "city, village,...", "fcode": "PPL", "adminName1": "Kostroma", "countryCode": "RU", "population": 0, "fcodeName": "populated place"}, "geometry": {"coordinates": [41.33768, 57.58271], "type": "Point"}, "type": "feature"}, {"properties": {"countryId": "2017370", "toponymName": "Pervomayskiy", "adminCode1": "33", "geonameId": 510869, "fcl": "P", "name": "Pervomayskiy", "countryName": "Russia", "fclName": "city, village,...", "fcode": "PPL", "adminName1": "Kirov", "countryCode": "RU", "population": 0, "fcodeName": "populated place"}, "geometry": {"coordinates": [50.14472, 58.67167], "type": "Point"}, "type": "feature"}, {"properties": {"countryId": "2017370", "toponymName": "Spasskiy Pogost", "adminCode1": "85", "geonameId": 475492, "fcl": "P", "name": "Spasskiy Pogost", "countryName": "Russia", "fclName": "city, village,...", "fcode": "PPL", "adminName1": "Vologda", "countryCode": "RU", "population": 225, "fcodeName": "populated place"}, "geometry": {"coordinates": [43.20143, 60.66564], "type": "Point"}, "type": "feature"}]}