{"type": "FeatureCollection", "features": [{"type": "Feature", "geometry": {"coordinates": [39.05842, 58.03246], "type": "Point"}, "properties": {"countryCode": "RU", "countryId": "2017370", "fcodeName": "populated place", "adminName1": "Jaroslavl", "fclName": "city, village,...", "fcl": "P", "countryName": "Russia", "fcode": "PPL", "geonameId": 489875, "population": 0, "adminCode1": "88", "name": "Spas", "toponymName": "Spas"}}, {"type": "Feature", "geometry": {"coordinates": [46.72044, 59.16276], "type": "Point"}, "properties": {"countryCode": "RU", "countryId": "2017370", "fcodeName": "populated place", "adminName1": "Kostroma", "fclName": "city, village,...", "fcl": "P", "countryName": "Russia", "fcode": "PPL", "geonameId": 489754, "population": 0, "adminCode1": "37", "name": "Spas", "toponymName": "Spas"}}, {"type": "Feature", "geometry": {"coordinates": [40.20818, 59.12552], "type": "Point"}, "properties": {"countryCode": "RU", "countryId": "2017370", "fcodeName": "populated place", "adminName1": "Vologda", "fclName": "city, village,...", "fcl": "P", "countryName": "Russia", "fcode": "PPL", "geonameId": 489872, "population": 0, "adminCode1": "85", "name": "Spas", "toponymName": "Spas"}}, {"type": "Feature", "geometry": {"coordinates": [41.02888, 57.45277], "type": "Point"}, "properties": {"countryCode": "RU", "countryId": "2017370", "fcodeName": "populated place", "adminName1": "Kostroma", "fclName": "city, village,...", "fcl": "P", "countryName": "Russia", "fcode": "PPL", "geonameId": 489877, "population": 0, "adminCode1": "37", "name": "Spas", "toponymName": "Spas"}}, {"type": "Feature", "geometry": {"coordinates": [40.76802, 57.9047], "type": "Point"}, "properties": {"countryCode": "RU", "countryId": "2017370", "fcodeName": "populated place", "adminName1": "Kostroma", "fclName": "city, village,...", "fcl": "P", "countryName": "Russia", "fcode": "PPL", "geonameId": 489876, "population": 0, "adminCode1": "37", "name": "Spas", "toponymName": "Spas"}}, {"type": "Feature", "geometry": {"coordinates": [38.81711, 58.95181], "type": "Point"}, "properties": {"countryCode": "RU", "countryId": "2017370", "fcodeName": "populated place", "adminName1": "Vologda", "fclName": "city, village,...", "fcl": "P", "countryName": "Russia", "fcode": "PPL", "geonameId": 489854, "population": 0, "adminCode1": "85", "name": "Spas-Lom", "toponymName": "Spas-Lom"}}, {"type": "Feature", "geometry": {"coordinates": [39.8887, 57.8018], "type": "Point"}, "properties": {"countryCode": "RU", "countryId": "2017370", "fcodeName": "populated place", "adminName1": "Jaroslavl", "fclName": "city, village,...", "fcl": "P", "countryName": "Russia", "fcode": "PPL", "geonameId": 7079479, "population": 0, "adminCode1": "88", "name": "Spas", "toponymName": "Spas"}}, {"type": "Feature", "geometry": {"coordinates": [49.00348, 58.40507], "type": "Point"}, "properties": {"countryCode": "RU", "countryId": "2017370", "fcodeName": "populated place", "adminName1": "Kirov", "fclName": "city, village,...", "fcl": "P", "countryName": "Russia", "fcode": "PPL", "geonameId": 489846, "population": 0, "adminCode1": "33", "name": "Spas-Talitsa", "toponymName": "Spas-Talitsa"}}, {"type": "Feature", "geometry": {"coordinates": [38.07636, 57.99174], "type": "Point"}, "properties": {"countryCode": "RU", "countryId": "2017370", "fcodeName": "populated place", "adminName1": "Jaroslavl", "fclName": "city, village,...", "fcl": "P", "countryName": "Russia", "fcode": "PPL", "geonameId": 489864, "population": 0, "adminCode1": "88", "name": "Spas-Il'd'", "toponymName": "Spas-Il\u2019d\u2019"}}, {"type": "Feature", "geometry": {"coordinates": [41.17237, 57.70077], "type": "Point"}, "properties": {"countryCode": "RU", "countryId": "2017370", "fcodeName": "populated place", "adminName1": "Kostroma", "fclName": "city, village,...", "fcl": "P", "countryName": "Russia", "fcode": "PPL", "geonameId": 489733, "population": 0, "adminCode1": "37", "name": "Spas Yamshchiki", "toponymName": "Spas Yamshchiki"}}, {"type": "Feature", "geometry": {"coordinates": [40.37305, 58.73159], "type": "Point"}, "properties": {"countryCode": "RU", "countryId": "2017370", "fcodeName": "populated place", "adminName1": "Vologda", "fclName": "city, village,...", "fcl": "P", "countryName": "Russia", "fcode": "PPL", "geonameId": 6313448, "population": 0, "adminCode1": "85", "name": "Spas-Nurma", "toponymName": "Spas-Nurma"}}, {"type": "Feature", "geometry": {"coordinates": [40.7, 58.91667], "type": "Point"}, "properties": {"countryCode": "RU", "countryId": "2017370", "fcodeName": "populated place", "adminName1": "Vologda", "fclName": "city, village,...", "fcl": "P", "countryName": "Russia", "fcode": "PPL", "geonameId": 489832, "population": 0, "adminCode1": "85", "name": "Spas-Sen\u2019ga", "toponymName": "Spas-Sen\u2019ga"}}, {"type": "Feature", "geometry": {"coordinates": [41.41569, 58.412], "type": "Point"}, "properties": {"countryCode": "RU", "countryId": "2017370", "fcodeName": "populated place", "adminName1": "Kostroma", "fclName": "city, village,...", "fcl": "P", "countryName": "Russia", "fcode": "PPL", "geonameId": 489874, "population": 0, "adminCode1": "37", "name": "Spas", "toponymName": "Spas"}}, {"type": "Feature", "geometry": {"coordinates": [40.19023, 57.80043], "type": "Point"}, "properties": {"countryCode": "RU", "countryId": "2017370", "fcodeName": "populated place", "adminName1": "Jaroslavl", "fclName": "city, village,...", "fcl": "P", "countryName": "Russia", "fcode": "PPL", "geonameId": 6641622, "population": 0, "adminCode1": "88", "name": "Spas-Vitaliy", "toponymName": "Spas-Vitaliy"}}, {"type": "Feature", "geometry": {"coordinates": [39.20209, 57.55106], "type": "Point"}, "properties": {"countryCode": "RU", "countryId": "2017370", "fcodeName": "populated place", "adminName1": "Jaroslavl", "fclName": "city, village,...", "fcl": "P", "countryName": "Russia", "fcode": "PPL", "geonameId": 7079009, "population": 0, "adminCode1": "88", "name": "Spas-Ramen\u2019ye", "toponymName": "Spas-Ramen\u2019ye"}}, {"type": "Feature", "geometry": {"coordinates": [41.88408, 57.82647], "type": "Point"}, "properties": {"countryCode": "RU", "countryId": "2017370", "fcodeName": "abandoned populated place", "adminName1": "Kostroma", "fclName": "city, village,...", "fcl": "P", "countryName": "Russia", "fcode": "PPLQ", "geonameId": 6283017, "population": 0, "adminCode1": "37", "name": "Spas-Pen\u2019ye", "toponymName": "Spas-Pen\u2019ye"}}, {"type": "Feature", "geometry": {"coordinates": [41.98678, 58.13349], "type": "Point"}, "properties": {"countryCode": "RU", "countryId": "2017370", "fcodeName": "populated place", "adminName1": "Kostroma", "fclName": "city, village,...", "fcl": "P", "countryName": "Russia", "fcode": "PPL", "geonameId": 489759, "population": 0, "adminCode1": "37", "name": "Spas-Verkhov\u2019ye", "toponymName": "Spas-Verkhov\u2019ye"}}, {"type": "Feature", "geometry": {"coordinates": [42.41504, 57.68621], "type": "Point"}, "properties": {"countryCode": "RU", "countryId": "2017370", "fcodeName": "populated place", "adminName1": "Kostroma", "fclName": "city, village,...", "fcl": "P", "countryName": "Russia", "fcode": "PPL", "geonameId": 465814, "population": 0, "adminCode1": "37", "name": "Zabor'ye", "toponymName": "Zabor\u2019ye"}}, {"type": "Feature", "geometry": {"coordinates": [41.20856, 58.03302], "type": "Point"}, "properties": {"countryCode": "RU", "countryId": "2017370", "fcodeName": "populated place", "adminName1": "Kostroma", "fclName": "city, village,...", "fcl": "P", "countryName": "Russia", "fcode": "PPL", "geonameId": 6610681, "population": 0, "adminCode1": "37", "name": "Spas-Buraki", "toponymName": "Spas-Buraki"}}, {"type": "Feature", "geometry": {"coordinates": [43.27584, 59.07009], "type": "Point"}, "properties": {"countryCode": "RU", "countryId": "2017370", "fcodeName": "populated place", "adminName1": "Kostroma", "fclName": "city, village,...", "fcl": "P", "countryName": "Russia", "fcode": "PPL", "geonameId": 495633, "population": 0, "adminCode1": "37", "name": "Shartanovo", "toponymName": "Shartanovo"}}, {"type": "Feature", "geometry": {"coordinates": [39.8405, 57.41824], "type": "Point"}, "properties": {"countryCode": "RU", "countryId": "2017370", "fcodeName": "populated place", "adminName1": "Jaroslavl", "fclName": "city, village,...", "fcl": "P", "countryName": "Russia", "fcode": "PPL", "geonameId": 7078838, "population": 0, "adminCode1": "88", "name": "Spass", "toponymName": "Spass"}}, {"type": "Feature", "geometry": {"coordinates": [41.33768, 57.58271], "type": "Point"}, "properties": {"countryCode": "RU", "countryId": "2017370", "fcodeName": "populated place", "adminName1": "Kostroma", "fclName": "city, village,...", "fcl": "P", "countryName": "Russia", "fcode": "PPL", "geonameId": 463029, "population": 0, "adminCode1": "37", "name": "Zhilino", "toponymName": "Zhilino"}}, {"type": "Feature", "geometry": {"coordinates": [50.14472, 58.67167], "type": "Point"}, "properties": {"countryCode": "RU", "countryId": "2017370", "fcodeName": "populated place", "adminName1": "Kirov", "fclName": "city, village,...", "fcl": "P", "countryName": "Russia", "fcode": "PPL", "geonameId": 510869, "population": 0, "adminCode1": "33", "name": "Pervomayskiy", "toponymName": "Pervomayskiy"}}, {"type": "Feature", "geometry": {"coordinates": [43.20143, 60.66564], "type": "Point"}, "properties": {"countryCode": "RU", "countryId": "2017370", "fcodeName": "populated place", "adminName1": "Vologda", "fclName": "city, village,...", "fcl": "P", "countryName": "Russia", "fcode": "PPL", "geonameId": 475492, "population": 225, "adminCode1": "85", "name": "Spasskiy Pogost", "toponymName": "Spasskiy Pogost"}}]}