{"features": [{"properties": {"fcl": "P", "geonameId": 489875, "countryId": "2017370", "fcode": "PPL", "name": "Spas", "countryName": "Russia", "population": 0, "fclName": "city, village,...", "adminName1": "Jaroslavl", "adminCode1": "88", "fcodeName": "populated place", "countryCode": "RU", "toponymName": "Spas"}, "geometry": {"coordinates": [39.05842, 58.03246], "type": "Point"}, "type": "Feature"}, {"properties": {"fcl": "P", "geonameId": 489754, "countryId": "2017370", "fcode": "PPL", "name": "Spas", "countryName": "Russia", "population": 0, "fclName": "city, village,...", "adminName1": "Kostroma", "adminCode1": "37", "fcodeName": "populated place", "countryCode": "RU", "toponymName": "Spas"}, "geometry": {"coordinates": [46.72044, 59.16276], "type": "Point"}, "type": "Feature"}, {"properties": {"fcl": "P", "geonameId": 489872, "countryId": "2017370", "fcode": "PPL", "name": "Spas", "countryName": "Russia", "population": 0, "fclName": "city, village,...", "adminName1": "Vologda", "adminCode1": "85", "fcodeName": "populated place", "countryCode": "RU", "toponymName": "Spas"}, "geometry": {"coordinates": [40.20818, 59.12552], "type": "Point"}, "type": "Feature"}, {"properties": {"fcl": "P", "geonameId": 489877, "countryId": "2017370", "fcode": "PPL", "name": "Spas", "countryName": "Russia", "population": 0, "fclName": "city, village,...", "adminName1": "Kostroma", "adminCode1": "37", "fcodeName": "populated place", "countryCode": "RU", "toponymName": "Spas"}, "geometry": {"coordinates": [41.02888, 57.45277], "type": "Point"}, "type": "Feature"}, {"properties": {"fcl": "P", "geonameId": 489876, "countryId": "2017370", "fcode": "PPL", "name": "Spas", "countryName": "Russia", "population": 0, "fclName": "city, village,...", "adminName1": "Kostroma", "adminCode1": "37", "fcodeName": "populated place", "countryCode": "RU", "toponymName": "Spas"}, "geometry": {"coordinates": [40.76802, 57.9047], "type": "Point"}, "type": "Feature"}, {"properties": {"fcl": "P", "geonameId": 489854, "countryId": "2017370", "fcode": "PPL", "name": "Spas-Lom", "countryName": "Russia", "population": 0, "fclName": "city, village,...", "adminName1": "Vologda", "adminCode1": "85", "fcodeName": "populated place", "countryCode": "RU", "toponymName": "Spas-Lom"}, "geometry": {"coordinates": [38.81711, 58.95181], "type": "Point"}, "type": "Feature"}, {"properties": {"fcl": "P", "geonameId": 7079479, "countryId": "2017370", "fcode": "PPL", "name": "Spas", "countryName": "Russia", "population": 0, "fclName": "city, village,...", "adminName1": "Jaroslavl", "adminCode1": "88", "fcodeName": "populated place", "countryCode": "RU", "toponymName": "Spas"}, "geometry": {"coordinates": [39.8887, 57.8018], "type": "Point"}, "type": "Feature"}, {"properties": {"fcl": "P", "geonameId": 489846, "countryId": "2017370", "fcode": "PPL", "name": "Spas-Talitsa", "countryName": "Russia", "population": 0, "fclName": "city, village,...", "adminName1": "Kirov", "adminCode1": "33", "fcodeName": "populated place", "countryCode": "RU", "toponymName": "Spas-Talitsa"}, "geometry": {"coordinates": [49.00348, 58.40507], "type": "Point"}, "type": "Feature"}, {"properties": {"fcl": "P", "geonameId": 489864, "countryId": "2017370", "fcode": "PPL", "name": "Spas-Il'd'", "countryName": "Russia", "population": 0, "fclName": "city, village,...", "adminName1": "Jaroslavl", "adminCode1": "88", "fcodeName": "populated place", "countryCode": "RU", "toponymName": "Spas-Il\u2019d\u2019"}, "geometry": {"coordinates": [38.07636, 57.99174], "type": "Point"}, "type": "Feature"}, {"properties": {"fcl": "P", "geonameId": 489733, "countryId": "2017370", "fcode": "PPL", "name": "Spas Yamshchiki", "countryName": "Russia", "population": 0, "fclName": "city, village,...", "adminName1": "Kostroma", "adminCode1": "37", "fcodeName": "populated place", "countryCode": "RU", "toponymName": "Spas Yamshchiki"}, "geometry": {"coordinates": [41.17237, 57.70077], "type": "Point"}, "type": "Feature"}, {"properties": {"fcl": "P", "geonameId": 6313448, "countryId": "2017370", "fcode": "PPL", "name": "Spas-Nurma", "countryName": "Russia", "population": 0, "fclName": "city, village,...", "adminName1": "Vologda", "adminCode1": "85", "fcodeName": "populated place", "countryCode": "RU", "toponymName": "Spas-Nurma"}, "geometry": {"coordinates": [40.37305, 58.73159], "type": "Point"}, "type": "Feature"}, {"properties": {"fcl": "P", "geonameId": 489832, "countryId": "2017370", "fcode": "PPL", "name": "Spas-Sen\u2019ga", "countryName": "Russia", "population": 0, "fclName": "city, village,...", "adminName1": "Vologda", "adminCode1": "85", "fcodeName": "populated place", "countryCode": "RU", "toponymName": "Spas-Sen\u2019ga"}, "geometry": {"coordinates": [40.7, 58.91667], "type": "Point"}, "type": "Feature"}, {"properties": {"fcl": "P", "geonameId": 489874, "countryId": "2017370", "fcode": "PPL", "name": "Spas", "countryName": "Russia", "population": 0, "fclName": "city, village,...", "adminName1": "Kostroma", "adminCode1": "37", "fcodeName": "populated place", "countryCode": "RU", "toponymName": "Spas"}, "geometry": {"coordinates": [41.41569, 58.412], "type": "Point"}, "type": "Feature"}, {"properties": {"fcl": "P", "geonameId": 6641622, "countryId": "2017370", "fcode": "PPL", "name": "Spas-Vitaliy", "countryName": "Russia", "population": 0, "fclName": "city, village,...", "adminName1": "Jaroslavl", "adminCode1": "88", "fcodeName": "populated place", "countryCode": "RU", "toponymName": "Spas-Vitaliy"}, "geometry": {"coordinates": [40.19023, 57.80043], "type": "Point"}, "type": "Feature"}, {"properties": {"fcl": "P", "geonameId": 7079009, "countryId": "2017370", "fcode": "PPL", "name": "Spas-Ramen\u2019ye", "countryName": "Russia", "population": 0, "fclName": "city, village,...", "adminName1": "Jaroslavl", "adminCode1": "88", "fcodeName": "populated place", "countryCode": "RU", "toponymName": "Spas-Ramen\u2019ye"}, "geometry": {"coordinates": [39.20209, 57.55106], "type": "Point"}, "type": "Feature"}, {"properties": {"fcl": "P", "geonameId": 6283017, "countryId": "2017370", "fcode": "PPLQ", "name": "Spas-Pen\u2019ye", "countryName": "Russia", "population": 0, "fclName": "city, village,...", "adminName1": "Kostroma", "adminCode1": "37", "fcodeName": "abandoned populated place", "countryCode": "RU", "toponymName": "Spas-Pen\u2019ye"}, "geometry": {"coordinates": [41.88408, 57.82647], "type": "Point"}, "type": "Feature"}, {"properties": {"fcl": "P", "geonameId": 489759, "countryId": "2017370", "fcode": "PPL", "name": "Spas-Verkhov\u2019ye", "countryName": "Russia", "population": 0, "fclName": "city, village,...", "adminName1": "Kostroma", "adminCode1": "37", "fcodeName": "populated place", "countryCode": "RU", "toponymName": "Spas-Verkhov\u2019ye"}, "geometry": {"coordinates": [41.98678, 58.13349], "type": "Point"}, "type": "Feature"}, {"properties": {"fcl": "P", "geonameId": 465814, "countryId": "2017370", "fcode": "PPL", "name": "Zabor'ye", "countryName": "Russia", "population": 0, "fclName": "city, village,...", "adminName1": "Kostroma", "adminCode1": "37", "fcodeName": "populated place", "countryCode": "RU", "toponymName": "Zabor\u2019ye"}, "geometry": {"coordinates": [42.41504, 57.68621], "type": "Point"}, "type": "Feature"}, {"properties": {"fcl": "P", "geonameId": 6610681, "countryId": "2017370", "fcode": "PPL", "name": "Spas-Buraki", "countryName": "Russia", "population": 0, "fclName": "city, village,...", "adminName1": "Kostroma", "adminCode1": "37", "fcodeName": "populated place", "countryCode": "RU", "toponymName": "Spas-Buraki"}, "geometry": {"coordinates": [41.20856, 58.03302], "type": "Point"}, "type": "Feature"}, {"properties": {"fcl": "P", "geonameId": 495633, "countryId": "2017370", "fcode": "PPL", "name": "Shartanovo", "countryName": "Russia", "population": 0, "fclName": "city, village,...", "adminName1": "Kostroma", "adminCode1": "37", "fcodeName": "populated place", "countryCode": "RU", "toponymName": "Shartanovo"}, "geometry": {"coordinates": [43.27584, 59.07009], "type": "Point"}, "type": "Feature"}, {"properties": {"fcl": "P", "geonameId": 7078838, "countryId": "2017370", "fcode": "PPL", "name": "Spass", "countryName": "Russia", "population": 0, "fclName": "city, village,...", "adminName1": "Jaroslavl", "adminCode1": "88", "fcodeName": "populated place", "countryCode": "RU", "toponymName": "Spass"}, "geometry": {"coordinates": [39.8405, 57.41824], "type": "Point"}, "type": "Feature"}, {"properties": {"fcl": "P", "geonameId": 463029, "countryId": "2017370", "fcode": "PPL", "name": "Zhilino", "countryName": "Russia", "population": 0, "fclName": "city, village,...", "adminName1": "Kostroma", "adminCode1": "37", "fcodeName": "populated place", "countryCode": "RU", "toponymName": "Zhilino"}, "geometry": {"coordinates": [41.33768, 57.58271], "type": "Point"}, "type": "Feature"}, {"properties": {"fcl": "P", "geonameId": 510869, "countryId": "2017370", "fcode": "PPL", "name": "Pervomayskiy", "countryName": "Russia", "population": 0, "fclName": "city, village,...", "adminName1": "Kirov", "adminCode1": "33", "fcodeName": "populated place", "countryCode": "RU", "toponymName": "Pervomayskiy"}, "geometry": {"coordinates": [50.14472, 58.67167], "type": "Point"}, "type": "Feature"}, {"properties": {"fcl": "P", "geonameId": 475492, "countryId": "2017370", "fcode": "PPL", "name": "Spasskiy Pogost", "countryName": "Russia", "population": 225, "fclName": "city, village,...", "adminName1": "Vologda", "adminCode1": "85", "fcodeName": "populated place", "countryCode": "RU", "toponymName": "Spasskiy Pogost"}, "geometry": {"coordinates": [43.20143, 60.66564], "type": "Point"}, "type": "Feature"}], "type": "FeatureCollection"}