{"features": [{"properties": {"fcl": "P", "geonameId": 481985, "countryId": "2017370", "fcode": "PPL", "name": "Torzhok", "countryName": "Russia", "population": 48546, "fclName": "city, village,...", "adminName1": "Tverskaya", "adminCode1": "77", "fcodeName": "populated place", "countryCode": "RU", "toponymName": "Torzhok"}, "geometry": {"coordinates": [34.96221, 57.0436], "type": "Point"}, "type": "Feature"}, {"properties": {"fcl": "P", "geonameId": 521703, "countryId": "2017370", "fcode": "PPL", "name": "Nikol'skiy Torzhok", "countryName": "Russia", "population": 0, "fclName": "city, village,...", "adminName1": "Vologda", "adminCode1": "85", "fcodeName": "populated place", "countryCode": "RU", "toponymName": "Nikol\u2019skiy Torzhok"}, "geometry": {"coordinates": [38.76907, 59.87857], "type": "Point"}, "type": "Feature"}, {"properties": {"fcl": "P", "geonameId": 7493132, "countryId": "2017370", "fcode": "PPL", "name": "Nikola-Torzhok", "countryName": "Russia", "population": 0, "fclName": "city, village,...", "adminName1": "Kostroma", "adminCode1": "37", "fcodeName": "populated place", "countryCode": "RU", "toponymName": "Nikola-Torzhok"}, "geometry": {"coordinates": [43.6977, 58.0592], "type": "Point"}, "type": "Feature"}, {"properties": {"fcl": "P", "geonameId": 6659177, "countryId": "2017370", "fcode": "PPL", "name": "Torzhok", "countryName": "Russia", "population": 0, "fclName": "city, village,...", "adminName1": "Nizjnij Novgorod", "adminCode1": "51", "fcodeName": "populated place", "countryCode": "RU", "toponymName": "Torzhok"}, "geometry": {"coordinates": [43.04406, 54.78321], "type": "Point"}, "type": "Feature"}, {"properties": {"fcl": "P", "geonameId": 481986, "countryId": "2017370", "fcode": "PPL", "name": "Torzhok", "countryName": "Russia", "population": 0, "fclName": "city, village,...", "adminName1": "Smolensk", "adminCode1": "69", "fcodeName": "populated place", "countryCode": "RU", "toponymName": "Torzhok"}, "geometry": {"coordinates": [33.58778, 54.69333], "type": "Point"}, "type": "Feature"}], "type": "FeatureCollection"}