{"type": "FeatureCollection", "features": [{"properties": {"countryId": "2017370", "toponymName": "Torzhok", "adminCode1": "77", "geonameId": 481985, "fcl": "P", "name": "Torzhok", "countryName": "Russia", "fclName": "city, village,...", "fcode": "PPL", "adminName1": "Tverskaya", "countryCode": "RU", "population": 48546, "fcodeName": "populated place"}, "geometry": {"coordinates": [34.96221, 57.0436], "type": "Point"}, "type": "feature"}, {"properties": {"countryId": "2017370", "toponymName": "Nikol\u2019skiy Torzhok", "adminCode1": "85", "geonameId": 521703, "fcl": "P", "name": "Nikol'skiy Torzhok", "countryName": "Russia", "fclName": "city, village,...", "fcode": "PPL", "adminName1": "Vologda", "countryCode": "RU", "population": 0, "fcodeName": "populated place"}, "geometry": {"coordinates": [38.76907, 59.87857], "type": "Point"}, "type": "feature"}, {"properties": {"countryId": "2017370", "toponymName": "Nikola-Torzhok", "adminCode1": "37", "geonameId": 7493132, "fcl": "P", "name": "Nikola-Torzhok", "countryName": "Russia", "fclName": "city, village,...", "fcode": "PPL", "adminName1": "Kostroma", "countryCode": "RU", "population": 0, "fcodeName": "populated place"}, "geometry": {"coordinates": [43.6977, 58.0592], "type": "Point"}, "type": "feature"}, {"properties": {"countryId": "2017370", "toponymName": "Torzhok", "adminCode1": "51", "geonameId": 6659177, "fcl": "P", "name": "Torzhok", "countryName": "Russia", "fclName": "city, village,...", "fcode": "PPL", "adminName1": "Nizjnij Novgorod", "countryCode": "RU", "population": 0, "fcodeName": "populated place"}, "geometry": {"coordinates": [43.04406, 54.78321], "type": "Point"}, "type": "feature"}, {"properties": {"countryId": "2017370", "toponymName": "Torzhok", "adminCode1": "69", "geonameId": 481986, "fcl": "P", "name": "Torzhok", "countryName": "Russia", "fclName": "city, village,...", "fcode": "PPL", "adminName1": "Smolensk", "countryCode": "RU", "population": 0, "fcodeName": "populated place"}, "geometry": {"coordinates": [33.58778, 54.69333], "type": "Point"}, "type": "feature"}]}