{"type": "FeatureCollection", "features": [{"type": "Feature", "geometry": {"coordinates": [34.96221, 57.0436], "type": "Point"}, "properties": {"countryCode": "RU", "countryId": "2017370", "fcodeName": "populated place", "adminName1": "Tverskaya", "fclName": "city, village,...", "fcl": "P", "countryName": "Russia", "fcode": "PPL", "geonameId": 481985, "population": 48546, "adminCode1": "77", "name": "Torzhok", "toponymName": "Torzhok"}}, {"type": "Feature", "geometry": {"coordinates": [38.76907, 59.87857], "type": "Point"}, "properties": {"countryCode": "RU", "countryId": "2017370", "fcodeName": "populated place", "adminName1": "Vologda", "fclName": "city, village,...", "fcl": "P", "countryName": "Russia", "fcode": "PPL", "geonameId": 521703, "population": 0, "adminCode1": "85", "name": "Nikol'skiy Torzhok", "toponymName": "Nikol\u2019skiy Torzhok"}}, {"type": "Feature", "geometry": {"coordinates": [43.6977, 58.0592], "type": "Point"}, "properties": {"countryCode": "RU", "countryId": "2017370", "fcodeName": "populated place", "adminName1": "Kostroma", "fclName": "city, village,...", "fcl": "P", "countryName": "Russia", "fcode": "PPL", "geonameId": 7493132, "population": 0, "adminCode1": "37", "name": "Nikola-Torzhok", "toponymName": "Nikola-Torzhok"}}, {"type": "Feature", "geometry": {"coordinates": [43.04406, 54.78321], "type": "Point"}, "properties": {"countryCode": "RU", "countryId": "2017370", "fcodeName": "populated place", "adminName1": "Nizjnij Novgorod", "fclName": "city, village,...", "fcl": "P", "countryName": "Russia", "fcode": "PPL", "geonameId": 6659177, "population": 0, "adminCode1": "51", "name": "Torzhok", "toponymName": "Torzhok"}}, {"type": "Feature", "geometry": {"coordinates": [33.58778, 54.69333], "type": "Point"}, "properties": {"countryCode": "RU", "countryId": "2017370", "fcodeName": "populated place", "adminName1": "Smolensk", "fclName": "city, village,...", "fcl": "P", "countryName": "Russia", "fcode": "PPL", "geonameId": 481986, "population": 0, "adminCode1": "69", "name": "Torzhok", "toponymName": "Torzhok"}}]}