{"type": "FeatureCollection", "features": [{"properties": {"countryId": "2017370", "toponymName": "Ust\u2019ye", "adminCode1": "85", "geonameId": 477846, "fcl": "P", "name": "Ust'ye", "countryName": "Russia", "fclName": "city, village,...", "fcode": "PPL", "adminName1": "Vologda", "countryCode": "RU", "population": 4151, "fcodeName": "populated place"}, "geometry": {"coordinates": [39.73596, 59.63043], "type": "Point"}, "type": "feature"}, {"properties": {"countryId": "2017370", "toponymName": "Ust\u2019ye", "adminCode1": "33", "geonameId": 7513134, "fcl": "P", "name": "Ust\u2019ye", "countryName": "Russia", "fclName": "city, village,...", "fcode": "PPL", "adminName1": "Kirov", "countryCode": "RU", "population": 0, "fcodeName": "populated place"}, "geometry": {"coordinates": [47.0439, 60.263], "type": "Point"}, "type": "feature"}, {"properties": {"countryId": "2017370", "toponymName": "Ust\u2019ye", "adminCode1": "88", "geonameId": 7587530, "fcl": "P", "name": "Ust\u2019ye", "countryName": "Russia", "fclName": "city, village,...", "fcode": "PPL", "adminName1": "Jaroslavl", "countryCode": "RU", "population": 0, "fcodeName": "populated place"}, "geometry": {"coordinates": [38.6684, 57.7176], "type": "Point"}, "type": "feature"}, {"properties": {"countryId": "2017370", "toponymName": "Met-Ust\u2019ye", "adminCode1": "34", "geonameId": 527331, "fcl": "P", "name": "Met-Ust'ye", "countryName": "Russia", "fclName": "city, village,...", "fcode": "PPL", "adminName1": "Komi Republic", "countryCode": "RU", "population": 0, "fcodeName": "populated place"}, "geometry": {"coordinates": [51.0479, 61.23977], "type": "Point"}, "type": "feature"}, {"properties": {"countryId": "2017370", "toponymName": "Ust\u2019ye-Sitskoye", "adminCode1": "85", "geonameId": 7494764, "fcl": "P", "name": "Ust\u2019ye-Sitskoye", "countryName": "Russia", "fclName": "city, village,...", "fcode": "PPL", "adminName1": "Vologda", "countryCode": "RU", "population": 0, "fcodeName": "populated place"}, "geometry": {"coordinates": [38.7866, 59.8406], "type": "Point"}, "type": "feature"}, {"properties": {"countryId": "2017370", "toponymName": "Ust\u2019ye Povalikhino", "adminCode1": "85", "geonameId": 7512816, "fcl": "P", "name": "Ust\u2019ye Povalikhino", "countryName": "Russia", "fclName": "city, village,...", "fcode": "PPL", "adminName1": "Vologda", "countryCode": "RU", "population": 0, "fcodeName": "populated place"}, "geometry": {"coordinates": [46.2234, 60.6188], "type": "Point"}, "type": "feature"}, {"properties": {"countryId": "2017370", "toponymName": "Ust\u2019ye", "adminCode1": "85", "geonameId": 478002, "fcl": "P", "name": "Ust'ye", "countryName": "Russia", "fclName": "city, village,...", "fcode": "PPL", "adminName1": "Vologda", "countryCode": "RU", "population": 0, "fcodeName": "populated place"}, "geometry": {"coordinates": [42.62764, 59.78781], "type": "Point"}, "type": "feature"}, {"properties": {"countryId": "2017370", "toponymName": "Ust\u2019ye", "adminCode1": "06", "geonameId": 477834, "fcl": "P", "name": "Ust'ye", "countryName": "Russia", "fclName": "city, village,...", "fcode": "PPL", "adminName1": "Arkhangelskaya", "countryCode": "RU", "population": 0, "fcodeName": "populated place"}, "geometry": {"coordinates": [47.79525, 61.51126], "type": "Point"}, "type": "feature"}, {"properties": {"countryId": "2017370", "toponymName": "Ust\u2019ye", "adminCode1": "85", "geonameId": 477842, "fcl": "P", "name": "Ust'ye", "countryName": "Russia", "fclName": "city, village,...", "fcode": "PPL", "adminName1": "Vologda", "countryCode": "RU", "population": 0, "fcodeName": "populated place"}, "geometry": {"coordinates": [38.5723, 60.0196], "type": "Point"}, "type": "feature"}, {"properties": {"countryId": "2017370", "toponymName": "Ust\u2019ye", "adminCode1": "88", "geonameId": 477859, "fcl": "P", "name": "Ust'ye", "countryName": "Russia", "fclName": "city, village,...", "fcode": "PPL", "adminName1": "Jaroslavl", "countryCode": "RU", "population": 0, "fcodeName": "populated place"}, "geometry": {"coordinates": [39.77684, 57.78325], "type": "Point"}, "type": "feature"}, {"properties": {"countryId": "2017370", "toponymName": "Ust\u2019ye", "adminCode1": "85", "geonameId": 9260849, "fcl": "P", "name": "Ust\u2019ye", "countryName": "Russia", "fclName": "city, village,...", "fcode": "PPL", "adminName1": "Vologda", "countryCode": "RU", "population": 0, "fcodeName": "populated place"}, "geometry": {"coordinates": [39.68404, 59.61462], "type": "Point"}, "type": "feature"}, {"properties": {"countryId": "2017370", "toponymName": "Pri Reke Ust\u2019ye", "adminCode1": "06", "geonameId": 505213, "fcl": "P", "name": "Pri Reke Ust\u2019ye", "countryName": "Russia", "fclName": "city, village,...", "fcode": "PPL", "adminName1": "Arkhangelskaya", "countryCode": "RU", "population": 0, "fcodeName": "populated place"}, "geometry": {"coordinates": [45.35, 61.45], "type": "Point"}, "type": "feature"}, {"properties": {"countryId": "2017370", "toponymName": "Ust\u2019-Vologodskoye", "adminCode1": "85", "geonameId": 477912, "fcl": "P", "name": "Ust'-Vologodskoye", "countryName": "Russia", "fclName": "city, village,...", "fcode": "PPL", "adminName1": "Vologda", "countryCode": "RU", "population": 0, "fcodeName": "populated place"}, "geometry": {"coordinates": [40.15, 59.3], "type": "Point"}, "type": "feature"}, {"properties": {"countryId": "2017370", "toponymName": "Ust\u2019ye-Gorodischenskoye", "adminCode1": "85", "geonameId": 477825, "fcl": "P", "name": "Ust'ye-Gorodischenskoye", "countryName": "Russia", "fclName": "city, village,...", "fcode": "PPL", "adminName1": "Vologda", "countryCode": "RU", "population": 0, "fcodeName": "populated place"}, "geometry": {"coordinates": [44.29453, 60.42781], "type": "Point"}, "type": "feature"}, {"properties": {"countryId": "2017370", "toponymName": "Ust\u2019ye", "adminCode1": "33", "geonameId": 477861, "fcl": "P", "name": "Ust\u2019ye", "countryName": "Russia", "fclName": "city, village,...", "fcode": "PPL", "adminName1": "Kirov", "countryCode": "RU", "population": 0, "fcodeName": "populated place"}, "geometry": {"coordinates": [48.24527, 57.5792], "type": "Point"}, "type": "feature"}, {"properties": {"countryId": "2017370", "toponymName": "Ust\u2019ye", "adminCode1": "33", "geonameId": 6267268, "fcl": "P", "name": "Ust\u2019ye", "countryName": "Russia", "fclName": "city, village,...", "fcode": "PPL", "adminName1": "Kirov", "countryCode": "RU", "population": 0, "fcodeName": "populated place"}, "geometry": {"coordinates": [49.26089, 58.72494], "type": "Point"}, "type": "feature"}, {"properties": {"countryId": "2017370", "toponymName": "Ust\u2019ye", "adminCode1": "85", "geonameId": 8245429, "fcl": "P", "name": "Ust\u2019ye", "countryName": "Russia", "fclName": "city, village,...", "fcode": "PPL", "adminName1": "Vologda", "countryCode": "RU", "population": 0, "fcodeName": "populated place"}, "geometry": {"coordinates": [38.2406, 60.2622], "type": "Point"}, "type": "feature"}, {"properties": {"countryId": "2017370", "toponymName": "Ust\u2019ye", "adminCode1": "06", "geonameId": 8249068, "fcl": "P", "name": "Ust\u2019ye", "countryName": "Russia", "fclName": "city, village,...", "fcode": "PPL", "adminName1": "Arkhangelskaya", "countryCode": "RU", "population": 0, "fcodeName": "populated place"}, "geometry": {"coordinates": [45.3017, 63.7876], "type": "Point"}, "type": "feature"}, {"properties": {"countryId": "2017370", "toponymName": "Ust\u2019ye Lyuk", "adminCode1": "80", "geonameId": 8255297, "fcl": "P", "name": "Ust\u2019ye Lyuk", "countryName": "Russia", "fclName": "city, village,...", "fcode": "PPL", "adminName1": "Udmurtiya", "countryCode": "RU", "population": 0, "fcodeName": "populated place"}, "geometry": {"coordinates": [53.355, 57.6908], "type": "Point"}, "type": "feature"}, {"properties": {"countryId": "2017370", "toponymName": "Ust\u2019ye Reki Molomy", "adminCode1": "33", "geonameId": 7794329, "fcl": "P", "name": "Ust\u2019ye Reki Molomy", "countryName": "Russia", "fclName": "city, village,...", "fcode": "PPL", "adminName1": "Kirov", "countryCode": "RU", "population": 0, "fcodeName": "populated place"}, "geometry": {"coordinates": [48.4615, 58.3441], "type": "Point"}, "type": "feature"}, {"properties": {"countryId": "2017370", "toponymName": "Ust\u2019ye-Rychazhnoye", "adminCode1": "33", "geonameId": 6315580, "fcl": "P", "name": "Ust\u2019ye-Rychazhnoye", "countryName": "Russia", "fclName": "city, village,...", "fcode": "PPLQ", "adminName1": "Kirov", "countryCode": "RU", "population": 0, "fcodeName": "abandoned populated place"}, "geometry": {"coordinates": [50.26361, 59.00972], "type": "Point"}, "type": "feature"}, {"properties": {"countryId": "2017370", "toponymName": "Ust\u2019ye Kobry", "adminCode1": "33", "geonameId": 6315650, "fcl": "P", "name": "Ust\u2019ye Kobry", "countryName": "Russia", "fclName": "city, village,...", "fcode": "PPLQ", "adminName1": "Kirov", "countryCode": "RU", "population": 0, "fcodeName": "abandoned populated place"}, "geometry": {"coordinates": [50.86194, 59.32028], "type": "Point"}, "type": "feature"}]}