{"type": "FeatureCollection", "features": [{"type": "Feature", "geometry": {"coordinates": [39.73596, 59.63043], "type": "Point"}, "properties": {"countryCode": "RU", "countryId": "2017370", "fcodeName": "populated place", "adminName1": "Vologda", "fclName": "city, village,...", "fcl": "P", "countryName": "Russia", "fcode": "PPL", "geonameId": 477846, "population": 4151, "adminCode1": "85", "name": "Ust'ye", "toponymName": "Ust\u2019ye"}}, {"type": "Feature", "geometry": {"coordinates": [47.0439, 60.263], "type": "Point"}, "properties": {"countryCode": "RU", "countryId": "2017370", "fcodeName": "populated place", "adminName1": "Kirov", "fclName": "city, village,...", "fcl": "P", "countryName": "Russia", "fcode": "PPL", "geonameId": 7513134, "population": 0, "adminCode1": "33", "name": "Ust\u2019ye", "toponymName": "Ust\u2019ye"}}, {"type": "Feature", "geometry": {"coordinates": [38.6684, 57.7176], "type": "Point"}, "properties": {"countryCode": "RU", "countryId": "2017370", "fcodeName": "populated place", "adminName1": "Jaroslavl", "fclName": "city, village,...", "fcl": "P", "countryName": "Russia", "fcode": "PPL", "geonameId": 7587530, "population": 0, "adminCode1": "88", "name": "Ust\u2019ye", "toponymName": "Ust\u2019ye"}}, {"type": "Feature", "geometry": {"coordinates": [51.0479, 61.23977], "type": "Point"}, "properties": {"countryCode": "RU", "countryId": "2017370", "fcodeName": "populated place", "adminName1": "Komi Republic", "fclName": "city, village,...", "fcl": "P", "countryName": "Russia", "fcode": "PPL", "geonameId": 527331, "population": 0, "adminCode1": "34", "name": "Met-Ust'ye", "toponymName": "Met-Ust\u2019ye"}}, {"type": "Feature", "geometry": {"coordinates": [38.7866, 59.8406], "type": "Point"}, "properties": {"countryCode": "RU", "countryId": "2017370", "fcodeName": "populated place", "adminName1": "Vologda", "fclName": "city, village,...", "fcl": "P", "countryName": "Russia", "fcode": "PPL", "geonameId": 7494764, "population": 0, "adminCode1": "85", "name": "Ust\u2019ye-Sitskoye", "toponymName": "Ust\u2019ye-Sitskoye"}}, {"type": "Feature", "geometry": {"coordinates": [46.2234, 60.6188], "type": "Point"}, "properties": {"countryCode": "RU", "countryId": "2017370", "fcodeName": "populated place", "adminName1": "Vologda", "fclName": "city, village,...", "fcl": "P", "countryName": "Russia", "fcode": "PPL", "geonameId": 7512816, "population": 0, "adminCode1": "85", "name": "Ust\u2019ye Povalikhino", "toponymName": "Ust\u2019ye Povalikhino"}}, {"type": "Feature", "geometry": {"coordinates": [42.62764, 59.78781], "type": "Point"}, "properties": {"countryCode": "RU", "countryId": "2017370", "fcodeName": "populated place", "adminName1": "Vologda", "fclName": "city, village,...", "fcl": "P", "countryName": "Russia", "fcode": "PPL", "geonameId": 478002, "population": 0, "adminCode1": "85", "name": "Ust'ye", "toponymName": "Ust\u2019ye"}}, {"type": "Feature", "geometry": {"coordinates": [47.79525, 61.51126], "type": "Point"}, "properties": {"countryCode": "RU", "countryId": "2017370", "fcodeName": "populated place", "adminName1": "Arkhangelskaya", "fclName": "city, village,...", "fcl": "P", "countryName": "Russia", "fcode": "PPL", "geonameId": 477834, "population": 0, "adminCode1": "06", "name": "Ust'ye", "toponymName": "Ust\u2019ye"}}, {"type": "Feature", "geometry": {"coordinates": [38.5723, 60.0196], "type": "Point"}, "properties": {"countryCode": "RU", "countryId": "2017370", "fcodeName": "populated place", "adminName1": "Vologda", "fclName": "city, village,...", "fcl": "P", "countryName": "Russia", "fcode": "PPL", "geonameId": 477842, "population": 0, "adminCode1": "85", "name": "Ust'ye", "toponymName": "Ust\u2019ye"}}, {"type": "Feature", "geometry": {"coordinates": [39.77684, 57.78325], "type": "Point"}, "properties": {"countryCode": "RU", "countryId": "2017370", "fcodeName": "populated place", "adminName1": "Jaroslavl", "fclName": "city, village,...", "fcl": "P", "countryName": "Russia", "fcode": "PPL", "geonameId": 477859, "population": 0, "adminCode1": "88", "name": "Ust'ye", "toponymName": "Ust\u2019ye"}}, {"type": "Feature", "geometry": {"coordinates": [39.68404, 59.61462], "type": "Point"}, "properties": {"countryCode": "RU", "countryId": "2017370", "fcodeName": "populated place", "adminName1": "Vologda", "fclName": "city, village,...", "fcl": "P", "countryName": "Russia", "fcode": "PPL", "geonameId": 9260849, "population": 0, "adminCode1": "85", "name": "Ust\u2019ye", "toponymName": "Ust\u2019ye"}}, {"type": "Feature", "geometry": {"coordinates": [45.35, 61.45], "type": "Point"}, "properties": {"countryCode": "RU", "countryId": "2017370", "fcodeName": "populated place", "adminName1": "Arkhangelskaya", "fclName": "city, village,...", "fcl": "P", "countryName": "Russia", "fcode": "PPL", "geonameId": 505213, "population": 0, "adminCode1": "06", "name": "Pri Reke Ust\u2019ye", "toponymName": "Pri Reke Ust\u2019ye"}}, {"type": "Feature", "geometry": {"coordinates": [40.15, 59.3], "type": "Point"}, "properties": {"countryCode": "RU", "countryId": "2017370", "fcodeName": "populated place", "adminName1": "Vologda", "fclName": "city, village,...", "fcl": "P", "countryName": "Russia", "fcode": "PPL", "geonameId": 477912, "population": 0, "adminCode1": "85", "name": "Ust'-Vologodskoye", "toponymName": "Ust\u2019-Vologodskoye"}}, {"type": "Feature", "geometry": {"coordinates": [44.29453, 60.42781], "type": "Point"}, "properties": {"countryCode": "RU", "countryId": "2017370", "fcodeName": "populated place", "adminName1": "Vologda", "fclName": "city, village,...", "fcl": "P", "countryName": "Russia", "fcode": "PPL", "geonameId": 477825, "population": 0, "adminCode1": "85", "name": "Ust'ye-Gorodischenskoye", "toponymName": "Ust\u2019ye-Gorodischenskoye"}}, {"type": "Feature", "geometry": {"coordinates": [48.24527, 57.5792], "type": "Point"}, "properties": {"countryCode": "RU", "countryId": "2017370", "fcodeName": "populated place", "adminName1": "Kirov", "fclName": "city, village,...", "fcl": "P", "countryName": "Russia", "fcode": "PPL", "geonameId": 477861, "population": 0, "adminCode1": "33", "name": "Ust\u2019ye", "toponymName": "Ust\u2019ye"}}, {"type": "Feature", "geometry": {"coordinates": [49.26089, 58.72494], "type": "Point"}, "properties": {"countryCode": "RU", "countryId": "2017370", "fcodeName": "populated place", "adminName1": "Kirov", "fclName": "city, village,...", "fcl": "P", "countryName": "Russia", "fcode": "PPL", "geonameId": 6267268, "population": 0, "adminCode1": "33", "name": "Ust\u2019ye", "toponymName": "Ust\u2019ye"}}, {"type": "Feature", "geometry": {"coordinates": [38.2406, 60.2622], "type": "Point"}, "properties": {"countryCode": "RU", "countryId": "2017370", "fcodeName": "populated place", "adminName1": "Vologda", "fclName": "city, village,...", "fcl": "P", "countryName": "Russia", "fcode": "PPL", "geonameId": 8245429, "population": 0, "adminCode1": "85", "name": "Ust\u2019ye", "toponymName": "Ust\u2019ye"}}, {"type": "Feature", "geometry": {"coordinates": [45.3017, 63.7876], "type": "Point"}, "properties": {"countryCode": "RU", "countryId": "2017370", "fcodeName": "populated place", "adminName1": "Arkhangelskaya", "fclName": "city, village,...", "fcl": "P", "countryName": "Russia", "fcode": "PPL", "geonameId": 8249068, "population": 0, "adminCode1": "06", "name": "Ust\u2019ye", "toponymName": "Ust\u2019ye"}}, {"type": "Feature", "geometry": {"coordinates": [53.355, 57.6908], "type": "Point"}, "properties": {"countryCode": "RU", "countryId": "2017370", "fcodeName": "populated place", "adminName1": "Udmurtiya", "fclName": "city, village,...", "fcl": "P", "countryName": "Russia", "fcode": "PPL", "geonameId": 8255297, "population": 0, "adminCode1": "80", "name": "Ust\u2019ye Lyuk", "toponymName": "Ust\u2019ye Lyuk"}}, {"type": "Feature", "geometry": {"coordinates": [48.4615, 58.3441], "type": "Point"}, "properties": {"countryCode": "RU", "countryId": "2017370", "fcodeName": "populated place", "adminName1": "Kirov", "fclName": "city, village,...", "fcl": "P", "countryName": "Russia", "fcode": "PPL", "geonameId": 7794329, "population": 0, "adminCode1": "33", "name": "Ust\u2019ye Reki Molomy", "toponymName": "Ust\u2019ye Reki Molomy"}}, {"type": "Feature", "geometry": {"coordinates": [50.26361, 59.00972], "type": "Point"}, "properties": {"countryCode": "RU", "countryId": "2017370", "fcodeName": "abandoned populated place", "adminName1": "Kirov", "fclName": "city, village,...", "fcl": "P", "countryName": "Russia", "fcode": "PPLQ", "geonameId": 6315580, "population": 0, "adminCode1": "33", "name": "Ust\u2019ye-Rychazhnoye", "toponymName": "Ust\u2019ye-Rychazhnoye"}}, {"type": "Feature", "geometry": {"coordinates": [50.86194, 59.32028], "type": "Point"}, "properties": {"countryCode": "RU", "countryId": "2017370", "fcodeName": "abandoned populated place", "adminName1": "Kirov", "fclName": "city, village,...", "fcl": "P", "countryName": "Russia", "fcode": "PPLQ", "geonameId": 6315650, "population": 0, "adminCode1": "33", "name": "Ust\u2019ye Kobry", "toponymName": "Ust\u2019ye Kobry"}}]}