{"type": "FeatureCollection", "features": [{"properties": {"countryId": "2017370", "toponymName": "Yazykovo", "adminCode1": "65", "geonameId": 468489, "fcl": "P", "name": "Yazykovo", "countryName": "Russia", "fclName": "city, village,...", "fcode": "PPL", "adminName1": "Samara", "countryCode": "RU", "population": 0, "fcodeName": "populated place"}, "geometry": {"coordinates": [52.0422, 53.2743], "type": "Point"}, "type": "feature"}, {"properties": {"countryId": "2017370", "toponymName": "Yazykovo", "adminCode1": "81", "geonameId": 7458251, "fcl": "P", "name": "Yazykovo", "countryName": "Russia", "fclName": "city, village,...", "fcode": "PPL", "adminName1": "Ulyanovsk", "countryCode": "RU", "population": 0, "fcodeName": "populated place"}, "geometry": {"coordinates": [47.2988, 53.3865], "type": "Point"}, "type": "feature"}, {"properties": {"countryId": "2017370", "toponymName": "Yazykovo", "adminCode1": "81", "geonameId": 468486, "fcl": "P", "name": "Yazykovo", "countryName": "Russia", "fclName": "city, village,...", "fcode": "PPL", "adminName1": "Ulyanovsk", "countryCode": "RU", "population": 4918, "fcodeName": "populated place"}, "geometry": {"coordinates": [47.3891, 54.2922], "type": "Point"}, "type": "feature"}, {"properties": {"countryId": "2017370", "toponymName": "Yazykovo", "adminCode1": "51", "geonameId": 468481, "fcl": "P", "name": "Yazykovo", "countryName": "Russia", "fclName": "city, village,...", "fcode": "PPL", "adminName1": "Nizjnij Novgorod", "countryCode": "RU", "population": 0, "fcodeName": "populated place"}, "geometry": {"coordinates": [46.29562, 55.41713], "type": "Point"}, "type": "feature"}, {"properties": {"countryId": "2017370", "toponymName": "Yazykovo", "adminCode1": "46", "geonameId": 468485, "fcl": "P", "name": "Yazykovo", "countryName": "Russia", "fclName": "city, village,...", "fcode": "PPL", "adminName1": "Mordoviya", "countryCode": "RU", "population": 0, "fcodeName": "populated place"}, "geometry": {"coordinates": [44.953, 54.46074], "type": "Point"}, "type": "feature"}, {"properties": {"countryId": "2017370", "toponymName": "Yazykovo", "adminCode1": "81", "geonameId": 468487, "fcl": "P", "name": "Yazykovo", "countryName": "Russia", "fclName": "city, village,...", "fcode": "PPL", "adminName1": "Ulyanovsk", "countryCode": "RU", "population": 0, "fcodeName": "populated place"}, "geometry": {"coordinates": [48.4612, 53.6757], "type": "Point"}, "type": "feature"}, {"properties": {"countryId": "2017370", "toponymName": "Yazykovo", "adminCode1": "73", "geonameId": 827937, "fcl": "P", "name": "Yazykovo", "countryName": "Russia", "fclName": "city, village,...", "fcode": "PPL", "adminName1": "Tatarstan", "countryCode": "RU", "population": 0, "fcodeName": "populated place"}, "geometry": {"coordinates": [49.8824, 55.0736], "type": "Point"}, "type": "feature"}]}