{"type": "FeatureCollection", "features": [{"type": "Feature", "geometry": {"coordinates": [52.0422, 53.2743], "type": "Point"}, "properties": {"countryCode": "RU", "countryId": "2017370", "fcodeName": "populated place", "adminName1": "Samara", "fclName": "city, village,...", "fcl": "P", "countryName": "Russia", "fcode": "PPL", "geonameId": 468489, "population": 0, "adminCode1": "65", "name": "Yazykovo", "toponymName": "Yazykovo"}}, {"type": "Feature", "geometry": {"coordinates": [47.2988, 53.3865], "type": "Point"}, "properties": {"countryCode": "RU", "countryId": "2017370", "fcodeName": "populated place", "adminName1": "Ulyanovsk", "fclName": "city, village,...", "fcl": "P", "countryName": "Russia", "fcode": "PPL", "geonameId": 7458251, "population": 0, "adminCode1": "81", "name": "Yazykovo", "toponymName": "Yazykovo"}}, {"type": "Feature", "geometry": {"coordinates": [47.3891, 54.2922], "type": "Point"}, "properties": {"countryCode": "RU", "countryId": "2017370", "fcodeName": "populated place", "adminName1": "Ulyanovsk", "fclName": "city, village,...", "fcl": "P", "countryName": "Russia", "fcode": "PPL", "geonameId": 468486, "population": 4918, "adminCode1": "81", "name": "Yazykovo", "toponymName": "Yazykovo"}}, {"type": "Feature", "geometry": {"coordinates": [46.29562, 55.41713], "type": "Point"}, "properties": {"countryCode": "RU", "countryId": "2017370", "fcodeName": "populated place", "adminName1": "Nizjnij Novgorod", "fclName": "city, village,...", "fcl": "P", "countryName": "Russia", "fcode": "PPL", "geonameId": 468481, "population": 0, "adminCode1": "51", "name": "Yazykovo", "toponymName": "Yazykovo"}}, {"type": "Feature", "geometry": {"coordinates": [44.953, 54.46074], "type": "Point"}, "properties": {"countryCode": "RU", "countryId": "2017370", "fcodeName": "populated place", "adminName1": "Mordoviya", "fclName": "city, village,...", "fcl": "P", "countryName": "Russia", "fcode": "PPL", "geonameId": 468485, "population": 0, "adminCode1": "46", "name": "Yazykovo", "toponymName": "Yazykovo"}}, {"type": "Feature", "geometry": {"coordinates": [48.4612, 53.6757], "type": "Point"}, "properties": {"countryCode": "RU", "countryId": "2017370", "fcodeName": "populated place", "adminName1": "Ulyanovsk", "fclName": "city, village,...", "fcl": "P", "countryName": "Russia", "fcode": "PPL", "geonameId": 468487, "population": 0, "adminCode1": "81", "name": "Yazykovo", "toponymName": "Yazykovo"}}, {"type": "Feature", "geometry": {"coordinates": [49.8824, 55.0736], "type": "Point"}, "properties": {"countryCode": "RU", "countryId": "2017370", "fcodeName": "populated place", "adminName1": "Tatarstan", "fclName": "city, village,...", "fcl": "P", "countryName": "Russia", "fcode": "PPL", "geonameId": 827937, "population": 0, "adminCode1": "73", "name": "Yazykovo", "toponymName": "Yazykovo"}}]}